rosbagTimestamp,header,seq,stamp,secs,nsecs,frame_id,pose,position,x,y,z,orientation,x,y,z,w
1665476229827599671,,630,,1665476229,826956987,'',,,6.8,-2.72,1.7,,0.0,0.0,0.0,1.0
1665476229918475837,,631,,1665476229,918107032,'',,,6.8,-2.61,1.77,,0.0,0.0,0.0,1.0
1665476230025291069,,632,,1665476230,24812936,'',,,6.8,-2.51,1.77,,0.0,0.0,0.0,1.0
1665476230125305892,,633,,1665476230,124792098,'',,,6.77,-2.38,1.66,,0.0,0.0,0.0,1.0
1665476230223811744,,634,,1665476230,223431110,'',,,6.74,-2.26,1.52,,0.0,0.0,0.0,1.0
1665476230324671064,,635,,1665476230,324172973,'',,,6.72,-2.17,1.42,,0.0,0.0,0.0,1.0
1665476230426111443,,636,,1665476230,425632953,'',,,6.71,-2.03,1.42,,0.0,0.0,0.0,1.0
1665476230525447064,,637,,1665476230,524986028,'',,,6.69,-1.91,1.52,,0.0,0.0,0.0,1.0
1665476230624940723,,638,,1665476230,624408960,'',,,6.69,-1.77,1.47,,0.0,0.0,0.0,1.0
1665476230724405837,,639,,1665476230,724051952,'',,,6.65,-1.6,1.81,,0.0,0.0,0.0,1.0
1665476230818538647,,640,,1665476230,818023920,'',,,6.63,-1.48,1.64,,0.0,0.0,0.0,1.0
1665476230918892031,,641,,1665476230,918056964,'',,,6.63,-1.31,1.72,,0.0,0.0,0.0,1.0
1665476231025834299,,642,,1665476231,25362014,'',,,6.59,-1.21,1.73,,0.0,0.0,0.0,1.0
1665476231127101659,,643,,1665476231,126632928,'',,,6.62,-1.02,2.03,,0.0,0.0,0.0,1.0
1665476231226666977,,644,,1665476231,226005077,'',,,6.63,-0.9,1.78,,0.0,0.0,0.0,1.0
1665476231325715338,,645,,1665476231,325347900,'',,,6.62,-0.69,2.03,,0.0,0.0,0.0,1.0
1665476231418274182,,646,,1665476231,417879104,'',,,6.61,-0.52,1.87,,0.0,0.0,0.0,1.0
1665476231525955378,,647,,1665476231,525510072,'',,,6.6,-0.34,1.8,,0.0,0.0,0.0,1.0
1665476231625482560,,648,,1665476231,624933004,'',,,6.58,-0.12,1.96,,0.0,0.0,0.0,1.0
1665476231718707539,,649,,1665476231,718274116,'',,,6.56,0.06,1.82,,0.0,0.0,0.0,1.0
1665476231825432306,,650,,1665476231,825051069,'',,,6.54,0.3,1.96,,0.0,0.0,0.0,1.0
1665476231925476843,,651,,1665476231,924953937,'',,,6.52,0.5,1.87,,0.0,0.0,0.0,1.0
1665476232025735656,,652,,1665476232,25233030,'',,,6.48,0.74,1.93,,0.0,0.0,0.0,1.0
1665476232126215308,,653,,1665476232,125531911,'',,,6.46,0.97,1.88,,0.0,0.0,0.0,1.0
1665476232225580134,,654,,1665476232,225157022,'',,,6.44,1.2,1.83,,0.0,0.0,0.0,1.0
1665476232325756966,,655,,1665476232,325321912,'',,,6.41,1.47,1.82,,0.0,0.0,0.0,1.0
1665476232426422278,,656,,1665476232,425890922,'',,,6.39,1.71,1.59,,0.0,0.0,0.0,1.0
1665476232526190040,,657,,1665476232,525697946,'',,,6.36,1.98,1.43,,0.0,0.0,0.0,1.0
1665476232626377297,,658,,1665476232,625893115,'',,,6.37,2.23,1.45,,0.0,0.0,0.0,1.0
1665476232726011337,,659,,1665476232,725661039,'',,,6.33,2.51,1.32,,0.0,0.0,0.0,1.0
1665476232826498721,,660,,1665476232,826009988,'',,,6.26,2.78,1.58,,0.0,0.0,0.0,1.0
1665476232925773743,,661,,1665476232,925184965,'',,,6.25,3.07,1.88,,0.0,0.0,0.0,1.0
1665476233025339914,,662,,1665476233,25069952,'',,,6.23,3.37,2.12,,0.0,0.0,0.0,1.0
1665476233126524274,,663,,1665476233,125968933,'',,,6.17,3.63,2.11,,0.0,0.0,0.0,1.0
1665476233226213048,,664,,1665476233,225769042,'',,,6.16,3.94,2.23,,0.0,0.0,0.0,1.0
1665476233326160225,,665,,1665476233,325814008,'',,,6.1,4.22,2.28,,0.0,0.0,0.0,1.0
1665476233419179284,,666,,1665476233,418586015,'',,,6.09,4.48,1.85,,0.0,0.0,0.0,1.0
1665476233518993799,,667,,1665476233,518484115,'',,,6.07,4.78,1.64,,0.0,0.0,0.0,1.0
1665476233626840512,,668,,1665476233,626348972,'',,,6.05,5.09,1.8,,0.0,0.0,0.0,1.0
1665476233726697697,,669,,1665476233,726174116,'',,,6.04,5.42,1.95,,0.0,0.0,0.0,1.0
1665476233826638304,,670,,1665476233,826062917,'',,,6.01,5.72,1.96,,0.0,0.0,0.0,1.0
1665476233926878629,,671,,1665476233,926445960,'',,,5.97,6.03,2.01,,0.0,0.0,0.0,1.0
1665476234026579050,,672,,1665476234,26096105,'',,,5.97,6.32,1.7,,0.0,0.0,0.0,1.0
1665476234126920738,,673,,1665476234,126327037,'',,,5.94,6.63,1.7,,0.0,0.0,0.0,1.0
1665476234218400117,,674,,1665476234,217941045,'',,,5.93,6.89,1.31,,0.0,0.0,0.0,1.0
1665476234520015604,,675,,1665476234,519639015,'',,,5.92,7.32,1.08,,0.0,0.0,0.0,1.0
1665476234719494279,,676,,1665476234,718837022,'',,,5.93,7.8,0.85,,0.0,0.0,0.0,1.0
1665476234919040660,,677,,1665476234,918515920,'',,,5.94,8.28,0.53,,0.0,0.0,0.0,1.0
1665476235026004762,,678,,1665476235,25652885,'',,,5.36,8.36,0.28,,0.0,0.0,0.0,1.0
1665476235126607355,,679,,1665476235,126233100,'',,,5.53,8.91,0.78,,0.0,0.0,0.0,1.0
1665476235226813885,,680,,1665476235,226319074,'',,,5.68,9.41,1.15,,0.0,0.0,0.0,1.0
1665476235326841152,,681,,1665476235,326322078,'',,,5.8,9.85,1.4,,0.0,0.0,0.0,1.0
1665476235427186899,,682,,1665476235,426599025,'',,,5.93,10.24,1.47,,0.0,0.0,0.0,1.0
1665476235526836550,,683,,1665476235,526304006,'',,,6.03,10.6,1.58,,0.0,0.0,0.0,1.0
1665476235618981952,,684,,1665476235,618664026,'',,,6.17,10.93,1.38,,0.0,0.0,0.0,1.0
1665476235727098809,,685,,1665476235,726664066,'',,,6.27,11.26,1.29,,0.0,0.0,0.0,1.0
1665476235827344655,,686,,1665476235,826906919,'',,,6.39,11.55,1.22,,0.0,0.0,0.0,1.0
1665476235918728060,,687,,1665476235,918319940,'',,,6.51,11.84,1.12,,0.0,0.0,0.0,1.0
1665476236026780581,,688,,1665476236,26324987,'',,,6.59,12.13,1.3,,0.0,0.0,0.0,1.0
1665476236126493125,,689,,1665476236,126019001,'',,,6.7,12.42,1.41,,0.0,0.0,0.0,1.0
1665476236219562177,,690,,1665476236,218828916,'',,,6.83,12.68,1.29,,0.0,0.0,0.0,1.0
1665476236326865224,,691,,1665476236,326349020,'',,,6.99,12.94,1.13,,0.0,0.0,0.0,1.0
1665476236426982081,,692,,1665476236,426690101,'',,,7.11,13.24,1.11,,0.0,0.0,0.0,1.0
1665476236527978757,,693,,1665476236,527673959,'',,,7.19,13.55,1.09,,0.0,0.0,0.0,1.0
1665476236627054287,,694,,1665476236,626766920,'',,,7.32,13.83,1.13,,0.0,0.0,0.0,1.0
1665476236719011535,,695,,1665476236,718722105,'',,,7.51,14.04,1.01,,0.0,0.0,0.0,1.0
1665476236819073321,,696,,1665476236,818814992,'',,,7.66,14.26,1.1,,0.0,0.0,0.0,1.0
1665476236919376713,,697,,1665476236,918893098,'',,,7.86,14.49,1.05,,0.0,0.0,0.0,1.0
1665476237028511342,,698,,1665476237,28023004,'',,,8.05,14.65,0.94,,0.0,0.0,0.0,1.0
1665476237227011085,,699,,1665476237,226465940,'',,,8.23,14.89,1.28,,0.0,0.0,0.0,1.0
1665476237319436450,,700,,1665476237,319020032,'',,,8.51,15.17,1.15,,0.0,0.0,0.0,1.0
1665476237419620999,,701,,1665476237,419080018,'',,,8.74,15.35,1.09,,0.0,0.0,0.0,1.0
1665476237519825586,,702,,1665476237,519292116,'',,,8.97,15.52,1.05,,0.0,0.0,0.0,1.0
1665476237626425541,,703,,1665476237,625869989,'',,,9.23,15.75,1.06,,0.0,0.0,0.0,1.0
1665476237718925421,,704,,1665476237,718447923,'',,,9.52,15.93,1.06,,0.0,0.0,0.0,1.0
1665476237826236421,,705,,1665476237,825680017,'',,,9.72,16.08,1.02,,0.0,0.0,0.0,1.0
1665476238019132570,,706,,1665476238,18433094,'',,,9.94,16.32,1.08,,0.0,0.0,0.0,1.0
1665476238128218849,,707,,1665476238,127651929,'',,,10.16,16.43,1.22,,0.0,0.0,0.0,1.0
1665476238226992427,,708,,1665476238,226417064,'',,,10.45,16.56,1.21,,0.0,0.0,0.0,1.0
1665476238327367555,,709,,1665476238,326867103,'',,,10.71,16.71,1.24,,0.0,0.0,0.0,1.0
1665476238419297067,,710,,1665476238,418791055,'',,,10.93,16.81,1.35,,0.0,0.0,0.0,1.0
1665476238528989608,,711,,1665476238,528598070,'',,,11.17,16.92,1.36,,0.0,0.0,0.0,1.0
1665476238628795332,,712,,1665476238,628443002,'',,,11.39,17.01,1.45,,0.0,0.0,0.0,1.0
1665476238718956553,,713,,1665476238,718532085,'',,,11.62,17.09,1.48,,0.0,0.0,0.0,1.0
1665476239318592544,,714,,1665476239,318263053,'',,,12.18,17.21,1.37,,0.0,0.0,0.0,1.0
1665476239426593233,,715,,1665476239,426278114,'',,,12.74,17.32,1.29,,0.0,0.0,0.0,1.0
1665476239527438656,,716,,1665476239,526870012,'',,,13.25,17.39,1.33,,0.0,0.0,0.0,1.0
1665476239626607000,,717,,1665476239,626159906,'',,,13.69,17.44,1.31,,0.0,0.0,0.0,1.0
1665476239726498189,,718,,1665476239,725735902,'',,,14.1,17.49,1.32,,0.0,0.0,0.0,1.0
1665476239827040506,,719,,1665476239,826766967,'',,,14.47,17.54,1.27,,0.0,0.0,0.0,1.0
1665476239920388710,,720,,1665476239,919511079,'',,,14.83,17.57,1.22,,0.0,0.0,0.0,1.0
1665476240027068771,,721,,1665476240,26599884,'',,,15.17,17.66,1.24,,0.0,0.0,0.0,1.0
1665476240126937634,,722,,1665476240,126465082,'',,,15.51,17.66,1.29,,0.0,0.0,0.0,1.0
1665476240227082326,,723,,1665476240,226574897,'',,,15.81,17.74,1.26,,0.0,0.0,0.0,1.0
1665476240326560965,,724,,1665476240,326160907,'',,,16.15,17.73,1.21,,0.0,0.0,0.0,1.0
1665476240425358384,,725,,1665476240,425043106,'',,,16.47,17.8,1.22,,0.0,0.0,0.0,1.0
1665476240527641820,,726,,1665476240,526829957,'',,,16.8,17.77,1.17,,0.0,0.0,0.0,1.0
1665476240626434431,,727,,1665476240,625828981,'',,,17.11,17.75,1.15,,0.0,0.0,0.0,1.0
1665476240726752231,,728,,1665476240,726315021,'',,,17.44,17.73,1.18,,0.0,0.0,0.0,1.0
1665476240826969188,,729,,1665476240,826396942,'',,,17.71,17.86,1.11,,0.0,0.0,0.0,1.0
1665476240926962740,,730,,1665476240,926367044,'',,,18.04,17.8,1.11,,0.0,0.0,0.0,1.0
1665476241026677217,,731,,1665476241,25849103,'',,,18.36,17.76,1.18,,0.0,0.0,0.0,1.0
1665476241127641115,,732,,1665476241,127165079,'',,,18.65,17.83,1.2,,0.0,0.0,0.0,1.0
1665476241227123786,,733,,1665476241,226478099,'',,,18.97,17.79,1.14,,0.0,0.0,0.0,1.0
1665476241326521684,,734,,1665476241,325978994,'',,,19.3,17.74,1.21,,0.0,0.0,0.0,1.0
1665476241427228572,,735,,1665476241,426851034,'',,,19.63,17.65,1.15,,0.0,0.0,0.0,1.0
1665476241525990846,,736,,1665476241,525692939,'',,,19.92,17.65,1.09,,0.0,0.0,0.0,1.0
1665476241626673698,,737,,1665476241,626107931,'',,,20.23,17.6,1.12,,0.0,0.0,0.0,1.0
1665476241726866964,,738,,1665476241,726357936,'',,,20.55,17.57,1.06,,0.0,0.0,0.0,1.0
1665476241827230289,,739,,1665476241,826772928,'',,,20.82,17.68,1.04,,0.0,0.0,0.0,1.0
1665476241927086139,,740,,1665476241,926640033,'',,,21.11,17.64,1.06,,0.0,0.0,0.0,1.0
1665476242027028270,,741,,1665476242,26576042,'',,,21.4,17.68,1.2,,0.0,0.0,0.0,1.0
1665476242126873432,,742,,1665476242,126390933,'',,,21.67,17.79,1.12,,0.0,0.0,0.0,1.0
1665476242226831573,,743,,1665476242,226392030,'',,,21.93,17.87,1.08,,0.0,0.0,0.0,1.0
1665476242327539817,,744,,1665476242,326992988,'',,,22.23,17.88,1.04,,0.0,0.0,0.0,1.0
1665476242427047839,,745,,1665476242,426525115,'',,,22.54,17.87,1.05,,0.0,0.0,0.0,1.0
1665476242526574471,,746,,1665476242,526052951,'',,,22.84,17.87,1.14,,0.0,0.0,0.0,1.0
1665476242626361201,,747,,1665476242,625670909,'',,,23.12,17.89,1.21,,0.0,0.0,0.0,1.0
1665476242726877241,,748,,1665476242,726273059,'',,,23.38,17.92,1.2,,0.0,0.0,0.0,1.0
1665476242826821011,,749,,1665476242,826383113,'',,,23.65,17.92,1.16,,0.0,0.0,0.0,1.0
1665476242926450068,,750,,1665476242,925941944,'',,,23.94,17.87,1.32,,0.0,0.0,0.0,1.0
1665476243026633392,,751,,1665476243,26242971,'',,,24.22,17.85,1.21,,0.0,0.0,0.0,1.0
1665476243127303783,,752,,1665476243,126588106,'',,,24.54,17.82,1.12,,0.0,0.0,0.0,1.0
1665476243227196122,,753,,1665476243,226773023,'',,,24.84,17.76,1.17,,0.0,0.0,0.0,1.0
1665476243327193415,,754,,1665476243,326718091,'',,,25.12,17.74,1.07,,0.0,0.0,0.0,1.0
1665476243426770350,,755,,1665476243,426373004,'',,,25.41,17.72,1.0,,0.0,0.0,0.0,1.0
1665476243527126009,,756,,1665476243,526475906,'',,,25.67,17.66,1.07,,0.0,0.0,0.0,1.0
1665476243626684409,,757,,1665476243,626338958,'',,,25.95,17.6,1.17,,0.0,0.0,0.0,1.0
1665476243727654267,,758,,1665476243,727319955,'',,,26.22,17.55,1.09,,0.0,0.0,0.0,1.0
1665476243828472398,,759,,1665476243,827912092,'',,,26.48,17.48,1.08,,0.0,0.0,0.0,1.0
1665476243919484760,,760,,1665476243,918884992,'',,,26.76,17.44,1.08,,0.0,0.0,0.0,1.0
1665476244028098372,,761,,1665476244,27407884,'',,,27.04,17.38,1.18,,0.0,0.0,0.0,1.0
1665476244126981335,,762,,1665476244,126456022,'',,,27.32,17.42,1.09,,0.0,0.0,0.0,1.0
1665476244226618930,,763,,1665476244,226192951,'',,,27.6,17.46,0.92,,0.0,0.0,0.0,1.0
1665476244326211017,,764,,1665476244,325910091,'',,,27.88,17.45,1.05,,0.0,0.0,0.0,1.0
1665476244426659852,,765,,1665476244,425956010,'',,,28.16,17.44,0.95,,0.0,0.0,0.0,1.0
1665476244525918707,,766,,1665476244,525604009,'',,,28.43,17.39,1.04,,0.0,0.0,0.0,1.0
1665476244626656314,,767,,1665476244,625982046,'',,,28.71,17.39,0.92,,0.0,0.0,0.0,1.0
1665476244727505377,,768,,1665476244,726974964,'',,,28.98,17.32,1.03,,0.0,0.0,0.0,1.0
1665476244827010216,,769,,1665476244,826447963,'',,,29.23,17.33,1.14,,0.0,0.0,0.0,1.0
1665476244926962400,,770,,1665476244,926342010,'',,,29.5,17.33,0.99,,0.0,0.0,0.0,1.0
1665476245026927314,,771,,1665476245,26323080,'',,,29.76,17.32,0.9,,0.0,0.0,0.0,1.0
1665476245119042484,,772,,1665476245,118702888,'',,,30.04,17.33,0.96,,0.0,0.0,0.0,1.0
1665476245226162295,,773,,1665476245,225702047,'',,,30.31,17.35,0.97,,0.0,0.0,0.0,1.0
1665476245326886567,,774,,1665476245,326513051,'',,,30.57,17.34,0.97,,0.0,0.0,0.0,1.0
1665476245426640734,,775,,1665476245,426059007,'',,,30.83,17.38,1.02,,0.0,0.0,0.0,1.0
1665476245519233337,,776,,1665476245,518712043,'',,,31.09,17.45,1.03,,0.0,0.0,0.0,1.0
1665476245626652768,,777,,1665476245,626136064,'',,,31.34,17.53,1.01,,0.0,0.0,0.0,1.0
1665476245726599191,,778,,1665476245,726047039,'',,,31.58,17.56,1.18,,0.0,0.0,0.0,1.0
1665476245826568606,,779,,1665476245,826107025,'',,,31.83,17.6,1.08,,0.0,0.0,0.0,1.0
1665476245925780862,,780,,1665476245,925343036,'',,,32.07,17.72,0.97,,0.0,0.0,0.0,1.0
1665476246026911174,,781,,1665476246,26252031,'',,,32.28,17.88,0.92,,0.0,0.0,0.0,1.0
1665476246125561323,,782,,1665476246,125207901,'',,,32.52,17.93,1.03,,0.0,0.0,0.0,1.0
1665476246227009226,,783,,1665476246,226646900,'',,,32.75,18.01,1.11,,0.0,0.0,0.0,1.0
1665476246326072734,,784,,1665476246,325596094,'',,,32.96,18.13,1.26,,0.0,0.0,0.0,1.0
1665476246426533611,,785,,1665476246,426074028,'',,,33.17,18.21,1.2,,0.0,0.0,0.0,1.0
1665476246526474494,,786,,1665476246,525955915,'',,,33.4,18.24,1.13,,0.0,0.0,0.0,1.0
1665476246619148825,,787,,1665476246,618664979,'',,,33.61,18.37,1.12,,0.0,0.0,0.0,1.0
1665476246726248923,,788,,1665476246,725641012,'',,,33.8,18.53,1.25,,0.0,0.0,0.0,1.0
1665476246819040089,,789,,1665476246,818679094,'',,,34.0,18.68,1.21,,0.0,0.0,0.0,1.0
1665476246926235856,,790,,1665476246,925724983,'',,,34.18,18.85,1.2,,0.0,0.0,0.0,1.0
1665476247026443163,,791,,1665476247,25948047,'',,,34.33,19.02,1.29,,0.0,0.0,0.0,1.0
1665476247126103826,,792,,1665476247,125653982,'',,,34.5,19.18,1.31,,0.0,0.0,0.0,1.0
1665476247219590982,,793,,1665476247,218910932,'',,,34.68,19.36,1.4,,0.0,0.0,0.0,1.0
1665476247325747495,,794,,1665476247,325351953,'',,,34.84,19.55,1.42,,0.0,0.0,0.0,1.0
1665476247418778901,,795,,1665476247,418499946,'',,,34.99,19.71,1.45,,0.0,0.0,0.0,1.0
1665476247527561290,,796,,1665476247,526230096,'',,,35.13,19.89,1.47,,0.0,0.0,0.0,1.0
1665476247625543459,,797,,1665476247,625004053,'',,,35.28,19.95,1.46,,0.0,0.0,0.0,1.0
1665476247725633677,,798,,1665476247,725264072,'',,,35.41,20.05,1.49,,0.0,0.0,0.0,1.0
1665476247825646378,,799,,1665476247,825179100,'',,,35.53,20.16,1.51,,0.0,0.0,0.0,1.0
1665476247926151069,,800,,1665476247,925714969,'',,,35.65,20.29,1.51,,0.0,0.0,0.0,1.0
1665476248026852928,,801,,1665476248,26380062,'',,,35.75,20.43,1.49,,0.0,0.0,0.0,1.0
1665476248125961920,,802,,1665476248,125231981,'',,,35.83,20.57,1.6,,0.0,0.0,0.0,1.0
1665476248226182912,,803,,1665476248,225635051,'',,,35.92,20.75,1.56,,0.0,0.0,0.0,1.0
1665476248326410887,,804,,1665476248,325923919,'',,,35.99,20.94,1.56,,0.0,0.0,0.0,1.0
1665476248425953261,,805,,1665476248,425337076,'',,,36.08,21.11,1.46,,0.0,0.0,0.0,1.0
1665476248526414719,,806,,1665476248,525831937,'',,,36.14,21.3,1.52,,0.0,0.0,0.0,1.0
1665476248626364419,,807,,1665476248,625888109,'',,,36.19,21.48,1.61,,0.0,0.0,0.0,1.0
1665476248726204636,,808,,1665476248,725692033,'',,,36.24,21.68,1.57,,0.0,0.0,0.0,1.0
1665476248825705204,,809,,1665476248,825295925,'',,,36.29,21.88,1.51,,0.0,0.0,0.0,1.0
1665476248926267010,,810,,1665476248,925566911,'',,,36.33,22.07,1.45,,0.0,0.0,0.0,1.0
1665476249026041836,,811,,1665476249,25629043,'',,,36.34,22.25,1.49,,0.0,0.0,0.0,1.0
1665476249126536607,,812,,1665476249,126108884,'',,,36.33,22.42,1.49,,0.0,0.0,0.0,1.0
1665476249225973258,,813,,1665476249,225630998,'',,,36.35,22.63,1.51,,0.0,0.0,0.0,1.0
1665476249326446683,,814,,1665476249,326124906,'',,,36.37,22.79,1.42,,0.0,0.0,0.0,1.0
1665476249419075587,,815,,1665476249,418636083,'',,,36.35,22.96,1.44,,0.0,0.0,0.0,1.0
1665476249526607392,,816,,1665476249,526082992,'',,,36.36,23.14,1.47,,0.0,0.0,0.0,1.0
1665476249625922353,,817,,1665476249,625375032,'',,,36.39,23.36,1.47,,0.0,0.0,0.0,1.0
1665476249726857814,,818,,1665476249,726219892,'',,,36.4,23.55,1.41,,0.0,0.0,0.0,1.0
1665476249826196804,,819,,1665476249,825634002,'',,,36.42,23.76,1.45,,0.0,0.0,0.0,1.0
1665476249919136117,,820,,1665476249,918708086,'',,,36.4,23.94,1.37,,0.0,0.0,0.0,1.0
1665476250026454009,,821,,1665476250,25650978,'',,,36.39,24.12,1.38,,0.0,0.0,0.0,1.0
1665476250125831101,,822,,1665476250,125432014,'',,,36.43,24.34,1.41,,0.0,0.0,0.0,1.0
1665476250225175228,,823,,1665476250,224771976,'',,,36.42,24.54,1.49,,0.0,0.0,0.0,1.0
1665476250319302016,,824,,1665476250,318880081,'',,,36.45,24.72,1.39,,0.0,0.0,0.0,1.0
1665476250419296814,,825,,1665476250,418853044,'',,,36.39,24.9,1.41,,0.0,0.0,0.0,1.0
1665476250519191398,,826,,1665476250,518723964,'',,,36.33,25.07,1.36,,0.0,0.0,0.0,1.0
1665476250619630290,,827,,1665476250,618987083,'',,,36.3,25.25,1.38,,0.0,0.0,0.0,1.0
1665476250719426582,,828,,1665476250,718930959,'',,,36.28,25.45,1.41,,0.0,0.0,0.0,1.0
1665476250826368935,,829,,1665476250,826001882,'',,,36.25,25.63,1.33,,0.0,0.0,0.0,1.0
1665476250926004980,,830,,1665476250,925358057,'',,,36.21,25.82,1.33,,0.0,0.0,0.0,1.0
1665476251026272211,,831,,1665476251,25795936,'',,,36.19,26.01,1.3,,0.0,0.0,0.0,1.0
1665476251126612508,,832,,1665476251,126010894,'',,,36.17,26.19,1.32,,0.0,0.0,0.0,1.0
1665476251227282364,,833,,1665476251,226728916,'',,,36.16,26.38,1.29,,0.0,0.0,0.0,1.0
1665476251326290536,,834,,1665476251,325705051,'',,,36.13,26.55,1.38,,0.0,0.0,0.0,1.0
1665476251426507497,,835,,1665476251,425997972,'',,,36.09,26.71,1.43,,0.0,0.0,0.0,1.0
1665476251526931877,,836,,1665476251,526532888,'',,,36.11,26.88,1.47,,0.0,0.0,0.0,1.0
1665476251626722431,,837,,1665476251,626178979,'',,,36.08,27.01,1.45,,0.0,0.0,0.0,1.0
1665476251726540076,,838,,1665476251,726232051,'',,,36.09,27.13,1.49,,0.0,0.0,0.0,1.0
1665476251826633039,,839,,1665476251,826039075,'',,,36.05,27.27,1.56,,0.0,0.0,0.0,1.0
1665476251926886887,,840,,1665476251,926364898,'',,,36.01,27.4,1.62,,0.0,0.0,0.0,1.0
1665476252026633107,,841,,1665476252,26061058,'',,,35.99,27.54,1.52,,0.0,0.0,0.0,1.0
1665476252126413284,,842,,1665476252,125701904,'',,,35.98,27.64,1.49,,0.0,0.0,0.0,1.0
1665476252226855881,,843,,1665476252,226094961,'',,,35.97,27.74,1.54,,0.0,0.0,0.0,1.0
1665476252326224443,,844,,1665476252,325648069,'',,,35.96,27.87,1.46,,0.0,0.0,0.0,1.0
1665476252426675540,,845,,1665476252,426086902,'',,,35.94,27.96,1.49,,0.0,0.0,0.0,1.0
1665476252526866212,,846,,1665476252,526139974,'',,,35.91,28.05,1.56,,0.0,0.0,0.0,1.0
1665476252626734281,,847,,1665476252,626353979,'',,,35.89,28.14,1.47,,0.0,0.0,0.0,1.0
1665476252725787791,,848,,1665476252,725373029,'',,,35.88,28.23,1.5,,0.0,0.0,0.0,1.0
1665476252826465136,,849,,1665476252,825887918,'',,,35.86,28.32,1.51,,0.0,0.0,0.0,1.0
1665476252926752407,,850,,1665476252,926348924,'',,,35.85,28.45,1.45,,0.0,0.0,0.0,1.0
1665476253026158055,,851,,1665476253,25866031,'',,,35.85,28.55,1.4,,0.0,0.0,0.0,1.0
1665476253127087545,,852,,1665476253,126508951,'',,,35.83,28.65,1.37,,0.0,0.0,0.0,1.0
1665476253219297188,,853,,1665476253,218674898,'',,,35.83,28.73,1.46,,0.0,0.0,0.0,1.0
1665476253319370021,,854,,1665476253,318746089,'',,,35.8,28.81,1.53,,0.0,0.0,0.0,1.0
1665476253426865096,,855,,1665476253,426206111,'',,,35.8,28.93,1.48,,0.0,0.0,0.0,1.0
1665476253519081167,,856,,1665476253,518595933,'',,,35.77,29.04,1.49,,0.0,0.0,0.0,1.0
1665476253626794336,,857,,1665476253,626214981,'',,,35.75,29.13,1.43,,0.0,0.0,0.0,1.0
1665476253726483575,,858,,1665476253,726067066,'',,,35.73,29.26,1.48,,0.0,0.0,0.0,1.0
1665476253826283347,,859,,1665476253,825762033,'',,,35.69,29.38,1.51,,0.0,0.0,0.0,1.0
1665476253926198958,,860,,1665476253,925673007,'',,,35.66,29.46,1.58,,0.0,0.0,0.0,1.0
1665476254026430554,,861,,1665476254,25907993,'',,,35.61,29.58,1.64,,0.0,0.0,0.0,1.0
1665476254126303914,,862,,1665476254,125938892,'',,,35.59,29.7,1.59,,0.0,0.0,0.0,1.0
1665476254226397503,,863,,1665476254,225873947,'',,,35.56,29.83,1.6,,0.0,0.0,0.0,1.0
1665476254326464524,,864,,1665476254,325922012,'',,,35.51,29.95,1.61,,0.0,0.0,0.0,1.0
1665476254426736759,,865,,1665476254,426211118,'',,,35.48,30.12,1.64,,0.0,0.0,0.0,1.0
1665476254526122818,,866,,1665476254,525635957,'',,,35.43,30.2,1.55,,0.0,0.0,0.0,1.0
1665476254626170663,,867,,1665476254,625833988,'',,,35.38,30.27,1.57,,0.0,0.0,0.0,1.0
1665476254726021362,,868,,1665476254,725728034,'',,,35.34,30.41,1.66,,0.0,0.0,0.0,1.0
1665476254818916910,,869,,1665476254,818490028,'',,,35.3,30.52,1.63,,0.0,0.0,0.0,1.0
1665476254926139882,,870,,1665476254,925687074,'',,,35.24,30.59,1.52,,0.0,0.0,0.0,1.0
1665476255019411125,,871,,1665476255,18893957,'',,,35.18,30.6,1.46,,0.0,0.0,0.0,1.0
1665476255119911534,,872,,1665476255,119353055,'',,,35.1,30.74,1.5,,0.0,0.0,0.0,1.0
1665476255227657660,,873,,1665476255,227036952,'',,,35.04,30.88,1.46,,0.0,0.0,0.0,1.0
1665476255327229985,,874,,1665476255,326792955,'',,,34.98,30.99,1.46,,0.0,0.0,0.0,1.0
1665476255418534078,,875,,1665476255,418219089,'',,,34.99,31.12,1.44,,0.0,0.0,0.0,1.0
1665476255527774225,,876,,1665476255,527308940,'',,,34.89,31.18,1.37,,0.0,0.0,0.0,1.0
1665476255626606409,,877,,1665476255,625981092,'',,,34.79,31.25,1.5,,0.0,0.0,0.0,1.0
1665476255726561492,,878,,1665476255,726134061,'',,,34.7,31.34,1.4,,0.0,0.0,0.0,1.0
1665476255826353084,,879,,1665476255,825738906,'',,,34.61,31.45,1.42,,0.0,0.0,0.0,1.0
1665476255926188630,,880,,1665476255,925767898,'',,,34.53,31.54,1.34,,0.0,0.0,0.0,1.0
1665476256025564004,,881,,1665476256,25058984,'',,,34.42,31.63,1.33,,0.0,0.0,0.0,1.0
1665476256126115856,,882,,1665476256,125629901,'',,,34.31,31.71,1.28,,0.0,0.0,0.0,1.0
1665476256226021095,,883,,1665476256,225600004,'',,,34.14,31.77,1.38,,0.0,0.0,0.0,1.0
1665476256325090839,,884,,1665476256,324573040,'',,,34.01,31.89,1.31,,0.0,0.0,0.0,1.0
1665476256425126266,,885,,1665476256,424709081,'',,,33.81,31.99,1.31,,0.0,0.0,0.0,1.0
1665476256524936480,,886,,1665476256,524473905,'',,,33.66,32.08,1.38,,0.0,0.0,0.0,1.0
1665476256625574447,,887,,1665476256,625346899,'',,,33.55,32.14,1.49,,0.0,0.0,0.0,1.0
1665476256725921445,,888,,1665476256,725481033,'',,,33.46,32.17,1.45,,0.0,0.0,0.0,1.0
1665476256825580323,,889,,1665476256,825089931,'',,,33.34,32.21,1.45,,0.0,0.0,0.0,1.0
1665476256926167498,,890,,1665476256,925708055,'',,,33.24,32.22,1.47,,0.0,0.0,0.0,1.0
1665476257026625482,,891,,1665476257,26201963,'',,,33.12,32.26,1.52,,0.0,0.0,0.0,1.0
1665476257125180579,,892,,1665476257,124908924,'',,,33.01,32.27,1.51,,0.0,0.0,0.0,1.0
1665476257226224857,,893,,1665476257,225799083,'',,,32.87,32.31,1.57,,0.0,0.0,0.0,1.0
1665476257326564287,,894,,1665476257,326163053,'',,,32.71,32.35,1.6,,0.0,0.0,0.0,1.0
1665476257426330748,,895,,1665476257,425724983,'',,,32.56,32.36,1.51,,0.0,0.0,0.0,1.0
1665476257519335607,,896,,1665476257,518747091,'',,,32.37,32.4,1.52,,0.0,0.0,0.0,1.0
1665476257626597500,,897,,1665476257,626111030,'',,,32.22,32.43,1.49,,0.0,0.0,0.0,1.0
1665476257726333479,,898,,1665476257,725836992,'',,,32.04,32.44,1.46,,0.0,0.0,0.0,1.0
1665476257818792303,,899,,1665476257,818444967,'',,,31.87,32.47,1.4,,0.0,0.0,0.0,1.0
1665476257927299959,,900,,1665476257,926660060,'',,,31.7,32.49,1.31,,0.0,0.0,0.0,1.0
1665476258026710857,,901,,1665476258,26221036,'',,,31.5,32.52,1.38,,0.0,0.0,0.0,1.0
1665476258126412473,,902,,1665476258,125816106,'',,,31.34,32.55,1.35,,0.0,0.0,0.0,1.0
1665476258226623857,,903,,1665476258,226015090,'',,,31.19,32.56,1.28,,0.0,0.0,0.0,1.0
1665476258325729480,,904,,1665476258,325180053,'',,,31.03,32.56,1.31,,0.0,0.0,0.0,1.0
1665476258419257152,,905,,1665476258,418791055,'',,,30.84,32.59,1.31,,0.0,0.0,0.0,1.0
1665476258526465831,,906,,1665476258,525912046,'',,,30.66,32.61,1.32,,0.0,0.0,0.0,1.0
1665476258626310779,,907,,1665476258,625677108,'',,,30.49,32.61,1.29,,0.0,0.0,0.0,1.0
1665476258719361536,,908,,1665476258,718946933,'',,,30.3,32.63,1.28,,0.0,0.0,0.0,1.0
1665476258826959573,,909,,1665476258,826286077,'',,,30.1,32.65,1.38,,0.0,0.0,0.0,1.0
1665476258925850958,,910,,1665476258,925378084,'',,,29.93,32.61,1.33,,0.0,0.0,0.0,1.0
1665476259019669064,,911,,1665476259,19201993,'',,,29.73,32.65,1.33,,0.0,0.0,0.0,1.0
1665476259127573583,,912,,1665476259,127057075,'',,,29.54,32.68,1.37,,0.0,0.0,0.0,1.0
1665476259226078384,,913,,1665476259,225635051,'',,,29.39,32.61,1.37,,0.0,0.0,0.0,1.0
1665476259319767099,,914,,1665476259,319164037,'',,,29.18,32.63,1.31,,0.0,0.0,0.0,1.0
1665476259427017805,,915,,1665476259,426616907,'',,,28.97,32.65,1.37,,0.0,0.0,0.0,1.0
1665476259526468017,,916,,1665476259,525857925,'',,,28.81,32.62,1.35,,0.0,0.0,0.0,1.0
1665476259727290662,,917,,1665476259,726728916,'',,,28.56,32.63,1.32,,0.0,0.0,0.0,1.0
1665476259827595602,,918,,1665476259,826987981,'',,,28.34,32.62,1.4,,0.0,0.0,0.0,1.0
1665476260027692602,,919,,1665476260,27019023,'',,,28.09,32.58,1.36,,0.0,0.0,0.0,1.0
1665476260128125278,,920,,1665476260,127630949,'',,,27.83,32.57,1.31,,0.0,0.0,0.0,1.0
1665476260218746579,,921,,1665476260,218348026,'',,,27.36,32.33,1.1,,0.0,0.0,0.0,1.0
1665476260327695245,,922,,1665476260,327296018,'',,,27.18,32.38,1.22,,0.0,0.0,0.0,1.0
1665476260430782294,,923,,1665476260,430160045,'',,,27.01,32.43,1.33,,0.0,0.0,0.0,1.0
1665476260630905602,,924,,1665476260,630367994,'',,,26.77,32.45,1.37,,0.0,0.0,0.0,1.0
1665476260726190813,,925,,1665476260,725646018,'',,,26.54,32.48,1.4,,0.0,0.0,0.0,1.0
1665476260819082159,,926,,1665476260,818599939,'',,,26.32,32.5,1.51,,0.0,0.0,0.0,1.0
1665476260926647280,,927,,1665476260,925980091,'',,,26.08,32.5,1.55,,0.0,0.0,0.0,1.0
1665476261027049896,,928,,1665476261,26500940,'',,,25.86,32.5,1.46,,0.0,0.0,0.0,1.0
1665476261119089761,,929,,1665476261,118668079,'',,,25.64,32.5,1.52,,0.0,0.0,0.0,1.0
1665476261227562123,,930,,1665476261,227001905,'',,,25.39,32.47,1.44,,0.0,0.0,0.0,1.0
1665476261327409589,,931,,1665476261,326778888,'',,,25.19,32.51,1.4,,0.0,0.0,0.0,1.0
1665476261419419820,,932,,1665476261,418955087,'',,,24.97,32.5,1.47,,0.0,0.0,0.0,1.0
1665476261526798911,,933,,1665476261,526129961,'',,,24.72,32.47,1.45,,0.0,0.0,0.0,1.0
1665476261626723696,,934,,1665476261,626236915,'',,,24.54,32.5,1.39,,0.0,0.0,0.0,1.0
1665476261719482008,,935,,1665476261,719116926,'',,,24.28,32.48,1.4,,0.0,0.0,0.0,1.0
1665476261827727890,,936,,1665476261,827131986,'',,,24.09,32.5,1.38,,0.0,0.0,0.0,1.0
1665476261926292202,,937,,1665476261,925935983,'',,,23.88,32.53,1.43,,0.0,0.0,0.0,1.0
1665476262026965853,,938,,1665476262,26578903,'',,,23.65,32.52,1.36,,0.0,0.0,0.0,1.0
1665476262127032263,,939,,1665476262,126552104,'',,,23.43,32.51,1.33,,0.0,0.0,0.0,1.0
1665476262225874933,,940,,1665476262,225538015,'',,,23.22,32.52,1.38,,0.0,0.0,0.0,1.0
1665476262326643137,,941,,1665476262,326339960,'',,,22.99,32.52,1.47,,0.0,0.0,0.0,1.0
1665476262426889429,,942,,1665476262,426358938,'',,,22.75,32.49,1.54,,0.0,0.0,0.0,1.0
1665476262527059817,,943,,1665476262,526643991,'',,,22.53,32.52,1.41,,0.0,0.0,0.0,1.0
1665476262627028430,,944,,1665476262,626636981,'',,,22.3,32.54,1.32,,0.0,0.0,0.0,1.0
1665476262727391159,,945,,1665476262,727019071,'',,,22.08,32.56,1.25,,0.0,0.0,0.0,1.0
1665476262827594427,,946,,1665476262,826924085,'',,,21.84,32.56,1.21,,0.0,0.0,0.0,1.0
1665476262919639525,,947,,1665476262,919234037,'',,,21.59,32.56,1.24,,0.0,0.0,0.0,1.0
1665476263027454933,,948,,1665476263,26941061,'',,,21.37,32.62,1.17,,0.0,0.0,0.0,1.0
1665476263126467973,,949,,1665476263,126147031,'',,,21.13,32.58,1.27,,0.0,0.0,0.0,1.0
1665476263219455819,,950,,1665476263,218966960,'',,,20.88,32.55,1.29,,0.0,0.0,0.0,1.0
1665476263327429808,,951,,1665476263,326839923,'',,,20.65,32.56,1.24,,0.0,0.0,0.0,1.0
1665476263426655102,,952,,1665476263,426204919,'',,,20.41,32.53,1.23,,0.0,0.0,0.0,1.0
1665476263519553922,,953,,1665476263,519053936,'',,,20.2,32.51,1.19,,0.0,0.0,0.0,1.0
1665476263627435858,,954,,1665476263,626878976,'',,,19.96,32.53,1.23,,0.0,0.0,0.0,1.0
1665476263727484965,,955,,1665476263,727008104,'',,,19.73,32.57,1.13,,0.0,0.0,0.0,1.0
1665476263819319548,,956,,1665476263,818866968,'',,,19.49,32.54,1.07,,0.0,0.0,0.0,1.0
1665476263927161855,,957,,1665476263,926759958,'',,,19.26,32.59,1.27,,0.0,0.0,0.0,1.0
1665476264026638102,,958,,1665476264,26098966,'',,,19.02,32.61,1.24,,0.0,0.0,0.0,1.0
1665476264119038714,,959,,1665476264,118572950,'',,,18.78,32.63,1.34,,0.0,0.0,0.0,1.0
1665476264226462973,,960,,1665476264,226097106,'',,,18.57,32.66,1.47,,0.0,0.0,0.0,1.0
1665476264326971430,,961,,1665476264,326545000,'',,,18.35,32.65,1.49,,0.0,0.0,0.0,1.0
1665476264418967086,,962,,1665476264,418530941,'',,,18.12,32.63,1.5,,0.0,0.0,0.0,1.0
1665476264527124924,,963,,1665476264,526612043,'',,,17.88,32.6,1.36,,0.0,0.0,0.0,1.0
1665476264626129170,,964,,1665476264,625827074,'',,,17.65,32.61,1.37,,0.0,0.0,0.0,1.0
1665476264719355459,,965,,1665476264,718976020,'',,,17.43,32.58,1.31,,0.0,0.0,0.0,1.0
1665476264827014801,,966,,1665476264,826448917,'',,,17.19,32.55,1.3,,0.0,0.0,0.0,1.0
1665476264926548647,,967,,1665476264,925998926,'',,,16.97,32.51,1.36,,0.0,0.0,0.0,1.0
1665476265019639373,,968,,1665476265,19068002,'',,,16.75,32.5,1.3,,0.0,0.0,0.0,1.0
1665476265127060683,,969,,1665476265,126410961,'',,,16.53,32.52,1.3,,0.0,0.0,0.0,1.0
1665476265226142252,,970,,1665476265,225748062,'',,,16.3,32.49,1.27,,0.0,0.0,0.0,1.0
1665476265319278460,,971,,1665476265,318799972,'',,,16.09,32.49,1.22,,0.0,0.0,0.0,1.0
1665476265427076585,,972,,1665476265,426578998,'',,,15.86,32.45,1.24,,0.0,0.0,0.0,1.0
1665476265526316305,,973,,1665476265,525747060,'',,,15.63,32.45,1.26,,0.0,0.0,0.0,1.0
1665476265619381354,,974,,1665476265,618858098,'',,,15.41,32.46,1.2,,0.0,0.0,0.0,1.0
1665476265726475218,,975,,1665476265,726069927,'',,,15.2,32.44,1.21,,0.0,0.0,0.0,1.0
1665476265826698549,,976,,1665476265,826322078,'',,,14.95,32.4,1.19,,0.0,0.0,0.0,1.0
1665476265919424884,,977,,1665476265,918967008,'',,,14.72,32.41,1.18,,0.0,0.0,0.0,1.0
1665476266026891887,,978,,1665476266,26432991,'',,,14.52,32.39,1.22,,0.0,0.0,0.0,1.0
1665476266126716974,,979,,1665476266,126315116,'',,,14.32,32.37,1.25,,0.0,0.0,0.0,1.0
1665476266219347696,,980,,1665476266,218862056,'',,,14.09,32.38,1.29,,0.0,0.0,0.0,1.0
1665476266327080334,,981,,1665476266,326571941,'',,,13.92,32.38,1.33,,0.0,0.0,0.0,1.0
1665476266426740538,,982,,1665476266,426342964,'',,,13.71,32.38,1.33,,0.0,0.0,0.0,1.0
1665476266519299299,,983,,1665476266,518850088,'',,,13.54,32.38,1.33,,0.0,0.0,0.0,1.0
1665476266626941356,,984,,1665476266,626471042,'',,,13.35,32.38,1.31,,0.0,0.0,0.0,1.0
1665476266727603929,,985,,1665476266,727175951,'',,,13.2,32.39,1.35,,0.0,0.0,0.0,1.0
1665476266826499955,,986,,1665476266,825961112,'',,,13.01,32.39,1.42,,0.0,0.0,0.0,1.0
1665476266926026703,,987,,1665476266,925573110,'',,,12.83,32.41,1.46,,0.0,0.0,0.0,1.0
1665476267025966315,,988,,1665476267,25415897,'',,,12.65,32.43,1.46,,0.0,0.0,0.0,1.0
1665476267119234357,,989,,1665476267,118829011,'',,,12.45,32.45,1.47,,0.0,0.0,0.0,1.0
1665476267226227019,,990,,1665476267,225771903,'',,,12.28,32.47,1.47,,0.0,0.0,0.0,1.0
1665476267325447648,,991,,1665476267,325012922,'',,,12.16,32.49,1.5,,0.0,0.0,0.0,1.0
1665476267419025235,,992,,1665476267,418349981,'',,,12.02,32.51,1.6,,0.0,0.0,0.0,1.0
1665476267525822838,,993,,1665476267,525365114,'',,,11.87,32.52,1.62,,0.0,0.0,0.0,1.0
1665476267625636347,,994,,1665476267,625160932,'',,,11.75,32.53,1.58,,0.0,0.0,0.0,1.0
1665476267719316701,,995,,1665476267,718939065,'',,,11.97,32.55,1.47,,0.0,0.0,0.0,1.0
1665476267826122387,,996,,1665476267,825489997,'',,,11.79,32.57,1.44,,0.0,0.0,0.0,1.0
1665476267925944824,,997,,1665476267,925689935,'',,,11.55,32.58,1.51,,0.0,0.0,0.0,1.0
1665476268019173300,,998,,1665476268,18646955,'',,,11.83,32.6,1.43,,0.0,0.0,0.0,1.0
1665476268126797695,,999,,1665476268,126216888,'',,,11.54,32.61,1.75,,0.0,0.0,0.0,1.0
1665476268226278108,,1000,,1665476268,225517988,'',,,11.27,32.64,1.78,,0.0,0.0,0.0,1.0
1665476268319333181,,1001,,1665476268,318730115,'',,,11.06,32.66,1.69,,0.0,0.0,0.0,1.0
1665476268425987180,,1002,,1665476268,425573110,'',,,10.88,32.72,1.66,,0.0,0.0,0.0,1.0
1665476268526524132,,1003,,1665476268,525904893,'',,,10.73,32.77,1.54,,0.0,0.0,0.0,1.0
1665476268619469820,,1004,,1665476268,619066953,'',,,10.59,32.82,1.45,,0.0,0.0,0.0,1.0
1665476268726548079,,1005,,1665476268,726023912,'',,,10.44,32.83,1.46,,0.0,0.0,0.0,1.0
1665476268825775716,,1006,,1665476268,825368881,'',,,10.31,32.88,1.5,,0.0,0.0,0.0,1.0
1665476268919233596,,1007,,1665476268,918665885,'',,,10.21,32.93,1.4,,0.0,0.0,0.0,1.0
1665476269026142294,,1008,,1665476269,25502920,'',,,10.1,32.99,1.44,,0.0,0.0,0.0,1.0
1665476269126239844,,1009,,1665476269,125703096,'',,,10.0,33.06,1.35,,0.0,0.0,0.0,1.0
1665476269218918340,,1010,,1665476269,218346118,'',,,9.97,33.12,1.29,,0.0,0.0,0.0,1.0
1665476269326321726,,1011,,1665476269,325809001,'',,,9.84,33.18,1.23,,0.0,0.0,0.0,1.0
1665476269425458674,,1012,,1665476269,425024032,'',,,9.73,33.25,1.37,,0.0,0.0,0.0,1.0
1665476269518891405,,1013,,1665476269,518477916,'',,,9.65,33.31,1.39,,0.0,0.0,0.0,1.0
1665476269626058001,,1014,,1665476269,625607967,'',,,9.55,33.39,1.36,,0.0,0.0,0.0,1.0
1665476269726169606,,1015,,1665476269,725667953,'',,,9.46,33.49,1.28,,0.0,0.0,0.0,1.0
1665476269818928091,,1016,,1665476269,818550109,'',,,9.37,33.56,1.24,,0.0,0.0,0.0,1.0
1665476269926068894,,1017,,1665476269,925601005,'',,,9.26,33.63,1.38,,0.0,0.0,0.0,1.0
1665476270026792192,,1018,,1665476270,26276111,'',,,9.17,33.75,1.32,,0.0,0.0,0.0,1.0
1665476270126193563,,1019,,1665476270,125684976,'',,,9.09,33.86,1.3,,0.0,0.0,0.0,1.0
1665476270226304403,,1020,,1665476270,225960969,'',,,9.01,33.96,1.3,,0.0,0.0,0.0,1.0
1665476270325518545,,1021,,1665476270,325059890,'',,,8.9,34.02,1.38,,0.0,0.0,0.0,1.0
1665476270425897745,,1022,,1665476270,425431013,'',,,8.83,34.13,1.3,,0.0,0.0,0.0,1.0
1665476270525638777,,1023,,1665476270,525068998,'',,,8.73,34.21,1.33,,0.0,0.0,0.0,1.0
1665476270626477096,,1024,,1665476270,625916957,'',,,8.65,34.3,1.25,,0.0,0.0,0.0,1.0
1665476270725508615,,1025,,1665476270,725080966,'',,,8.57,34.4,1.28,,0.0,0.0,0.0,1.0
1665476270825708875,,1026,,1665476270,825176000,'',,,8.47,34.5,1.33,,0.0,0.0,0.0,1.0
1665476270925541577,,1027,,1665476270,925136089,'',,,8.38,34.6,1.34,,0.0,0.0,0.0,1.0
1665476271025622013,,1028,,1665476271,25196075,'',,,8.3,34.71,1.36,,0.0,0.0,0.0,1.0
1665476271126007571,,1029,,1665476271,125494003,'',,,8.2,34.84,1.29,,0.0,0.0,0.0,1.0
1665476271227303976,,1030,,1665476271,226560115,'',,,8.16,34.93,1.66,,0.0,0.0,0.0,1.0
1665476271325636134,,1031,,1665476271,325390100,'',,,8.12,35.04,1.95,,0.0,0.0,0.0,1.0
1665476271427318817,,1032,,1665476271,426846027,'',,,8.02,35.19,1.75,,0.0,0.0,0.0,1.0
1665476271526181344,,1033,,1665476271,525732994,'',,,7.96,35.3,1.61,,0.0,0.0,0.0,1.0
1665476271626545801,,1034,,1665476271,626064062,'',,,7.89,35.44,1.56,,0.0,0.0,0.0,1.0
1665476271726207905,,1035,,1665476271,725620985,'',,,7.85,35.59,1.47,,0.0,0.0,0.0,1.0
1665476271826521038,,1036,,1665476271,826015949,'',,,7.79,35.71,1.47,,0.0,0.0,0.0,1.0
1665476271926663182,,1037,,1665476271,926191091,'',,,7.75,35.83,1.72,,0.0,0.0,0.0,1.0
1665476272026573367,,1038,,1665476272,26118993,'',,,7.73,35.97,1.98,,0.0,0.0,0.0,1.0
1665476272125495775,,1039,,1665476272,125139951,'',,,7.7,36.1,1.73,,0.0,0.0,0.0,1.0
1665476272226299543,,1040,,1665476272,225991010,'',,,7.63,36.32,2.03,,0.0,0.0,0.0,1.0
1665476272318896583,,1041,,1665476272,318396091,'',,,7.59,36.48,1.88,,0.0,0.0,0.0,1.0
1665476272427416659,,1042,,1665476272,426829099,'',,,7.57,36.66,2.12,,0.0,0.0,0.0,1.0
1665476272525984439,,1043,,1665476272,525482892,'',,,7.56,36.77,1.85,,0.0,0.0,0.0,1.0
1665476272626605725,,1044,,1665476272,626094102,'',,,7.54,36.91,2.04,,0.0,0.0,0.0,1.0
1665476272727889742,,1045,,1665476272,727437019,'',,,7.51,37.07,1.73,,0.0,0.0,0.0,1.0
1665476272827946729,,1046,,1665476272,827224969,'',,,7.49,37.21,1.5,,0.0,0.0,0.0,1.0
1665476272930856422,,1047,,1665476272,930259943,'',,,7.48,37.33,1.35,,0.0,0.0,0.0,1.0
1665476273027948200,,1048,,1665476273,27302026,'',,,7.46,37.48,1.21,,0.0,0.0,0.0,1.0
1665476273127982351,,1049,,1665476273,127239942,'',,,7.44,37.63,1.14,,0.0,0.0,0.0,1.0
1665476273227852192,,1050,,1665476273,227413892,'',,,7.43,37.77,1.13,,0.0,0.0,0.0,1.0
1665476273327940610,,1051,,1665476273,327519893,'',,,7.41,37.89,1.07,,0.0,0.0,0.0,1.0
1665476273430348449,,1052,,1665476273,429878950,'',,,7.4,38.0,1.06,,0.0,0.0,0.0,1.0
1665476273528121548,,1053,,1665476273,527539014,'',,,7.39,38.17,0.98,,0.0,0.0,0.0,1.0
1665476273630310555,,1054,,1665476273,629806995,'',,,7.4,38.26,1.03,,0.0,0.0,0.0,1.0
1665476273929797272,,1055,,1665476273,929459095,'',,,7.38,38.39,1.05,,0.0,0.0,0.0,1.0
1665476274025814035,,1056,,1665476274,25441884,'',,,7.32,38.51,0.99,,0.0,0.0,0.0,1.0
