rosbagTimestamp,header,seq,stamp,secs,nsecs,frame_id,pose,position,x,y,z,orientation,x,y,z,w
1665478004413268841,,1348,,1665478004,412811994,'',,,6.77,-2.16,2.14,,0.0,0.0,0.0,1.0
1665478004512681498,,1349,,1665478004,512341976,'',,,6.77,-2.13,1.97,,0.0,0.0,0.0,1.0
1665478004613954403,,1350,,1665478004,613610982,'',,,6.78,-2.12,1.77,,0.0,0.0,0.0,1.0
1665478004712320011,,1351,,1665478004,712021112,'',,,6.77,-2.06,2.02,,0.0,0.0,0.0,1.0
1665478004813165152,,1352,,1665478004,812879085,'',,,6.76,-2.01,1.92,,0.0,0.0,0.0,1.0
1665478004912583496,,1353,,1665478004,912239074,'',,,6.76,-1.94,1.8,,0.0,0.0,0.0,1.0
1665478005013172574,,1354,,1665478005,12830972,'',,,6.76,-1.91,1.65,,0.0,0.0,0.0,1.0
1665478005113256608,,1355,,1665478005,112488985,'',,,6.76,-1.82,1.59,,0.0,0.0,0.0,1.0
1665478005214045257,,1356,,1665478005,213670969,'',,,6.76,-1.75,1.47,,0.0,0.0,0.0,1.0
1665478005312879697,,1357,,1665478005,312683105,'',,,6.75,-1.64,1.58,,0.0,0.0,0.0,1.0
1665478005413032918,,1358,,1665478005,412795066,'',,,6.73,-1.55,1.48,,0.0,0.0,0.0,1.0
1665478005513195469,,1359,,1665478005,512845039,'',,,6.74,-1.43,1.83,,0.0,0.0,0.0,1.0
1665478005613882755,,1360,,1665478005,613054990,'',,,6.72,-1.29,1.9,,0.0,0.0,0.0,1.0
1665478005714504053,,1361,,1665478005,713486909,'',,,6.72,-1.14,1.73,,0.0,0.0,0.0,1.0
1665478005814143793,,1362,,1665478005,813623905,'',,,6.7,-0.96,2.0,,0.0,0.0,0.0,1.0
1665478005914546877,,1363,,1665478005,914216041,'',,,6.69,-0.8,1.75,,0.0,0.0,0.0,1.0
1665478006014176692,,1364,,1665478006,13875007,'',,,6.69,-0.58,1.97,,0.0,0.0,0.0,1.0
1665478006114002389,,1365,,1665478006,113682985,'',,,6.69,-0.38,2.13,,0.0,0.0,0.0,1.0
1665478006213781061,,1366,,1665478006,213416099,'',,,6.69,-0.18,1.93,,0.0,0.0,0.0,1.0
1665478006313581292,,1367,,1665478006,313340902,'',,,6.69,0.04,1.88,,0.0,0.0,0.0,1.0
1665478006413772526,,1368,,1665478006,413381099,'',,,6.67,0.23,1.75,,0.0,0.0,0.0,1.0
1665478006514369473,,1369,,1665478006,514046907,'',,,6.67,0.5,2.03,,0.0,0.0,0.0,1.0
1665478006613576395,,1370,,1665478006,613218069,'',,,6.66,0.75,1.88,,0.0,0.0,0.0,1.0
1665478006714112130,,1371,,1665478006,713690042,'',,,6.66,1.03,2.16,,0.0,0.0,0.0,1.0
1665478006813896647,,1372,,1665478006,813644886,'',,,6.66,1.34,2.35,,0.0,0.0,0.0,1.0
1665478006914930682,,1373,,1665478006,914180040,'',,,6.62,1.62,2.24,,0.0,0.0,0.0,1.0
1665478007014694851,,1374,,1665478007,14329910,'',,,6.58,1.9,2.18,,0.0,0.0,0.0,1.0
1665478007115507072,,1375,,1665478007,114927053,'',,,6.57,2.21,1.87,,0.0,0.0,0.0,1.0
1665478007213742447,,1376,,1665478007,213485956,'',,,6.57,2.56,2.09,,0.0,0.0,0.0,1.0
1665478007315588570,,1377,,1665478007,315064907,'',,,6.55,2.86,1.75,,0.0,0.0,0.0,1.0
1665478007413805088,,1378,,1665478007,413528919,'',,,6.52,3.2,1.98,,0.0,0.0,0.0,1.0
1665478007513440295,,1379,,1665478007,513123035,'',,,6.48,3.52,1.88,,0.0,0.0,0.0,1.0
1665478007615745656,,1380,,1665478007,615495920,'',,,6.42,3.84,2.0,,0.0,0.0,0.0,1.0
1665478007714357093,,1381,,1665478007,714051008,'',,,6.39,4.21,2.19,,0.0,0.0,0.0,1.0
1665478007814889290,,1382,,1665478007,814502954,'',,,6.33,4.54,2.08,,0.0,0.0,0.0,1.0
1665478007916129567,,1383,,1665478007,915550947,'',,,6.28,4.9,2.14,,0.0,0.0,0.0,1.0
1665478008015991947,,1384,,1665478008,15223979,'',,,6.26,5.25,1.87,,0.0,0.0,0.0,1.0
1665478008108964550,,1385,,1665478008,107290983,'',,,6.24,5.6,1.55,,0.0,0.0,0.0,1.0
1665478008208321023,,1386,,1665478008,207649946,'',,,6.22,5.93,1.21,,0.0,0.0,0.0,1.0
1665478008314409939,,1387,,1665478008,314069032,'',,,6.2,6.33,1.34,,0.0,0.0,0.0,1.0
1665478008414743068,,1388,,1665478008,414529085,'',,,6.18,6.71,1.26,,0.0,0.0,0.0,1.0
1665478008514462028,,1389,,1665478008,514226913,'',,,6.14,7.1,1.4,,0.0,0.0,0.0,1.0
1665478008708338951,,1390,,1665478008,707427978,'',,,6.13,7.56,1.09,,0.0,0.0,0.0,1.0
1665478008816548766,,1391,,1665478008,816169023,'',,,6.12,8.0,0.91,,0.0,0.0,0.0,1.0
1665478008907707099,,1392,,1665478008,906851053,'',,,6.09,8.41,0.6,,0.0,0.0,0.0,1.0
1665478009015324158,,1393,,1665478009,14072895,'',,,5.98,8.74,0.37,,0.0,0.0,0.0,1.0
1665478009116044725,,1394,,1665478009,115726947,'',,,6.03,9.22,0.85,,0.0,0.0,0.0,1.0
1665478009207577443,,1395,,1665478009,207345008,'',,,6.08,9.66,1.05,,0.0,0.0,0.0,1.0
1665478009315324174,,1396,,1665478009,315047025,'',,,6.16,10.11,1.36,,0.0,0.0,0.0,1.0
1665478009415926839,,1397,,1665478009,415499925,'',,,6.19,10.5,1.61,,0.0,0.0,0.0,1.0
1665478009515682870,,1398,,1665478009,514842033,'',,,6.23,10.87,1.82,,0.0,0.0,0.0,1.0
1665478009615086119,,1399,,1665478009,614804029,'',,,6.36,11.28,1.9,,0.0,0.0,0.0,1.0
1665478009714771633,,1400,,1665478009,714370012,'',,,6.5,11.68,1.95,,0.0,0.0,0.0,1.0
1665478009815136031,,1401,,1665478009,814919948,'',,,6.63,12.05,1.98,,0.0,0.0,0.0,1.0
1665478009916462516,,1402,,1665478009,915663957,'',,,6.71,12.38,2.05,,0.0,0.0,0.0,1.0
1665478010017208128,,1403,,1665478010,15631914,'',,,6.81,12.71,2.17,,0.0,0.0,0.0,1.0
1665478010115233086,,1404,,1665478010,114409923,'',,,6.96,13.05,1.9,,0.0,0.0,0.0,1.0
1665478010217308587,,1405,,1665478010,215647935,'',,,7.09,13.42,1.75,,0.0,0.0,0.0,1.0
1665478010316812991,,1406,,1665478010,316314935,'',,,7.22,13.79,1.58,,0.0,0.0,0.0,1.0
1665478010415623503,,1407,,1665478010,415275096,'',,,7.45,14.04,1.39,,0.0,0.0,0.0,1.0
1665478010513997866,,1408,,1665478010,513745069,'',,,7.65,14.36,1.49,,0.0,0.0,0.0,1.0
1665478010615969402,,1409,,1665478010,615072011,'',,,7.86,14.69,1.73,,0.0,0.0,0.0,1.0
1665478010714587006,,1410,,1665478010,714304924,'',,,8.11,14.97,1.77,,0.0,0.0,0.0,1.0
1665478010816445225,,1411,,1665478010,815561056,'',,,8.42,15.27,1.49,,0.0,0.0,0.0,1.0
1665478010915941284,,1412,,1665478010,915672063,'',,,8.66,15.57,1.74,,0.0,0.0,0.0,1.0
1665478011014705211,,1413,,1665478011,14381885,'',,,8.93,15.72,1.49,,0.0,0.0,0.0,1.0
1665478011108561145,,1414,,1665478011,108104944,'',,,9.23,15.9,1.33,,0.0,0.0,0.0,1.0
1665478011215123964,,1415,,1665478011,214366912,'',,,9.5,16.1,1.26,,0.0,0.0,0.0,1.0
1665478011315160303,,1416,,1665478011,314289093,'',,,9.73,16.3,1.34,,0.0,0.0,0.0,1.0
1665478011406660678,,1417,,1665478011,406265974,'',,,9.94,16.56,1.34,,0.0,0.0,0.0,1.0
1665478011517220092,,1418,,1665478011,516055107,'',,,10.24,16.68,1.35,,0.0,0.0,0.0,1.0
1665478011617676153,,1419,,1665478011,617352008,'',,,10.55,16.8,1.35,,0.0,0.0,0.0,1.0
1665478011716381334,,1420,,1665478011,715605020,'',,,10.83,16.94,1.36,,0.0,0.0,0.0,1.0
1665478011816971484,,1421,,1665478011,816603899,'',,,11.12,17.04,1.38,,0.0,0.0,0.0,1.0
1665478011915839052,,1422,,1665478011,915522098,'',,,11.37,17.12,1.42,,0.0,0.0,0.0,1.0
1665478012015610583,,1423,,1665478012,15331029,'',,,11.6,17.2,1.51,,0.0,0.0,0.0,1.0
1665478012508685118,,1424,,1665478012,507253885,'',,,12.13,17.32,1.43,,0.0,0.0,0.0,1.0
1665478012615494536,,1425,,1665478012,615052938,'',,,12.68,17.41,1.36,,0.0,0.0,0.0,1.0
1665478012715459892,,1426,,1665478012,714456081,'',,,13.17,17.47,1.29,,0.0,0.0,0.0,1.0
1665478012816294943,,1427,,1665478012,814760923,'',,,13.61,17.5,1.28,,0.0,0.0,0.0,1.0
1665478012914582752,,1428,,1665478012,913801908,'',,,13.99,17.53,1.23,,0.0,0.0,0.0,1.0
1665478013013849795,,1429,,1665478013,13643026,'',,,14.34,17.56,1.39,,0.0,0.0,0.0,1.0
1665478013114577885,,1430,,1665478013,114130020,'',,,14.65,17.58,1.31,,0.0,0.0,0.0,1.0
1665478013215533192,,1431,,1665478013,215342044,'',,,14.96,17.6,1.31,,0.0,0.0,0.0,1.0
1665478013314662138,,1432,,1665478013,314361095,'',,,15.22,17.52,1.29,,0.0,0.0,0.0,1.0
1665478013414594503,,1433,,1665478013,414201974,'',,,15.51,17.55,1.31,,0.0,0.0,0.0,1.0
1665478013515276854,,1434,,1665478013,514364004,'',,,15.75,17.57,1.24,,0.0,0.0,0.0,1.0
1665478013614001347,,1435,,1665478013,613815069,'',,,15.99,17.6,1.39,,0.0,0.0,0.0,1.0
1665478013713986286,,1436,,1665478013,713337898,'',,,16.21,17.62,1.25,,0.0,0.0,0.0,1.0
1665478013813545840,,1437,,1665478013,813297986,'',,,16.44,17.6,1.19,,0.0,0.0,0.0,1.0
1665478013914986874,,1438,,1665478013,914531946,'',,,16.65,17.61,1.12,,0.0,0.0,0.0,1.0
1665478014014873044,,1439,,1665478014,14354944,'',,,16.84,17.66,1.11,,0.0,0.0,0.0,1.0
1665478014116198595,,1440,,1665478014,114773035,'',,,17.07,17.63,1.09,,0.0,0.0,0.0,1.0
1665478014214268164,,1441,,1665478014,213892936,'',,,17.27,17.62,1.06,,0.0,0.0,0.0,1.0
1665478014314627228,,1442,,1665478014,313889026,'',,,17.5,17.59,1.1,,0.0,0.0,0.0,1.0
1665478014415222041,,1443,,1665478014,414115905,'',,,17.71,17.57,1.1,,0.0,0.0,0.0,1.0
1665478014514756279,,1444,,1665478014,513991117,'',,,17.89,17.66,1.13,,0.0,0.0,0.0,1.0
1665478014615587970,,1445,,1665478014,615005970,'',,,18.11,17.61,1.08,,0.0,0.0,0.0,1.0
1665478014714997695,,1446,,1665478014,714417934,'',,,18.32,17.63,1.05,,0.0,0.0,0.0,1.0
1665478014814352800,,1447,,1665478014,813745021,'',,,18.52,17.7,1.06,,0.0,0.0,0.0,1.0
1665478014913621139,,1448,,1665478014,913419008,'',,,18.71,17.72,1.13,,0.0,0.0,0.0,1.0
1665478015013990286,,1449,,1665478015,13755083,'',,,18.92,17.67,1.15,,0.0,0.0,0.0,1.0
1665478015114084689,,1450,,1665478015,113827943,'',,,19.14,17.59,1.05,,0.0,0.0,0.0,1.0
1665478015214706601,,1451,,1665478015,213826894,'',,,19.35,17.64,1.06,,0.0,0.0,0.0,1.0
1665478015313865029,,1452,,1665478015,313478946,'',,,19.57,17.56,1.09,,0.0,0.0,0.0,1.0
1665478015414012351,,1453,,1665478015,413687944,'',,,19.8,17.52,1.16,,0.0,0.0,0.0,1.0
1665478015514199398,,1454,,1665478015,513884067,'',,,20.01,17.57,1.11,,0.0,0.0,0.0,1.0
1665478015614151319,,1455,,1665478015,613785028,'',,,20.21,17.6,1.16,,0.0,0.0,0.0,1.0
1665478015714798916,,1456,,1665478015,713927030,'',,,20.47,17.5,1.1,,0.0,0.0,0.0,1.0
1665478015814979257,,1457,,1665478015,814130067,'',,,20.69,17.46,1.16,,0.0,0.0,0.0,1.0
1665478015914563527,,1458,,1665478015,913777112,'',,,20.94,17.37,1.08,,0.0,0.0,0.0,1.0
1665478016014652971,,1459,,1665478016,14328956,'',,,21.17,17.35,1.17,,0.0,0.0,0.0,1.0
1665478016114570790,,1460,,1665478016,114253997,'',,,21.36,17.44,1.19,,0.0,0.0,0.0,1.0
1665478016213745001,,1461,,1665478016,213428020,'',,,21.58,17.43,1.1,,0.0,0.0,0.0,1.0
1665478016315196781,,1462,,1665478016,314343929,'',,,21.79,17.48,1.19,,0.0,0.0,0.0,1.0
1665478016414268145,,1463,,1665478016,413904905,'',,,21.97,17.59,1.1,,0.0,0.0,0.0,1.0
1665478016513900227,,1464,,1665478016,513578891,'',,,22.19,17.64,1.08,,0.0,0.0,0.0,1.0
1665478016615483080,,1465,,1665478016,615134954,'',,,22.44,17.66,1.06,,0.0,0.0,0.0,1.0
1665478016715337301,,1466,,1665478016,714468002,'',,,22.68,17.68,1.03,,0.0,0.0,0.0,1.0
1665478016813563159,,1467,,1665478016,813370943,'',,,22.92,17.68,0.97,,0.0,0.0,0.0,1.0
1665478016915476052,,1468,,1665478016,914661884,'',,,23.17,17.69,0.95,,0.0,0.0,0.0,1.0
1665478017014276391,,1469,,1665478017,13422966,'',,,23.39,17.72,1.13,,0.0,0.0,0.0,1.0
1665478017113766156,,1470,,1665478017,113360881,'',,,23.63,17.69,1.28,,0.0,0.0,0.0,1.0
1665478017214811119,,1471,,1665478017,214462995,'',,,23.86,17.69,1.21,,0.0,0.0,0.0,1.0
1665478017314482492,,1472,,1665478017,314178943,'',,,24.09,17.67,1.12,,0.0,0.0,0.0,1.0
1665478017416028426,,1473,,1665478017,415540933,'',,,24.35,17.64,1.11,,0.0,0.0,0.0,1.0
1665478017514666806,,1474,,1665478017,514275074,'',,,24.6,17.61,1.04,,0.0,0.0,0.0,1.0
1665478017614785203,,1475,,1665478017,613590002,'',,,24.86,17.57,1.08,,0.0,0.0,0.0,1.0
1665478017714305850,,1476,,1665478017,713247060,'',,,25.12,17.54,1.1,,0.0,0.0,0.0,1.0
1665478017816146606,,1477,,1665478017,815794944,'',,,25.38,17.5,1.09,,0.0,0.0,0.0,1.0
1665478017917050885,,1478,,1665478017,916049003,'',,,25.62,17.47,1.05,,0.0,0.0,0.0,1.0
1665478018015095064,,1479,,1665478018,14683961,'',,,25.88,17.46,0.96,,0.0,0.0,0.0,1.0
1665478018114771740,,1480,,1665478018,114468097,'',,,26.14,17.4,1.08,,0.0,0.0,0.0,1.0
1665478018216587251,,1481,,1665478018,216361045,'',,,26.4,17.39,1.01,,0.0,0.0,0.0,1.0
1665478018316274336,,1482,,1665478018,316029071,'',,,26.65,17.36,0.93,,0.0,0.0,0.0,1.0
1665478018415802459,,1483,,1665478018,415426015,'',,,26.92,17.29,1.09,,0.0,0.0,0.0,1.0
1665478018514115523,,1484,,1665478018,513839960,'',,,27.19,17.26,1.13,,0.0,0.0,0.0,1.0
1665478018614839648,,1485,,1665478018,614496946,'',,,27.46,17.26,1.04,,0.0,0.0,0.0,1.0
1665478018714831744,,1486,,1665478018,714394092,'',,,27.74,17.26,0.93,,0.0,0.0,0.0,1.0
1665478018814958510,,1487,,1665478018,814582109,'',,,27.99,17.23,0.93,,0.0,0.0,0.0,1.0
1665478018914438612,,1488,,1665478018,914098978,'',,,28.24,17.23,0.99,,0.0,0.0,0.0,1.0
1665478019014653376,,1489,,1665478019,14022111,'',,,28.5,17.21,0.95,,0.0,0.0,0.0,1.0
1665478019113622429,,1490,,1665478019,113363981,'',,,28.77,17.19,1.17,,0.0,0.0,0.0,1.0
1665478019214451564,,1491,,1665478019,214149951,'',,,29.01,17.21,1.14,,0.0,0.0,0.0,1.0
1665478019314904475,,1492,,1665478019,314606904,'',,,29.26,17.18,1.18,,0.0,0.0,0.0,1.0
1665478019407000428,,1493,,1665478019,406563997,'',,,29.56,17.19,1.28,,0.0,0.0,0.0,1.0
1665478019514427146,,1494,,1665478019,514024972,'',,,29.82,17.17,1.1,,0.0,0.0,0.0,1.0
1665478019615245874,,1495,,1665478019,614850997,'',,,30.08,17.17,0.97,,0.0,0.0,0.0,1.0
1665478019713831592,,1496,,1665478019,713519096,'',,,30.34,17.17,0.98,,0.0,0.0,0.0,1.0
1665478019813620247,,1497,,1665478019,813234090,'',,,30.61,17.19,0.98,,0.0,0.0,0.0,1.0
1665478019914224422,,1498,,1665478019,913772106,'',,,30.86,17.23,1.07,,0.0,0.0,0.0,1.0
1665478020016753809,,1499,,1665478020,14601945,'',,,31.13,17.23,1.02,,0.0,0.0,0.0,1.0
1665478020113893153,,1500,,1665478020,113393068,'',,,31.39,17.28,0.91,,0.0,0.0,0.0,1.0
1665478020214231179,,1501,,1665478020,213676929,'',,,31.65,17.33,1.06,,0.0,0.0,0.0,1.0
1665478020314616218,,1502,,1665478020,314274072,'',,,31.91,17.37,1.04,,0.0,0.0,0.0,1.0
1665478020413193439,,1503,,1665478020,412898063,'',,,32.16,17.41,0.95,,0.0,0.0,0.0,1.0
1665478020513074476,,1504,,1665478020,512754917,'',,,32.4,17.48,1.01,,0.0,0.0,0.0,1.0
1665478020612806547,,1505,,1665478020,612548112,'',,,32.64,17.57,0.97,,0.0,0.0,0.0,1.0
1665478020714118829,,1506,,1665478020,713762044,'',,,32.87,17.7,1.12,,0.0,0.0,0.0,1.0
1665478020814810319,,1507,,1665478020,814533948,'',,,33.12,17.84,1.21,,0.0,0.0,0.0,1.0
1665478020913530749,,1508,,1665478020,913187980,'',,,33.34,17.92,1.19,,0.0,0.0,0.0,1.0
1665478021012504468,,1509,,1665478021,12254953,'',,,33.56,18.01,1.18,,0.0,0.0,0.0,1.0
1665478021113232098,,1510,,1665478021,112617969,'',,,33.78,18.14,1.12,,0.0,0.0,0.0,1.0
1665478021213965290,,1511,,1665478021,213521957,'',,,33.99,18.3,1.17,,0.0,0.0,0.0,1.0
1665478021313219102,,1512,,1665478021,312913894,'',,,34.21,18.46,1.16,,0.0,0.0,0.0,1.0
1665478021414130384,,1513,,1665478021,413666009,'',,,34.4,18.6,1.2,,0.0,0.0,0.0,1.0
1665478021513468204,,1514,,1665478021,513314962,'',,,34.54,18.8,1.3,,0.0,0.0,0.0,1.0
1665478021613007397,,1515,,1665478021,612806081,'',,,34.72,18.98,1.25,,0.0,0.0,0.0,1.0
1665478021713559002,,1516,,1665478021,713186979,'',,,34.9,19.18,1.21,,0.0,0.0,0.0,1.0
1665478021813415633,,1517,,1665478021,812968969,'',,,35.07,19.38,1.24,,0.0,0.0,0.0,1.0
1665478021913829737,,1518,,1665478021,913445949,'',,,35.21,19.59,1.21,,0.0,0.0,0.0,1.0
1665478022015424120,,1519,,1665478022,14144897,'',,,35.33,19.8,1.39,,0.0,0.0,0.0,1.0
1665478022113404457,,1520,,1665478022,112965106,'',,,35.48,19.86,1.31,,0.0,0.0,0.0,1.0
1665478022213544968,,1521,,1665478022,212604045,'',,,35.64,19.98,1.31,,0.0,0.0,0.0,1.0
1665478022313174144,,1522,,1665478022,312798976,'',,,35.78,20.14,1.32,,0.0,0.0,0.0,1.0
1665478022413376859,,1523,,1665478022,413113117,'',,,35.89,20.3,1.32,,0.0,0.0,0.0,1.0
1665478022515174931,,1524,,1665478022,514580011,'',,,36.0,20.49,1.33,,0.0,0.0,0.0,1.0
1665478022614497198,,1525,,1665478022,613959074,'',,,36.1,20.69,1.37,,0.0,0.0,0.0,1.0
1665478022714625094,,1526,,1665478022,714167118,'',,,36.16,20.84,1.33,,0.0,0.0,0.0,1.0
1665478022814678803,,1527,,1665478022,813498020,'',,,36.25,21.08,1.3,,0.0,0.0,0.0,1.0
1665478022913523474,,1528,,1665478022,913198947,'',,,36.32,21.3,1.37,,0.0,0.0,0.0,1.0
1665478023014151816,,1529,,1665478023,13741970,'',,,36.38,21.51,1.41,,0.0,0.0,0.0,1.0
1665478023113103469,,1530,,1665478023,112775087,'',,,36.43,21.73,1.4,,0.0,0.0,0.0,1.0
1665478023214088006,,1531,,1665478023,213606119,'',,,36.46,21.95,1.52,,0.0,0.0,0.0,1.0
1665478023312569734,,1532,,1665478023,312237024,'',,,36.5,22.19,1.46,,0.0,0.0,0.0,1.0
1665478023414155747,,1533,,1665478023,413192033,'',,,36.53,22.4,1.36,,0.0,0.0,0.0,1.0
1665478023513441029,,1534,,1665478023,513051986,'',,,36.57,22.64,1.4,,0.0,0.0,0.0,1.0
1665478023615290392,,1535,,1665478023,614340066,'',,,36.57,22.85,1.36,,0.0,0.0,0.0,1.0
1665478023715619067,,1536,,1665478023,714067935,'',,,36.6,23.11,1.29,,0.0,0.0,0.0,1.0
1665478023813640458,,1537,,1665478023,813251018,'',,,36.63,23.36,1.36,,0.0,0.0,0.0,1.0
1665478023913750014,,1538,,1665478023,913357019,'',,,36.61,23.59,1.42,,0.0,0.0,0.0,1.0
1665478024013719986,,1539,,1665478024,12712955,'',,,36.65,23.83,1.36,,0.0,0.0,0.0,1.0
1665478024112957500,,1540,,1665478024,112724065,'',,,36.66,24.07,1.26,,0.0,0.0,0.0,1.0
1665478024213493515,,1541,,1665478024,213161945,'',,,36.66,24.31,1.2,,0.0,0.0,0.0,1.0
1665478024313318746,,1542,,1665478024,312990903,'',,,36.63,24.51,1.17,,0.0,0.0,0.0,1.0
1665478024414298413,,1543,,1665478024,413414955,'',,,36.59,24.72,1.2,,0.0,0.0,0.0,1.0
1665478024513293410,,1544,,1665478024,512943029,'',,,36.54,24.93,1.19,,0.0,0.0,0.0,1.0
1665478024606959272,,1545,,1665478024,606648921,'',,,36.49,25.14,1.18,,0.0,0.0,0.0,1.0
1665478024714456571,,1546,,1665478024,713934898,'',,,36.44,25.35,1.18,,0.0,0.0,0.0,1.0
1665478024813690570,,1547,,1665478024,813412904,'',,,36.59,25.69,1.13,,0.0,0.0,0.0,1.0
1665478024907838752,,1548,,1665478024,907557010,'',,,36.48,25.86,1.23,,0.0,0.0,0.0,1.0
1665478025013822197,,1549,,1665478025,13396978,'',,,36.48,26.09,1.28,,0.0,0.0,0.0,1.0
1665478025107679105,,1550,,1665478025,107057094,'',,,36.42,26.28,1.38,,0.0,0.0,0.0,1.0
1665478025214686567,,1551,,1665478025,214232921,'',,,36.34,26.48,1.31,,0.0,0.0,0.0,1.0
1665478025314226181,,1552,,1665478025,313924074,'',,,36.35,26.74,1.24,,0.0,0.0,0.0,1.0
1665478025407410251,,1553,,1665478025,406718969,'',,,36.29,26.93,1.29,,0.0,0.0,0.0,1.0
1665478025507333944,,1554,,1665478025,506423950,'',,,36.23,27.12,1.28,,0.0,0.0,0.0,1.0
1665478025608876757,,1555,,1665478025,607109069,'',,,36.17,27.33,1.38,,0.0,0.0,0.0,1.0
1665478025706949081,,1556,,1665478025,706625938,'',,,36.12,27.55,1.44,,0.0,0.0,0.0,1.0
1665478025814390105,,1557,,1665478025,813646078,'',,,36.09,27.77,1.48,,0.0,0.0,0.0,1.0
1665478025914462305,,1558,,1665478025,913822889,'',,,36.07,28.0,1.45,,0.0,0.0,0.0,1.0
1665478026014870183,,1559,,1665478026,14025926,'',,,36.0,28.24,1.39,,0.0,0.0,0.0,1.0
1665478026113884739,,1560,,1665478026,113440990,'',,,35.94,28.42,1.52,,0.0,0.0,0.0,1.0
1665478026213771084,,1561,,1665478026,213140964,'',,,35.91,28.61,1.47,,0.0,0.0,0.0,1.0
1665478026313985233,,1562,,1665478026,313560962,'',,,35.85,28.81,1.41,,0.0,0.0,0.0,1.0
1665478026413372294,,1563,,1665478026,413058042,'',,,35.78,29.01,1.46,,0.0,0.0,0.0,1.0
1665478026513232807,,1564,,1665478026,512947082,'',,,35.7,29.22,1.49,,0.0,0.0,0.0,1.0
1665478026613794698,,1565,,1665478026,613516092,'',,,35.62,29.44,1.53,,0.0,0.0,0.0,1.0
1665478026713983435,,1566,,1665478026,713718891,'',,,35.55,29.63,1.52,,0.0,0.0,0.0,1.0
1665478026813909580,,1567,,1665478026,813240051,'',,,35.48,29.83,1.57,,0.0,0.0,0.0,1.0
1665478026913765271,,1568,,1665478026,913017988,'',,,35.4,29.99,1.55,,0.0,0.0,0.0,1.0
1665478027014150681,,1569,,1665478027,13788938,'',,,35.3,30.2,1.56,,0.0,0.0,0.0,1.0
1665478027113993559,,1570,,1665478027,113176107,'',,,35.19,30.27,1.54,,0.0,0.0,0.0,1.0
1665478027214216095,,1571,,1665478027,213844060,'',,,35.1,30.49,1.49,,0.0,0.0,0.0,1.0
1665478027313253292,,1572,,1665478027,312915086,'',,,34.97,30.64,1.43,,0.0,0.0,0.0,1.0
1665478027413529093,,1573,,1665478027,413302898,'',,,34.84,30.79,1.4,,0.0,0.0,0.0,1.0
1665478027513944773,,1574,,1665478027,513696908,'',,,34.69,30.94,1.36,,0.0,0.0,0.0,1.0
1665478027614444931,,1575,,1665478027,613650083,'',,,34.55,31.09,1.39,,0.0,0.0,0.0,1.0
1665478027713185192,,1576,,1665478027,712907075,'',,,34.42,31.22,1.45,,0.0,0.0,0.0,1.0
1665478027815019043,,1577,,1665478027,813947916,'',,,34.25,31.35,1.47,,0.0,0.0,0.0,1.0
1665478027914315604,,1578,,1665478027,913851976,'',,,34.09,31.51,1.44,,0.0,0.0,0.0,1.0
1665478028012813139,,1579,,1665478028,12619018,'',,,33.92,31.64,1.47,,0.0,0.0,0.0,1.0
1665478028113004416,,1580,,1665478028,112795114,'',,,33.76,31.75,1.47,,0.0,0.0,0.0,1.0
1665478028213758285,,1581,,1665478028,213454961,'',,,33.59,31.86,1.49,,0.0,0.0,0.0,1.0
1665478028314758072,,1582,,1665478028,313690900,'',,,33.41,31.96,1.48,,0.0,0.0,0.0,1.0
1665478028415612397,,1583,,1665478028,414088964,'',,,33.22,32.05,1.53,,0.0,0.0,0.0,1.0
1665478028513974333,,1584,,1665478028,513609886,'',,,33.02,32.14,1.49,,0.0,0.0,0.0,1.0
1665478028613526467,,1585,,1665478028,613126993,'',,,32.83,32.23,1.46,,0.0,0.0,0.0,1.0
1665478028713025696,,1586,,1665478028,712804079,'',,,32.6,32.3,1.5,,0.0,0.0,0.0,1.0
1665478028813138270,,1587,,1665478028,812633991,'',,,32.41,32.37,1.43,,0.0,0.0,0.0,1.0
1665478028913340238,,1588,,1665478028,913105964,'',,,32.2,32.44,1.37,,0.0,0.0,0.0,1.0
1665478029015242739,,1589,,1665478029,14667034,'',,,31.97,32.51,1.34,,0.0,0.0,0.0,1.0
1665478029113056742,,1590,,1665478029,112749099,'',,,31.73,32.57,1.33,,0.0,0.0,0.0,1.0
1665478029214103138,,1591,,1665478029,213598966,'',,,31.47,32.64,1.35,,0.0,0.0,0.0,1.0
1665478029313356803,,1592,,1665478029,313003063,'',,,31.23,32.68,1.28,,0.0,0.0,0.0,1.0
1665478029413205987,,1593,,1665478029,412496089,'',,,30.98,32.73,1.29,,0.0,0.0,0.0,1.0
1665478029513041541,,1594,,1665478029,512737035,'',,,30.73,32.77,1.32,,0.0,0.0,0.0,1.0
1665478029613258791,,1595,,1665478029,612613916,'',,,30.47,32.81,1.37,,0.0,0.0,0.0,1.0
1665478029713049688,,1596,,1665478029,712387084,'',,,30.24,32.78,1.34,,0.0,0.0,0.0,1.0
1665478029813235484,,1597,,1665478029,812933921,'',,,30.01,32.77,1.3,,0.0,0.0,0.0,1.0
1665478029914220282,,1598,,1665478029,913454055,'',,,29.77,32.79,1.33,,0.0,0.0,0.0,1.0
1665478030013448592,,1599,,1665478030,12933015,'',,,29.52,32.8,1.38,,0.0,0.0,0.0,1.0
1665478030113485385,,1600,,1665478030,113068103,'',,,29.27,32.81,1.33,,0.0,0.0,0.0,1.0
1665478030213833123,,1601,,1665478030,213407039,'',,,29.0,32.83,1.41,,0.0,0.0,0.0,1.0
1665478030314419715,,1602,,1665478030,313895940,'',,,28.75,32.82,1.32,,0.0,0.0,0.0,1.0
1665478030414567215,,1603,,1665478030,413819074,'',,,28.49,32.82,1.32,,0.0,0.0,0.0,1.0
1665478030514107930,,1604,,1665478030,513747930,'',,,28.22,32.83,1.35,,0.0,0.0,0.0,1.0
1665478030613873447,,1605,,1665478030,613554000,'',,,27.95,32.85,1.41,,0.0,0.0,0.0,1.0
1665478030714924718,,1606,,1665478030,714577913,'',,,27.68,32.88,1.52,,0.0,0.0,0.0,1.0
1665478030814846287,,1607,,1665478030,814483880,'',,,27.39,32.86,1.48,,0.0,0.0,0.0,1.0
1665478030915902012,,1608,,1665478030,915293931,'',,,27.1,32.84,1.42,,0.0,0.0,0.0,1.0
1665478031016693618,,1609,,1665478031,16485929,'',,,26.81,32.85,1.42,,0.0,0.0,0.0,1.0
1665478031113707374,,1610,,1665478031,113441944,'',,,26.54,32.88,1.57,,0.0,0.0,0.0,1.0
1665478031215716012,,1611,,1665478031,214751005,'',,,26.27,32.88,1.51,,0.0,0.0,0.0,1.0
1665478031314865085,,1612,,1665478031,314517021,'',,,25.96,32.87,1.55,,0.0,0.0,0.0,1.0
1665478031414831076,,1613,,1665478031,413872957,'',,,25.64,32.84,1.49,,0.0,0.0,0.0,1.0
1665478031514992532,,1614,,1665478031,514018058,'',,,25.35,32.88,1.43,,0.0,0.0,0.0,1.0
1665478031615151714,,1615,,1665478031,614700078,'',,,25.07,32.91,1.38,,0.0,0.0,0.0,1.0
1665478031714665065,,1616,,1665478031,714277029,'',,,24.76,32.93,1.35,,0.0,0.0,0.0,1.0
1665478031814008694,,1617,,1665478031,813656091,'',,,24.48,32.95,1.33,,0.0,0.0,0.0,1.0
1665478031914776771,,1618,,1665478031,914369106,'',,,24.16,32.93,1.48,,0.0,0.0,0.0,1.0
1665478032016288723,,1619,,1665478032,14245033,'',,,23.85,32.93,1.44,,0.0,0.0,0.0,1.0
1665478032114141903,,1620,,1665478032,113848924,'',,,23.49,32.89,1.48,,0.0,0.0,0.0,1.0
1665478032215213356,,1621,,1665478032,214930057,'',,,23.18,32.9,1.4,,0.0,0.0,0.0,1.0
1665478032314756809,,1622,,1665478032,314006090,'',,,22.87,32.89,1.32,,0.0,0.0,0.0,1.0
1665478032413715579,,1623,,1665478032,413400888,'',,,22.56,32.87,1.42,,0.0,0.0,0.0,1.0
1665478032515472025,,1624,,1665478032,515053033,'',,,22.25,32.85,1.38,,0.0,0.0,0.0,1.0
1665478032616371156,,1625,,1665478032,615823030,'',,,21.92,32.85,1.36,,0.0,0.0,0.0,1.0
1665478032715389432,,1626,,1665478032,714987039,'',,,21.61,32.86,1.29,,0.0,0.0,0.0,1.0
1665478032814553793,,1627,,1665478032,814315080,'',,,21.27,32.88,1.31,,0.0,0.0,0.0,1.0
1665478032913682994,,1628,,1665478032,913315057,'',,,20.94,32.9,1.34,,0.0,0.0,0.0,1.0
1665478033013669247,,1629,,1665478033,13401031,'',,,20.6,32.84,1.31,,0.0,0.0,0.0,1.0
1665478033114246974,,1630,,1665478033,113905906,'',,,20.3,32.91,1.23,,0.0,0.0,0.0,1.0
1665478033214254972,,1631,,1665478033,213968038,'',,,19.99,32.93,1.14,,0.0,0.0,0.0,1.0
1665478033314127072,,1632,,1665478033,313751935,'',,,19.64,32.86,1.21,,0.0,0.0,0.0,1.0
1665478033413657420,,1633,,1665478033,413433074,'',,,19.32,32.89,1.18,,0.0,0.0,0.0,1.0
1665478033514371090,,1634,,1665478033,513542890,'',,,19.0,32.85,1.18,,0.0,0.0,0.0,1.0
1665478033614025383,,1635,,1665478033,613724946,'',,,18.66,32.83,1.12,,0.0,0.0,0.0,1.0
1665478033714035225,,1636,,1665478033,713778018,'',,,18.34,32.8,1.11,,0.0,0.0,0.0,1.0
1665478033813806657,,1637,,1665478033,813498020,'',,,18.03,32.74,1.16,,0.0,0.0,0.0,1.0
1665478033913919769,,1638,,1665478033,913553953,'',,,17.71,32.73,1.18,,0.0,0.0,0.0,1.0
1665478034013637528,,1639,,1665478034,13312101,'',,,17.4,32.65,1.18,,0.0,0.0,0.0,1.0
1665478034113103369,,1640,,1665478034,112915992,'',,,17.1,32.63,1.3,,0.0,0.0,0.0,1.0
1665478034212904693,,1641,,1665478034,212625026,'',,,16.77,32.66,1.24,,0.0,0.0,0.0,1.0
1665478034313450341,,1642,,1665478034,313246011,'',,,16.44,32.58,1.15,,0.0,0.0,0.0,1.0
1665478034413269602,,1643,,1665478034,412936925,'',,,16.13,32.6,1.17,,0.0,0.0,0.0,1.0
1665478034513597661,,1644,,1665478034,513405084,'',,,15.83,32.63,1.28,,0.0,0.0,0.0,1.0
1665478034613405548,,1645,,1665478034,612782001,'',,,15.5,32.65,1.26,,0.0,0.0,0.0,1.0
1665478034713678893,,1646,,1665478034,713519096,'',,,15.2,32.63,1.28,,0.0,0.0,0.0,1.0
1665478034813704307,,1647,,1665478034,813395977,'',,,14.9,32.59,1.28,,0.0,0.0,0.0,1.0
1665478034913287557,,1648,,1665478034,913055896,'',,,14.63,32.57,1.32,,0.0,0.0,0.0,1.0
1665478035013217869,,1649,,1665478035,12800931,'',,,14.37,32.56,1.28,,0.0,0.0,0.0,1.0
1665478035114366251,,1650,,1665478035,113991975,'',,,14.11,32.54,1.28,,0.0,0.0,0.0,1.0
1665478035214523130,,1651,,1665478035,214174985,'',,,13.83,32.55,1.27,,0.0,0.0,0.0,1.0
1665478035313079393,,1652,,1665478035,312812089,'',,,13.57,32.55,1.3,,0.0,0.0,0.0,1.0
1665478035414081439,,1653,,1665478035,413759946,'',,,13.33,32.56,1.43,,0.0,0.0,0.0,1.0
1665478035515138167,,1654,,1665478035,514668941,'',,,13.08,32.56,1.39,,0.0,0.0,0.0,1.0
1665478035613668363,,1655,,1665478035,612910032,'',,,12.83,32.57,1.44,,0.0,0.0,0.0,1.0
1665478035714040886,,1656,,1665478035,713198900,'',,,12.58,32.58,1.47,,0.0,0.0,0.0,1.0
1665478035813749163,,1657,,1665478035,813290119,'',,,12.38,32.64,1.52,,0.0,0.0,0.0,1.0
1665478035914179556,,1658,,1665478035,913580894,'',,,12.2,32.67,1.56,,0.0,0.0,0.0,1.0
1665478036014127826,,1659,,1665478036,13350963,'',,,12.02,32.69,1.52,,0.0,0.0,0.0,1.0
1665478036114018788,,1660,,1665478036,113048076,'',,,11.75,32.78,1.53,,0.0,0.0,0.0,1.0
1665478036217820860,,1661,,1665478036,217468023,'',,,11.56,32.81,1.8,,0.0,0.0,0.0,1.0
1665478036315499870,,1662,,1665478036,315174102,'',,,11.37,32.85,1.74,,0.0,0.0,0.0,1.0
1665478036414007409,,1663,,1665478036,413124084,'',,,11.17,32.89,1.75,,0.0,0.0,0.0,1.0
1665478036513067865,,1664,,1665478036,512733936,'',,,10.99,32.93,1.7,,0.0,0.0,0.0,1.0
1665478036613464197,,1665,,1665478036,613051891,'',,,10.84,32.99,1.57,,0.0,0.0,0.0,1.0
1665478036713842320,,1666,,1665478036,713521957,'',,,10.67,33.06,1.58,,0.0,0.0,0.0,1.0
1665478036813846800,,1667,,1665478036,813519954,'',,,10.53,33.13,1.5,,0.0,0.0,0.0,1.0
1665478036915246114,,1668,,1665478036,914479017,'',,,10.37,33.17,1.45,,0.0,0.0,0.0,1.0
1665478037015596104,,1669,,1665478037,14869928,'',,,10.22,33.22,1.52,,0.0,0.0,0.0,1.0
1665478037112638449,,1670,,1665478037,112390041,'',,,10.08,33.3,1.55,,0.0,0.0,0.0,1.0
1665478037212951981,,1671,,1665478037,212610960,'',,,9.93,33.39,1.48,,0.0,0.0,0.0,1.0
1665478037313588855,,1672,,1665478037,312776088,'',,,9.79,33.47,1.41,,0.0,0.0,0.0,1.0
1665478037412238925,,1673,,1665478037,412000894,'',,,9.66,33.56,1.3,,0.0,0.0,0.0,1.0
1665478037513208734,,1674,,1665478037,512603044,'',,,9.59,33.71,1.23,,0.0,0.0,0.0,1.0
1665478037613925481,,1675,,1665478037,613039970,'',,,9.47,33.78,1.17,,0.0,0.0,0.0,1.0
1665478037713821979,,1676,,1665478037,713011980,'',,,9.35,33.88,1.14,,0.0,0.0,0.0,1.0
1665478037813638005,,1677,,1665478037,812624931,'',,,9.23,33.96,1.22,,0.0,0.0,0.0,1.0
1665478037907476290,,1678,,1665478037,906841039,'',,,9.09,34.02,1.22,,0.0,0.0,0.0,1.0
1665478038012506795,,1679,,1665478038,12178897,'',,,8.97,34.14,1.31,,0.0,0.0,0.0,1.0
1665478038113254173,,1680,,1665478038,112910032,'',,,8.87,34.27,1.23,,0.0,0.0,0.0,1.0
1665478038213094976,,1681,,1665478038,212304115,'',,,8.77,34.4,1.34,,0.0,0.0,0.0,1.0
1665478038312684055,,1682,,1665478038,312315940,'',,,8.66,34.52,1.38,,0.0,0.0,0.0,1.0
1665478038413034300,,1683,,1665478038,412688970,'',,,8.58,34.63,1.3,,0.0,0.0,0.0,1.0
1665478038513181881,,1684,,1665478038,512852907,'',,,8.49,34.75,1.29,,0.0,0.0,0.0,1.0
1665478038614731647,,1685,,1665478038,613384962,'',,,8.4,34.85,1.2,,0.0,0.0,0.0,1.0
1665478038714716508,,1686,,1665478038,714149951,'',,,8.34,34.96,1.5,,0.0,0.0,0.0,1.0
1665478038815854161,,1687,,1665478038,814488887,'',,,8.26,35.1,1.39,,0.0,0.0,0.0,1.0
1665478038913157127,,1688,,1665478038,912846088,'',,,8.19,35.24,1.74,,0.0,0.0,0.0,1.0
1665478039013254113,,1689,,1665478039,12974977,'',,,8.11,35.39,1.63,,0.0,0.0,0.0,1.0
1665478039113806231,,1690,,1665478039,113547086,'',,,8.05,35.55,1.92,,0.0,0.0,0.0,1.0
1665478039214061083,,1691,,1665478039,213074922,'',,,7.99,35.69,1.71,,0.0,0.0,0.0,1.0
1665478039314088398,,1692,,1665478039,313687086,'',,,7.93,35.86,1.68,,0.0,0.0,0.0,1.0
1665478039415071735,,1693,,1665478039,414160013,'',,,7.87,36.01,1.99,,0.0,0.0,0.0,1.0
1665478039513893711,,1694,,1665478039,513593912,'',,,7.82,36.17,2.19,,0.0,0.0,0.0,1.0
1665478039613709475,,1695,,1665478039,612926959,'',,,7.77,36.35,2.04,,0.0,0.0,0.0,1.0
1665478039713737683,,1696,,1665478039,713323116,'',,,7.72,36.52,2.16,,0.0,0.0,0.0,1.0
1665478039814046632,,1697,,1665478039,813252925,'',,,7.66,36.66,1.87,,0.0,0.0,0.0,1.0
1665478039913047618,,1698,,1665478039,912749052,'',,,7.62,36.84,1.7,,0.0,0.0,0.0,1.0
1665478040015481712,,1699,,1665478040,14306068,'',,,7.59,37.0,1.51,,0.0,0.0,0.0,1.0
1665478040114621080,,1700,,1665478040,114146947,'',,,7.57,37.15,1.36,,0.0,0.0,0.0,1.0
1665478040217047968,,1701,,1665478040,216749906,'',,,7.54,37.3,1.24,,0.0,0.0,0.0,1.0
1665478040314824356,,1702,,1665478040,314455032,'',,,7.52,37.46,1.11,,0.0,0.0,0.0,1.0
1665478040413382517,,1703,,1665478040,413084030,'',,,7.5,37.63,1.06,,0.0,0.0,0.0,1.0
1665478040516403560,,1704,,1665478040,515574932,'',,,7.48,37.79,1.0,,0.0,0.0,0.0,1.0
1665478040615204029,,1705,,1665478040,614346027,'',,,7.47,37.97,0.99,,0.0,0.0,0.0,1.0
1665478040716859726,,1706,,1665478040,716634988,'',,,7.48,38.15,1.01,,0.0,0.0,0.0,1.0
1665478040816578682,,1707,,1665478040,816274881,'',,,7.43,38.27,1.02,,0.0,0.0,0.0,1.0
1665478040917433989,,1708,,1665478040,917129039,'',,,7.38,38.44,0.96,,0.0,0.0,0.0,1.0
1665478041014910463,,1709,,1665478041,14630079,'',,,7.34,38.6,0.91,,0.0,0.0,0.0,1.0
1665478041107118828,,1710,,1665478041,106785058,'',,,7.32,38.76,0.98,,0.0,0.0,0.0,1.0
1665478041214864649,,1711,,1665478041,213931083,'',,,7.29,38.92,0.94,,0.0,0.0,0.0,1.0
1665478041314945747,,1712,,1665478041,314599990,'',,,7.26,39.08,0.93,,0.0,0.0,0.0,1.0
1665478041417872535,,1713,,1665478041,417023897,'',,,7.26,39.22,0.95,,0.0,0.0,0.0,1.0
1665478041516961805,,1714,,1665478041,516690015,'',,,7.26,39.33,1.02,,0.0,0.0,0.0,1.0
1665478041616815244,,1715,,1665478041,616522073,'',,,7.27,39.47,1.19,,0.0,0.0,0.0,1.0
1665478041717011943,,1716,,1665478041,716701984,'',,,7.29,39.61,1.09,,0.0,0.0,0.0,1.0
1665478041817739841,,1717,,1665478041,816898107,'',,,7.3,39.75,1.03,,0.0,0.0,0.0,1.0
1665478041917346474,,1718,,1665478041,916996955,'',,,7.31,39.88,1.02,,0.0,0.0,0.0,1.0
1665478042017321874,,1719,,1665478042,17008066,'',,,7.32,40.0,1.09,,0.0,0.0,0.0,1.0
1665478042117242347,,1720,,1665478042,116923093,'',,,7.33,40.12,1.08,,0.0,0.0,0.0,1.0
1665478042218163310,,1721,,1665478042,217636108,'',,,7.33,40.3,1.18,,0.0,0.0,0.0,1.0
1665478042317485274,,1722,,1665478042,317140102,'',,,7.34,40.48,1.11,,0.0,0.0,0.0,1.0
