rosbagTimestamp,header,seq,stamp,secs,nsecs,frame_id,pose,position,x,y,z,orientation,x,y,z,w
1665761610817809057,,1766,,1665761610,817466974,'',,,-1.91,55.92,1.32,,0.0,0.0,0.0,1.0
1665761610917163772,,1767,,1665761610,916867017,'',,,-1.91,55.87,1.38,,0.0,0.0,0.0,1.0
1665761611017444281,,1768,,1665761611,17096042,'',,,-1.9,55.83,1.34,,0.0,0.0,0.0,1.0
1665761611117991861,,1769,,1665761611,117456912,'',,,-1.89,55.77,1.39,,0.0,0.0,0.0,1.0
1665761611217743046,,1770,,1665761611,217190980,'',,,-1.89,55.72,1.44,,0.0,0.0,0.0,1.0
1665761611317332379,,1771,,1665761611,317015886,'',,,-1.9,55.66,1.46,,0.0,0.0,0.0,1.0
1665761611417355730,,1772,,1665761611,417150020,'',,,-1.89,55.6,1.53,,0.0,0.0,0.0,1.0
1665761611517531662,,1773,,1665761611,517199039,'',,,-1.9,55.57,1.52,,0.0,0.0,0.0,1.0
1665761611617613137,,1774,,1665761611,617309093,'',,,-1.87,55.49,1.41,,0.0,0.0,0.0,1.0
1665761611717653338,,1775,,1665761611,717434883,'',,,-1.86,55.4,1.3,,0.0,0.0,0.0,1.0
1665761611817719292,,1776,,1665761611,817179918,'',,,-1.86,55.33,1.38,,0.0,0.0,0.0,1.0
1665761611917237368,,1777,,1665761611,916920900,'',,,-1.88,55.24,1.45,,0.0,0.0,0.0,1.0
1665761612017761042,,1778,,1665761612,17489910,'',,,-1.93,55.19,1.39,,0.0,0.0,0.0,1.0
1665761612116945731,,1779,,1665761612,116632938,'',,,-1.95,55.13,1.32,,0.0,0.0,0.0,1.0
1665761612217427754,,1780,,1665761612,217160940,'',,,-1.95,55.01,1.22,,0.0,0.0,0.0,1.0
1665761612317815687,,1781,,1665761612,317493915,'',,,-1.93,54.89,1.17,,0.0,0.0,0.0,1.0
1665761612417491237,,1782,,1665761612,417186975,'',,,-1.94,54.77,1.13,,0.0,0.0,0.0,1.0
1665761612517448886,,1783,,1665761612,516942977,'',,,-1.95,54.64,1.12,,0.0,0.0,0.0,1.0
1665761612617482132,,1784,,1665761612,617206096,'',,,-2.02,54.58,1.17,,0.0,0.0,0.0,1.0
1665761612717040326,,1785,,1665761612,716676950,'',,,-2.09,54.5,1.13,,0.0,0.0,0.0,1.0
1665761612817305431,,1786,,1665761612,816863059,'',,,-2.14,54.4,1.11,,0.0,0.0,0.0,1.0
1665761612918416036,,1787,,1665761612,917824029,'',,,-2.15,54.25,1.1,,0.0,0.0,0.0,1.0
1665761613017602980,,1788,,1665761613,17124891,'',,,-2.23,54.15,1.23,,0.0,0.0,0.0,1.0
1665761613117690885,,1789,,1665761613,117276906,'',,,-2.25,54.0,1.14,,0.0,0.0,0.0,1.0
1665761613218603938,,1790,,1665761613,217550039,'',,,-2.28,53.86,1.08,,0.0,0.0,0.0,1.0
1665761613317144417,,1791,,1665761613,316812992,'',,,-2.37,53.77,1.1,,0.0,0.0,0.0,1.0
1665761613417513474,,1792,,1665761613,417081117,'',,,-2.43,53.65,1.11,,0.0,0.0,0.0,1.0
1665761613517222865,,1793,,1665761613,516838073,'',,,-2.48,53.51,1.17,,0.0,0.0,0.0,1.0
1665761613617016354,,1794,,1665761613,616714954,'',,,-2.54,53.36,1.25,,0.0,0.0,0.0,1.0
1665761613717977651,,1795,,1665761613,717502117,'',,,-2.65,53.27,1.27,,0.0,0.0,0.0,1.0
1665761613817573936,,1796,,1665761613,817348003,'',,,-2.74,53.13,1.23,,0.0,0.0,0.0,1.0
1665761613917607052,,1797,,1665761613,917095899,'',,,-2.85,53.03,1.22,,0.0,0.0,0.0,1.0
1665761614017821028,,1798,,1665761614,17462015,'',,,-2.93,52.9,1.22,,0.0,0.0,0.0,1.0
1665761614117696898,,1799,,1665761614,117229938,'',,,-3.03,52.79,1.19,,0.0,0.0,0.0,1.0
1665761614216731028,,1800,,1665761614,216428995,'',,,-3.13,52.69,1.11,,0.0,0.0,0.0,1.0
1665761614316817556,,1801,,1665761614,316556930,'',,,-3.24,52.58,1.09,,0.0,0.0,0.0,1.0
1665761614418213749,,1802,,1665761614,417560100,'',,,-3.33,52.45,1.1,,0.0,0.0,0.0,1.0
1665761614517485781,,1803,,1665761614,516793012,'',,,-3.45,52.35,1.06,,0.0,0.0,0.0,1.0
1665761614616920043,,1804,,1665761614,616600036,'',,,-3.56,52.25,1.04,,0.0,0.0,0.0,1.0
1665761614717407090,,1805,,1665761614,717103958,'',,,-3.67,52.14,0.99,,0.0,0.0,0.0,1.0
1665761614816656392,,1806,,1665761614,816349983,'',,,-3.8,52.04,1.0,,0.0,0.0,0.0,1.0
1665761614917998353,,1807,,1665761614,917031049,'',,,-3.91,51.93,0.97,,0.0,0.0,0.0,1.0
1665761615017192529,,1808,,1665761615,16797065,'',,,-4.01,51.79,1.0,,0.0,0.0,0.0,1.0
1665761615117215251,,1809,,1665761615,116688013,'',,,-4.12,51.66,1.03,,0.0,0.0,0.0,1.0
1665761615217117538,,1810,,1665761615,216883897,'',,,-4.27,51.57,1.07,,0.0,0.0,0.0,1.0
1665761615316877663,,1811,,1665761615,316526889,'',,,-4.4,51.49,1.04,,0.0,0.0,0.0,1.0
1665761615416719634,,1812,,1665761615,416450023,'',,,-4.54,51.41,1.04,,0.0,0.0,0.0,1.0
1665761615517602915,,1813,,1665761615,517193078,'',,,-4.67,51.31,1.06,,0.0,0.0,0.0,1.0
1665761615617494432,,1814,,1665761615,617199897,'',,,-4.81,51.24,1.03,,0.0,0.0,0.0,1.0
1665761615717153812,,1815,,1665761615,716856002,'',,,-4.94,51.16,1.08,,0.0,0.0,0.0,1.0
1665761615817245030,,1816,,1665761615,816936016,'',,,-5.09,51.09,1.01,,0.0,0.0,0.0,1.0
1665761615917806608,,1817,,1665761615,917469024,'',,,-5.23,51.03,0.99,,0.0,0.0,0.0,1.0
1665761616016591800,,1818,,1665761616,16330003,'',,,-5.41,50.97,0.98,,0.0,0.0,0.0,1.0
1665761616116891720,,1819,,1665761616,116559028,'',,,-5.58,50.92,0.93,,0.0,0.0,0.0,1.0
1665761616217319257,,1820,,1665761616,216820955,'',,,-5.74,50.85,0.88,,0.0,0.0,0.0,1.0
1665761616316717001,,1821,,1665761616,316435098,'',,,-5.91,50.82,0.81,,0.0,0.0,0.0,1.0
1665761616416051304,,1822,,1665761616,415793895,'',,,-6.06,50.78,0.94,,0.0,0.0,0.0,1.0
1665761616516867731,,1823,,1665761616,516594886,'',,,-6.23,50.71,0.93,,0.0,0.0,0.0,1.0
1665761616616354970,,1824,,1665761616,615971088,'',,,-6.4,50.68,1.07,,0.0,0.0,0.0,1.0
1665761616716395877,,1825,,1665761616,716052055,'',,,-6.59,50.68,1.14,,0.0,0.0,0.0,1.0
1665761616816343610,,1826,,1665761616,816009998,'',,,-6.78,50.68,1.18,,0.0,0.0,0.0,1.0
1665761616916824947,,1827,,1665761616,916224002,'',,,-6.95,50.66,1.2,,0.0,0.0,0.0,1.0
1665761617016418633,,1828,,1665761617,16057968,'',,,-7.13,50.66,1.26,,0.0,0.0,0.0,1.0
1665761617116539371,,1829,,1665761617,116069078,'',,,-7.31,50.64,1.24,,0.0,0.0,0.0,1.0
1665761617217037857,,1830,,1665761617,216707944,'',,,-7.48,50.63,1.14,,0.0,0.0,0.0,1.0
1665761617317515718,,1831,,1665761617,317142009,'',,,-7.66,50.62,1.09,,0.0,0.0,0.0,1.0
1665761617416804151,,1832,,1665761617,416527986,'',,,-7.85,50.63,0.99,,0.0,0.0,0.0,1.0
1665761617517413685,,1833,,1665761617,517061948,'',,,-8.03,50.62,0.97,,0.0,0.0,0.0,1.0
1665761617617187732,,1834,,1665761617,616966009,'',,,-8.21,50.64,1.03,,0.0,0.0,0.0,1.0
1665761617717531631,,1835,,1665761617,717251062,'',,,-8.38,50.68,1.03,,0.0,0.0,0.0,1.0
1665761617817181702,,1836,,1665761617,816895008,'',,,-8.55,50.71,0.95,,0.0,0.0,0.0,1.0
1665761617917011732,,1837,,1665761617,916729927,'',,,-8.72,50.75,0.89,,0.0,0.0,0.0,1.0
1665761618017496574,,1838,,1665761618,16782999,'',,,-8.88,50.79,0.85,,0.0,0.0,0.0,1.0
1665761618116868200,,1839,,1665761618,116436004,'',,,-9.05,50.83,0.86,,0.0,0.0,0.0,1.0
1665761618217031133,,1840,,1665761618,216808080,'',,,-9.22,50.89,0.88,,0.0,0.0,0.0,1.0
1665761618317193507,,1841,,1665761618,316948890,'',,,-9.38,50.93,0.92,,0.0,0.0,0.0,1.0
1665761618417637912,,1842,,1665761618,417403936,'',,,-9.58,51.02,0.91,,0.0,0.0,0.0,1.0
1665761618517723222,,1843,,1665761618,517362117,'',,,-9.73,51.07,0.84,,0.0,0.0,0.0,1.0
1665761618617779043,,1844,,1665761618,617223978,'',,,-9.88,51.13,0.94,,0.0,0.0,0.0,1.0
1665761618717061741,,1845,,1665761618,716841936,'',,,-10.03,51.19,0.86,,0.0,0.0,0.0,1.0
1665761618817494900,,1846,,1665761618,817281961,'',,,-10.18,51.26,0.84,,0.0,0.0,0.0,1.0
1665761618917831340,,1847,,1665761618,917538881,'',,,-10.34,51.36,0.79,,0.0,0.0,0.0,1.0
1665761619017491096,,1848,,1665761619,17242908,'',,,-10.5,51.46,0.76,,0.0,0.0,0.0,1.0
1665761619118174658,,1849,,1665761619,117321968,'',,,-10.65,51.57,0.73,,0.0,0.0,0.0,1.0
1665761619217802834,,1850,,1665761619,217542886,'',,,-10.82,51.71,0.8,,0.0,0.0,0.0,1.0
1665761619317438264,,1851,,1665761619,317142963,'',,,-10.94,51.82,0.77,,0.0,0.0,0.0,1.0
1665761619417481092,,1852,,1665761619,417256116,'',,,-11.06,51.93,0.73,,0.0,0.0,0.0,1.0
1665761619518123636,,1853,,1665761619,517488002,'',,,-11.18,52.04,0.72,,0.0,0.0,0.0,1.0
1665761619617914834,,1854,,1665761619,617582082,'',,,-11.31,52.18,0.7,,0.0,0.0,0.0,1.0
1665761619718688288,,1855,,1665761619,718228101,'',,,-11.44,52.32,0.68,,0.0,0.0,0.0,1.0
1665761619817998442,,1856,,1665761619,817601919,'',,,-11.56,52.45,0.71,,0.0,0.0,0.0,1.0
1665761619917951465,,1857,,1665761619,917541027,'',,,-11.69,52.59,0.68,,0.0,0.0,0.0,1.0
1665761620017750948,,1858,,1665761620,17494916,'',,,-11.8,52.73,0.66,,0.0,0.0,0.0,1.0
1665761620118202490,,1859,,1665761620,117837905,'',,,-11.89,52.86,0.73,,0.0,0.0,0.0,1.0
1665761620217599185,,1860,,1665761620,217364072,'',,,-11.97,53.0,0.71,,0.0,0.0,0.0,1.0
1665761620317885213,,1861,,1665761620,317672014,'',,,-12.04,53.14,0.7,,0.0,0.0,0.0,1.0
1665761620418213874,,1862,,1665761620,417884111,'',,,-12.12,53.28,0.74,,0.0,0.0,0.0,1.0
1665761620517881744,,1863,,1665761620,517586946,'',,,-12.19,53.43,0.75,,0.0,0.0,0.0,1.0
1665761620618533286,,1864,,1665761620,618052959,'',,,-12.26,53.59,0.72,,0.0,0.0,0.0,1.0
1665761620717884320,,1865,,1665761620,717593908,'',,,-12.31,53.75,0.77,,0.0,0.0,0.0,1.0
1665761620818421676,,1866,,1665761620,817825078,'',,,-12.36,53.9,0.79,,0.0,0.0,0.0,1.0
1665761620919004831,,1867,,1665761620,918566942,'',,,-12.41,54.06,0.92,,0.0,0.0,0.0,1.0
1665761621018526028,,1868,,1665761621,18165111,'',,,-12.46,54.22,1.08,,0.0,0.0,0.0,1.0
1665761621117716633,,1869,,1665761621,117503881,'',,,-12.48,54.38,1.0,,0.0,0.0,0.0,1.0
1665761621218390762,,1870,,1665761621,218189954,'',,,-12.5,54.54,1.17,,0.0,0.0,0.0,1.0
1665761621318285300,,1871,,1665761621,318059921,'',,,-12.54,54.71,1.21,,0.0,0.0,0.0,1.0
1665761621418416262,,1872,,1665761621,418184041,'',,,-12.55,54.88,1.18,,0.0,0.0,0.0,1.0
1665761621618200613,,1873,,1665761621,617888927,'',,,-12.56,55.07,1.35,,0.0,0.0,0.0,1.0
1665761621718514022,,1874,,1665761621,718146085,'',,,-12.59,55.27,1.22,,0.0,0.0,0.0,1.0
1665761621918296372,,1875,,1665761621,918035030,'',,,-12.63,55.52,1.16,,0.0,0.0,0.0,1.0
1665761622018153934,,1876,,1665761622,17844915,'',,,-12.66,55.74,1.09,,0.0,0.0,0.0,1.0
1665761622118348119,,1877,,1665761622,118047952,'',,,-12.76,55.99,1.02,,0.0,0.0,0.0,1.0
1665761622218281991,,1878,,1665761622,217869043,'',,,-12.8,56.18,0.9,,0.0,0.0,0.0,1.0
1665761622318296571,,1879,,1665761622,317883014,'',,,-12.82,56.35,0.94,,0.0,0.0,0.0,1.0
1665761622418347106,,1880,,1665761622,418060064,'',,,-12.84,56.56,0.95,,0.0,0.0,0.0,1.0
1665761622510892673,,1881,,1665761622,510490894,'',,,-12.79,56.74,1.01,,0.0,0.0,0.0,1.0
1665761622618052724,,1882,,1665761622,617695093,'',,,-12.76,56.91,1.04,,0.0,0.0,0.0,1.0
1665761622718579997,,1883,,1665761622,718041896,'',,,-12.76,57.11,1.0,,0.0,0.0,0.0,1.0
1665761622817222317,,1884,,1665761622,816848039,'',,,-12.68,57.27,1.0,,0.0,0.0,0.0,1.0
1665761622917312953,,1885,,1665761622,917071104,'',,,-12.61,57.46,0.96,,0.0,0.0,0.0,1.0
1665761623017613611,,1886,,1665761623,16985893,'',,,-12.54,57.6,0.89,,0.0,0.0,0.0,1.0
1665761623118076351,,1887,,1665761623,117674112,'',,,-12.49,57.73,0.97,,0.0,0.0,0.0,1.0
1665761623217414532,,1888,,1665761623,217080116,'',,,-12.46,57.89,1.0,,0.0,0.0,0.0,1.0
1665761623317831672,,1889,,1665761623,317388057,'',,,-12.42,58.05,0.99,,0.0,0.0,0.0,1.0
1665761623418129259,,1890,,1665761623,417732000,'',,,-12.35,58.16,1.14,,0.0,0.0,0.0,1.0
1665761623517317321,,1891,,1665761623,516922950,'',,,-12.28,58.28,1.15,,0.0,0.0,0.0,1.0
1665761623617773833,,1892,,1665761623,617345094,'',,,-12.2,58.44,1.06,,0.0,0.0,0.0,1.0
1665761623717714487,,1893,,1665761623,717173099,'',,,-12.11,58.55,0.98,,0.0,0.0,0.0,1.0
1665761623817482663,,1894,,1665761623,817007064,'',,,-12.05,58.67,0.95,,0.0,0.0,0.0,1.0
1665761623917170857,,1895,,1665761623,916901111,'',,,-11.95,58.81,0.92,,0.0,0.0,0.0,1.0
1665761624018140969,,1896,,1665761624,17683029,'',,,-11.86,58.93,0.91,,0.0,0.0,0.0,1.0
1665761624117832248,,1897,,1665761624,117125034,'',,,-11.78,59.04,0.94,,0.0,0.0,0.0,1.0
1665761624217942131,,1898,,1665761624,217708110,'',,,-11.7,59.11,1.13,,0.0,0.0,0.0,1.0
1665761624318617217,,1899,,1665761624,318361997,'',,,-11.61,59.22,1.07,,0.0,0.0,0.0,1.0
1665761624417745149,,1900,,1665761624,417346954,'',,,-11.54,59.31,1.1,,0.0,0.0,0.0,1.0
1665761624517518878,,1901,,1665761624,517260074,'',,,-11.43,59.42,1.16,,0.0,0.0,0.0,1.0
1665761624618319748,,1902,,1665761624,618029117,'',,,-11.33,59.55,1.05,,0.0,0.0,0.0,1.0
1665761624717990618,,1903,,1665761624,717633008,'',,,-11.23,59.68,1.05,,0.0,0.0,0.0,1.0
1665761624817898192,,1904,,1665761624,817605972,'',,,-11.12,59.79,1.11,,0.0,0.0,0.0,1.0
1665761624917201374,,1905,,1665761624,916865110,'',,,-11.03,59.9,1.02,,0.0,0.0,0.0,1.0
1665761625017854426,,1906,,1665761625,16782045,'',,,-10.93,60.02,0.97,,0.0,0.0,0.0,1.0
1665761625116618839,,1907,,1665761625,116287946,'',,,-10.86,60.12,0.89,,0.0,0.0,0.0,1.0
1665761625216635112,,1908,,1665761625,216320991,'',,,-10.78,60.19,0.83,,0.0,0.0,0.0,1.0
1665761625316473294,,1909,,1665761625,316199064,'',,,-10.67,60.3,0.78,,0.0,0.0,0.0,1.0
1665761625417120257,,1910,,1665761625,416848897,'',,,-10.59,60.36,0.78,,0.0,0.0,0.0,1.0
1665761625518382054,,1911,,1665761625,517514944,'',,,-10.49,60.43,0.86,,0.0,0.0,0.0,1.0
1665761625617322190,,1912,,1665761625,617084980,'',,,-10.38,60.49,0.9,,0.0,0.0,0.0,1.0
1665761625717558905,,1913,,1665761625,717325925,'',,,-10.27,60.54,0.95,,0.0,0.0,0.0,1.0
1665761625817490830,,1914,,1665761625,817259073,'',,,-10.16,60.61,0.97,,0.0,0.0,0.0,1.0
1665761625917304733,,1915,,1665761625,917082071,'',,,-10.04,60.67,1.05,,0.0,0.0,0.0,1.0
1665761626017606311,,1916,,1665761626,17363071,'',,,-9.92,60.71,1.13,,0.0,0.0,0.0,1.0
1665761626118079213,,1917,,1665761626,117832899,'',,,-9.81,60.77,1.29,,0.0,0.0,0.0,1.0
1665761626217227351,,1918,,1665761626,216996908,'',,,-9.68,60.8,1.27,,0.0,0.0,0.0,1.0
1665761626317608032,,1919,,1665761626,317416906,'',,,-9.55,60.85,1.27,,0.0,0.0,0.0,1.0
1665761626418779146,,1920,,1665761626,418432950,'',,,-9.42,60.91,1.14,,0.0,0.0,0.0,1.0
1665761626518100168,,1921,,1665761626,517879009,'',,,-9.3,60.96,1.04,,0.0,0.0,0.0,1.0
1665761626618163608,,1922,,1665761626,617819070,'',,,-9.17,61.0,0.97,,0.0,0.0,0.0,1.0
1665761626718290903,,1923,,1665761626,717987060,'',,,-9.04,61.04,0.96,,0.0,0.0,0.0,1.0
1665761626818185813,,1924,,1665761626,817831993,'',,,-8.91,61.07,0.92,,0.0,0.0,0.0,1.0
1665761626919003853,,1925,,1665761626,918551921,'',,,-8.79,61.11,0.9,,0.0,0.0,0.0,1.0
1665761627018354257,,1926,,1665761627,18163919,'',,,-8.65,61.14,0.88,,0.0,0.0,0.0,1.0
1665761627118756734,,1927,,1665761627,118387937,'',,,-8.51,61.17,0.88,,0.0,0.0,0.0,1.0
1665761627218723928,,1928,,1665761627,218466997,'',,,-8.37,61.2,0.89,,0.0,0.0,0.0,1.0
1665761627319379186,,1929,,1665761627,318947076,'',,,-8.22,61.21,1.02,,0.0,0.0,0.0,1.0
1665761627419318169,,1930,,1665761627,418956995,'',,,-8.07,61.23,0.97,,0.0,0.0,0.0,1.0
1665761627519264381,,1931,,1665761627,518914937,'',,,-7.91,61.27,0.9,,0.0,0.0,0.0,1.0
1665761627617713855,,1932,,1665761627,617286920,'',,,-7.84,61.28,0.85,,0.0,0.0,0.0,1.0
1665761627718096515,,1933,,1665761627,717479944,'',,,-7.74,61.28,0.86,,0.0,0.0,0.0,1.0
1665761627817499878,,1934,,1665761627,817239999,'',,,-7.61,61.29,0.85,,0.0,0.0,0.0,1.0
1665761627916852768,,1935,,1665761627,916441917,'',,,-7.48,61.27,1.07,,0.0,0.0,0.0,1.0
1665761628016713497,,1936,,1665761628,16419887,'',,,-7.35,61.25,1.18,,0.0,0.0,0.0,1.0
1665761628117766178,,1937,,1665761628,116626024,'',,,-7.2,61.25,1.06,,0.0,0.0,0.0,1.0
1665761628210734040,,1938,,1665761628,210170030,'',,,-7.04,61.27,1.08,,0.0,0.0,0.0,1.0
1665761628318102678,,1939,,1665761628,317219972,'',,,-6.9,61.23,1.02,,0.0,0.0,0.0,1.0
1665761628417652725,,1940,,1665761628,417191028,'',,,-6.74,61.19,0.96,,0.0,0.0,0.0,1.0
1665761628518544117,,1941,,1665761628,517976045,'',,,-6.58,61.16,1.03,,0.0,0.0,0.0,1.0
1665761628617712272,,1942,,1665761628,617270946,'',,,-6.43,61.12,1.08,,0.0,0.0,0.0,1.0
1665761628717319501,,1943,,1665761628,717001914,'',,,-6.26,61.1,1.2,,0.0,0.0,0.0,1.0
1665761628817761907,,1944,,1665761628,817233085,'',,,-6.13,61.02,1.08,,0.0,0.0,0.0,1.0
1665761628917219010,,1945,,1665761628,916960954,'',,,-5.97,60.96,1.01,,0.0,0.0,0.0,1.0
1665761629017997898,,1946,,1665761629,17591953,'',,,-5.83,60.9,1.01,,0.0,0.0,0.0,1.0
1665761629118201256,,1947,,1665761629,117326021,'',,,-5.67,60.84,1.06,,0.0,0.0,0.0,1.0
1665761629217965495,,1948,,1665761629,217380046,'',,,-5.52,60.78,1.0,,0.0,0.0,0.0,1.0
1665761629317863412,,1949,,1665761629,317372083,'',,,-5.38,60.71,1.04,,0.0,0.0,0.0,1.0
1665761629417342978,,1950,,1665761629,417041063,'',,,-5.23,60.67,1.08,,0.0,0.0,0.0,1.0
1665761629517990453,,1951,,1665761629,517589092,'',,,-5.07,60.63,1.03,,0.0,0.0,0.0,1.0
1665761629617503388,,1952,,1665761629,617269039,'',,,-4.92,60.57,1.19,,0.0,0.0,0.0,1.0
1665761629718311961,,1953,,1665761629,718056917,'',,,-4.77,60.48,1.29,,0.0,0.0,0.0,1.0
1665761629818159512,,1954,,1665761629,817802906,'',,,-4.61,60.41,1.19,,0.0,0.0,0.0,1.0
1665761629918644883,,1955,,1665761629,918277025,'',,,-4.47,60.33,1.1,,0.0,0.0,0.0,1.0
1665761630019487156,,1956,,1665761630,18496990,'',,,-4.32,60.23,1.05,,0.0,0.0,0.0,1.0
1665761630118028965,,1957,,1665761630,117575883,'',,,-4.17,60.17,1.02,,0.0,0.0,0.0,1.0
1665761630217851325,,1958,,1665761630,217544078,'',,,-4.04,60.07,0.99,,0.0,0.0,0.0,1.0
1665761630317599267,,1959,,1665761630,317193984,'',,,-3.92,59.97,1.15,,0.0,0.0,0.0,1.0
1665761630417087797,,1960,,1665761630,416851997,'',,,-3.8,59.87,1.28,,0.0,0.0,0.0,1.0
1665761630517591718,,1961,,1665761630,517379045,'',,,-3.68,59.76,1.41,,0.0,0.0,0.0,1.0
1665761630617786061,,1962,,1665761630,617599010,'',,,-3.57,59.66,1.33,,0.0,0.0,0.0,1.0
1665761630717183017,,1963,,1665761630,716965913,'',,,-3.47,59.56,1.45,,0.0,0.0,0.0,1.0
1665761630817483028,,1964,,1665761630,817292928,'',,,-3.36,59.45,1.32,,0.0,0.0,0.0,1.0
1665761630917299662,,1965,,1665761630,917067050,'',,,-3.27,59.32,1.43,,0.0,0.0,0.0,1.0
1665761631017201508,,1966,,1665761631,16964912,'',,,-3.16,59.21,1.3,,0.0,0.0,0.0,1.0
1665761631117494748,,1967,,1665761631,117306947,'',,,-3.07,59.08,1.23,,0.0,0.0,0.0,1.0
1665761631217299366,,1968,,1665761631,217086076,'',,,-2.97,58.96,1.3,,0.0,0.0,0.0,1.0
1665761631316609813,,1969,,1665761631,316420078,'',,,-2.9,58.84,1.35,,0.0,0.0,0.0,1.0
1665761631417091564,,1970,,1665761631,416872978,'',,,-2.83,58.71,1.4,,0.0,0.0,0.0,1.0
1665761631517048516,,1971,,1665761631,516838073,'',,,-2.76,58.6,1.45,,0.0,0.0,0.0,1.0
1665761631616813352,,1972,,1665761631,616592884,'',,,-2.69,58.5,1.48,,0.0,0.0,0.0,1.0
1665761631716759121,,1973,,1665761631,716558933,'',,,-2.63,58.4,1.49,,0.0,0.0,0.0,1.0
1665761631817207443,,1974,,1665761631,816906929,'',,,-2.59,58.29,1.54,,0.0,0.0,0.0,1.0
1665761631916622780,,1975,,1665761631,916418075,'',,,-2.55,58.19,1.55,,0.0,0.0,0.0,1.0
1665761632016876301,,1976,,1665761632,16520977,'',,,-2.51,58.1,1.6,,0.0,0.0,0.0,1.0
1665761632116877867,,1977,,1665761632,116591930,'',,,-2.48,58.0,1.51,,0.0,0.0,0.0,1.0
1665761632216678868,,1978,,1665761632,216402053,'',,,-2.43,57.92,1.42,,0.0,0.0,0.0,1.0
1665761632316786720,,1979,,1665761632,316500902,'',,,-2.39,57.81,1.46,,0.0,0.0,0.0,1.0
1665761632417154585,,1980,,1665761632,416863918,'',,,-2.34,57.71,1.51,,0.0,0.0,0.0,1.0
1665761632516941915,,1981,,1665761632,516623020,'',,,-2.28,57.64,1.39,,0.0,0.0,0.0,1.0
1665761632616586078,,1982,,1665761632,616298913,'',,,-2.24,57.53,1.43,,0.0,0.0,0.0,1.0
1665761632717292128,,1983,,1665761632,716885089,'',,,-2.21,57.45,1.43,,0.0,0.0,0.0,1.0
1665761632816556652,,1984,,1665761632,816239118,'',,,-2.18,57.35,1.4,,0.0,0.0,0.0,1.0
1665761632916790310,,1985,,1665761632,916506052,'',,,-2.16,57.25,1.39,,0.0,0.0,0.0,1.0
1665761633016751920,,1986,,1665761633,16490936,'',,,-2.15,57.17,1.35,,0.0,0.0,0.0,1.0
1665761633116807831,,1987,,1665761633,116080045,'',,,-2.12,57.08,1.32,,0.0,0.0,0.0,1.0
1665761633216361072,,1988,,1665761633,215997934,'',,,-2.09,56.98,1.33,,0.0,0.0,0.0,1.0
1665761633316453313,,1989,,1665761633,316119909,'',,,-2.06,56.87,1.38,,0.0,0.0,0.0,1.0
1665761633416060677,,1990,,1665761633,415709018,'',,,-2.04,56.79,1.37,,0.0,0.0,0.0,1.0
1665761633516130971,,1991,,1665761633,515837907,'',,,-2.02,56.71,1.35,,0.0,0.0,0.0,1.0
1665761633616609975,,1992,,1665761633,616287946,'',,,-2.0,56.66,1.31,,0.0,0.0,0.0,1.0
1665761633716642059,,1993,,1665761633,716223955,'',,,-1.99,56.6,1.24,,0.0,0.0,0.0,1.0
1665761633816772449,,1994,,1665761633,816488027,'',,,-1.99,56.56,1.29,,0.0,0.0,0.0,1.0
1665761633916505121,,1995,,1665761633,916233062,'',,,-1.98,56.49,1.29,,0.0,0.0,0.0,1.0
1665761634016382716,,1996,,1665761634,16062974,'',,,-1.97,56.42,1.36,,0.0,0.0,0.0,1.0
1665761634116131627,,1997,,1665761634,115823030,'',,,-1.96,56.34,1.36,,0.0,0.0,0.0,1.0
1665761634216578835,,1998,,1665761634,216296911,'',,,-1.96,56.3,1.35,,0.0,0.0,0.0,1.0
1665761634315935137,,1999,,1665761634,315582990,'',,,-1.95,56.26,1.37,,0.0,0.0,0.0,1.0
1665761634417015604,,2000,,1665761634,416346073,'',,,-1.95,56.2,1.44,,0.0,0.0,0.0,1.0
1665761634515922274,,2001,,1665761634,515672922,'',,,-1.94,56.17,1.39,,0.0,0.0,0.0,1.0
1665761634616707676,,2002,,1665761634,616394042,'',,,-1.93,56.14,1.29,,0.0,0.0,0.0,1.0
1665761634716317772,,2003,,1665761634,716012001,'',,,-1.92,56.12,1.27,,0.0,0.0,0.0,1.0
1665761634816505944,,2004,,1665761634,816178083,'',,,-1.93,56.12,1.32,,0.0,0.0,0.0,1.0
1665761634915935248,,2005,,1665761634,915709972,'',,,-1.94,56.1,1.37,,0.0,0.0,0.0,1.0
1665761635016756801,,2006,,1665761635,16171932,'',,,-1.92,56.08,1.29,,0.0,0.0,0.0,1.0
1665761635117442106,,2007,,1665761635,116652011,'',,,-1.91,56.09,1.22,,0.0,0.0,0.0,1.0
1665761635217506729,,2008,,1665761635,216012954,'',,,-1.92,56.08,1.32,,0.0,0.0,0.0,1.0
1665761635316214195,,2009,,1665761635,315932989,'',,,-1.93,56.09,1.29,,0.0,0.0,0.0,1.0
1665761635415956449,,2010,,1665761635,415642023,'',,,-1.93,56.09,1.31,,0.0,0.0,0.0,1.0
1665761635515933945,,2011,,1665761635,515691041,'',,,-1.93,56.09,1.38,,0.0,0.0,0.0,1.0
