rosbagTimestamp,header,seq,stamp,secs,nsecs,frame_id,pose,position,x,y,z,orientation,x,y,z,w
1665481238205401417,,3289,,1665481238,205166101,'',,,7.0,-2.61,2.04,,0.0,0.0,0.0,1.0
1665481238306203225,,3290,,1665481238,305413007,'',,,7.01,-2.6,2.16,,0.0,0.0,0.0,1.0
1665481238406437231,,3291,,1665481238,405747890,'',,,6.99,-2.51,2.24,,0.0,0.0,0.0,1.0
1665481238506291910,,3292,,1665481238,505109071,'',,,6.98,-2.43,2.44,,0.0,0.0,0.0,1.0
1665481238606794185,,3293,,1665481238,605909109,'',,,7.04,-2.46,2.45,,0.0,0.0,0.0,1.0
1665481238705122662,,3294,,1665481238,704740047,'',,,7.01,-2.36,2.43,,0.0,0.0,0.0,1.0
1665481238805845076,,3295,,1665481238,804749011,'',,,6.97,-2.22,2.54,,0.0,0.0,0.0,1.0
1665481238906033114,,3296,,1665481238,905150890,'',,,6.95,-2.12,2.61,,0.0,0.0,0.0,1.0
1665481239005070750,,3297,,1665481239,4506111,'',,,6.94,-1.99,2.68,,0.0,0.0,0.0,1.0
1665481239106402374,,3298,,1665481239,105931997,'',,,7.0,-1.98,2.74,,0.0,0.0,0.0,1.0
1665481239206184293,,3299,,1665481239,205827951,'',,,6.96,-1.85,2.76,,0.0,0.0,0.0,1.0
1665481239306096015,,3300,,1665481239,305290937,'',,,6.95,-1.78,2.86,,0.0,0.0,0.0,1.0
1665481239405008797,,3301,,1665481239,404395103,'',,,6.93,-1.63,2.82,,0.0,0.0,0.0,1.0
1665481239506133682,,3302,,1665481239,505748987,'',,,6.97,-1.58,2.93,,0.0,0.0,0.0,1.0
1665481239605430963,,3303,,1665481239,605151891,'',,,6.94,-1.43,2.8,,0.0,0.0,0.0,1.0
1665481239704710441,,3304,,1665481239,704369068,'',,,6.91,-1.28,2.74,,0.0,0.0,0.0,1.0
1665481239805430956,,3305,,1665481239,805140972,'',,,6.88,-1.19,2.39,,0.0,0.0,0.0,1.0
1665481239904391771,,3306,,1665481239,904211997,'',,,6.86,-1.08,2.07,,0.0,0.0,0.0,1.0
1665481240004095648,,3307,,1665481240,3808021,'',,,6.83,-0.95,1.93,,0.0,0.0,0.0,1.0
1665481240105020606,,3308,,1665481240,104790925,'',,,6.8,-0.83,1.8,,0.0,0.0,0.0,1.0
1665481240205334199,,3309,,1665481240,204937934,'',,,6.79,-0.67,2.03,,0.0,0.0,0.0,1.0
1665481240305437817,,3310,,1665481240,304619073,'',,,6.76,-0.53,1.98,,0.0,0.0,0.0,1.0
1665481240405134358,,3311,,1665481240,404863119,'',,,6.74,-0.36,2.15,,0.0,0.0,0.0,1.0
1665481240504652295,,3312,,1665481240,504496097,'',,,6.72,-0.22,2.08,,0.0,0.0,0.0,1.0
1665481240605302993,,3313,,1665481240,604671001,'',,,6.7,-0.07,2.18,,0.0,0.0,0.0,1.0
1665481240705694323,,3314,,1665481240,705348014,'',,,6.68,0.08,2.03,,0.0,0.0,0.0,1.0
1665481240806853836,,3315,,1665481240,805519104,'',,,6.65,0.26,2.15,,0.0,0.0,0.0,1.0
1665481240906888672,,3316,,1665481240,906145095,'',,,6.61,0.42,2.35,,0.0,0.0,0.0,1.0
1665481241006930098,,3317,,1665481241,6423950,'',,,6.58,0.56,2.0,,0.0,0.0,0.0,1.0
1665481241107067914,,3318,,1665481241,106353998,'',,,6.55,0.74,2.23,,0.0,0.0,0.0,1.0
1665481241206114333,,3319,,1665481241,205519914,'',,,6.5,0.91,2.12,,0.0,0.0,0.0,1.0
1665481241306518259,,3320,,1665481241,305541992,'',,,6.47,1.1,2.33,,0.0,0.0,0.0,1.0
1665481241405827796,,3321,,1665481241,405005931,'',,,6.42,1.26,2.21,,0.0,0.0,0.0,1.0
1665481241506129282,,3322,,1665481241,505561113,'',,,6.38,1.43,2.2,,0.0,0.0,0.0,1.0
1665481241606618908,,3323,,1665481241,606156110,'',,,6.34,1.62,2.37,,0.0,0.0,0.0,1.0
1665481241706334455,,3324,,1665481241,706087112,'',,,6.31,1.79,2.31,,0.0,0.0,0.0,1.0
1665481241806398778,,3325,,1665481241,806096076,'',,,6.27,1.98,2.46,,0.0,0.0,0.0,1.0
1665481241906341998,,3326,,1665481241,906004905,'',,,6.22,2.16,2.13,,0.0,0.0,0.0,1.0
1665481242005817078,,3327,,1665481242,5590915,'',,,6.19,2.35,1.94,,0.0,0.0,0.0,1.0
1665481242106997457,,3328,,1665481242,106393098,'',,,6.15,2.55,2.15,,0.0,0.0,0.0,1.0
1665481242206609058,,3329,,1665481242,206377983,'',,,6.1,2.71,1.82,,0.0,0.0,0.0,1.0
1665481242305526477,,3330,,1665481242,305229902,'',,,6.07,2.88,1.58,,0.0,0.0,0.0,1.0
1665481242406976772,,3331,,1665481242,406260967,'',,,6.04,3.06,1.39,,0.0,0.0,0.0,1.0
1665481242506735319,,3332,,1665481242,505624055,'',,,6.0,3.25,1.61,,0.0,0.0,0.0,1.0
1665481242606733802,,3333,,1665481242,606478929,'',,,5.95,3.43,1.8,,0.0,0.0,0.0,1.0
1665481242706955373,,3334,,1665481242,706617116,'',,,5.95,3.62,1.65,,0.0,0.0,0.0,1.0
1665481242805380757,,3335,,1665481242,805197000,'',,,5.93,3.82,1.52,,0.0,0.0,0.0,1.0
1665481242905570673,,3336,,1665481242,905246019,'',,,5.9,4.01,1.68,,0.0,0.0,0.0,1.0
1665481243006694713,,3337,,1665481243,6182909,'',,,5.91,4.18,1.67,,0.0,0.0,0.0,1.0
1665481243107863497,,3338,,1665481243,107482910,'',,,5.92,4.37,1.62,,0.0,0.0,0.0,1.0
1665481243205835627,,3339,,1665481243,205559968,'',,,5.91,4.58,1.55,,0.0,0.0,0.0,1.0
1665481243305707343,,3340,,1665481243,305329084,'',,,5.92,4.77,1.6,,0.0,0.0,0.0,1.0
1665481243408349384,,3341,,1665481243,406996011,'',,,5.92,4.97,1.35,,0.0,0.0,0.0,1.0
1665481243507582819,,3342,,1665481243,506340026,'',,,5.98,5.13,1.29,,0.0,0.0,0.0,1.0
1665481243606473902,,3343,,1665481243,605619907,'',,,6.04,5.3,1.23,,0.0,0.0,0.0,1.0
1665481243706691487,,3344,,1665481243,706341028,'',,,6.1,5.49,1.19,,0.0,0.0,0.0,1.0
1665481243806768419,,3345,,1665481243,806531906,'',,,6.09,5.71,1.5,,0.0,0.0,0.0,1.0
1665481243907218906,,3346,,1665481243,906534910,'',,,6.09,5.92,1.56,,0.0,0.0,0.0,1.0
1665481244006200489,,3347,,1665481244,5851030,'',,,6.11,6.15,1.48,,0.0,0.0,0.0,1.0
1665481244106384754,,3348,,1665481244,105531930,'',,,6.12,6.37,1.26,,0.0,0.0,0.0,1.0
1665481244206634029,,3349,,1665481244,206381082,'',,,6.15,6.58,1.41,,0.0,0.0,0.0,1.0
1665481244306433934,,3350,,1665481244,305629014,'',,,6.18,6.79,1.59,,0.0,0.0,0.0,1.0
1665481244406378708,,3351,,1665481244,405399084,'',,,6.23,6.99,1.78,,0.0,0.0,0.0,1.0
1665481244506704088,,3352,,1665481244,505614995,'',,,6.29,7.19,1.81,,0.0,0.0,0.0,1.0
1665481244606859776,,3353,,1665481244,606008052,'',,,6.39,7.38,1.6,,0.0,0.0,0.0,1.0
1665481244705726878,,3354,,1665481244,705425977,'',,,6.49,7.55,1.42,,0.0,0.0,0.0,1.0
1665481244806314360,,3355,,1665481244,805831909,'',,,6.52,7.77,1.64,,0.0,0.0,0.0,1.0
1665481244905800199,,3356,,1665481244,905505895,'',,,6.54,7.99,1.78,,0.0,0.0,0.0,1.0
1665481245006541795,,3357,,1665481245,6103038,'',,,6.6,8.21,1.71,,0.0,0.0,0.0,1.0
1665481245106855840,,3358,,1665481245,105695009,'',,,6.66,8.43,1.78,,0.0,0.0,0.0,1.0
1665481245206360995,,3359,,1665481245,206096887,'',,,6.72,8.65,1.68,,0.0,0.0,0.0,1.0
1665481245307699553,,3360,,1665481245,306327104,'',,,6.78,8.88,1.68,,0.0,0.0,0.0,1.0
1665481245407315139,,3361,,1665481245,406478881,'',,,6.85,9.09,1.43,,0.0,0.0,0.0,1.0
1665481245506837430,,3362,,1665481245,505974054,'',,,6.93,9.31,1.25,,0.0,0.0,0.0,1.0
1665481245606807755,,3363,,1665481245,605890035,'',,,6.95,9.52,1.61,,0.0,0.0,0.0,1.0
1665481245706292957,,3364,,1665481245,705842971,'',,,7.03,9.73,1.39,,0.0,0.0,0.0,1.0
1665481245807731501,,3365,,1665481245,806472063,'',,,7.08,9.96,1.18,,0.0,0.0,0.0,1.0
1665481245906736829,,3366,,1665481245,905703067,'',,,7.15,10.18,1.22,,0.0,0.0,0.0,1.0
1665481246006828841,,3367,,1665481246,6519079,'',,,7.19,10.41,1.1,,0.0,0.0,0.0,1.0
1665481246106046158,,3368,,1665481246,105482101,'',,,7.25,10.63,1.2,,0.0,0.0,0.0,1.0
1665481246205905869,,3369,,1665481246,205601930,'',,,7.3,10.87,1.34,,0.0,0.0,0.0,1.0
1665481246306126819,,3370,,1665481246,305751085,'',,,7.38,11.06,1.24,,0.0,0.0,0.0,1.0
1665481246405917445,,3371,,1665481246,405715942,'',,,7.4,11.3,1.31,,0.0,0.0,0.0,1.0
1665481246506773595,,3372,,1665481246,506563901,'',,,7.42,11.55,1.14,,0.0,0.0,0.0,1.0
1665481246606560623,,3373,,1665481246,605820894,'',,,7.41,11.79,1.08,,0.0,0.0,0.0,1.0
1665481246705894734,,3374,,1665481246,705225944,'',,,7.4,12.03,1.19,,0.0,0.0,0.0,1.0
1665481246805730059,,3375,,1665481246,804971933,'',,,7.37,12.28,1.09,,0.0,0.0,0.0,1.0
1665481246905876080,,3376,,1665481246,905630111,'',,,7.38,12.51,1.12,,0.0,0.0,0.0,1.0
1665481247006393368,,3377,,1665481247,6216049,'',,,7.36,12.74,1.0,,0.0,0.0,0.0,1.0
1665481247106383268,,3378,,1665481247,106091976,'',,,7.34,12.99,1.27,,0.0,0.0,0.0,1.0
1665481247206072408,,3379,,1665481247,205724954,'',,,7.32,13.23,1.11,,0.0,0.0,0.0,1.0
1665481247305763360,,3380,,1665481247,305464029,'',,,7.33,13.43,1.01,,0.0,0.0,0.0,1.0
1665481247405964719,,3381,,1665481247,405764102,'',,,7.32,13.64,0.93,,0.0,0.0,0.0,1.0
1665481247504946764,,3382,,1665481247,504750013,'',,,7.31,13.85,0.82,,0.0,0.0,0.0,1.0
1665481247607661748,,3383,,1665481247,606585025,'',,,7.22,14.11,0.79,,0.0,0.0,0.0,1.0
1665481247706212272,,3384,,1665481247,705734014,'',,,7.15,14.33,0.88,,0.0,0.0,0.0,1.0
1665481247806213389,,3385,,1665481247,805941104,'',,,7.13,14.53,0.75,,0.0,0.0,0.0,1.0
1665481247905720042,,3386,,1665481247,904994964,'',,,7.09,14.73,0.66,,0.0,0.0,0.0,1.0
1665481248004746594,,3387,,1665481248,4492998,'',,,7.01,14.96,0.78,,0.0,0.0,0.0,1.0
1665481248105666711,,3388,,1665481248,105346918,'',,,6.9,15.19,0.92,,0.0,0.0,0.0,1.0
1665481248207102135,,3389,,1665481248,206429958,'',,,6.77,15.44,0.94,,0.0,0.0,0.0,1.0
1665481248306464494,,3390,,1665481248,306071996,'',,,6.77,15.64,0.78,,0.0,0.0,0.0,1.0
1665481248407241303,,3391,,1665481248,405807971,'',,,6.73,15.84,0.73,,0.0,0.0,0.0,1.0
1665481248506827340,,3392,,1665481248,506031990,'',,,6.61,16.09,0.8,,0.0,0.0,0.0,1.0
1665481248605271539,,3393,,1665481248,604783058,'',,,6.49,16.32,0.99,,0.0,0.0,0.0,1.0
1665481248704807657,,3394,,1665481248,704627037,'',,,6.45,16.51,0.91,,0.0,0.0,0.0,1.0
1665481248805878033,,3395,,1665481248,805023908,'',,,6.34,16.75,0.89,,0.0,0.0,0.0,1.0
1665481248905425079,,3396,,1665481248,905013084,'',,,6.29,16.99,1.04,,0.0,0.0,0.0,1.0
1665481249004627774,,3397,,1665481249,4343986,'',,,6.27,17.18,0.91,,0.0,0.0,0.0,1.0
1665481249105483232,,3398,,1665481249,105209112,'',,,6.23,17.37,0.85,,0.0,0.0,0.0,1.0
1665481249205359075,,3399,,1665481249,204963922,'',,,6.13,17.64,0.9,,0.0,0.0,0.0,1.0
1665481249304805303,,3400,,1665481249,304502010,'',,,6.13,17.83,0.79,,0.0,0.0,0.0,1.0
1665481249405665442,,3401,,1665481249,405318975,'',,,6.05,18.09,0.82,,0.0,0.0,0.0,1.0
1665481249505146967,,3402,,1665481249,504843950,'',,,6.04,18.28,0.78,,0.0,0.0,0.0,1.0
1665481249598076593,,3403,,1665481249,597754001,'',,,6.03,18.48,0.69,,0.0,0.0,0.0,1.0
1665481249704820064,,3404,,1665481249,704503059,'',,,5.96,18.74,0.84,,0.0,0.0,0.0,1.0
1665481249804148234,,3405,,1665481249,803833961,'',,,5.9,19.01,0.93,,0.0,0.0,0.0,1.0
1665481249898015575,,3406,,1665481249,897687911,'',,,5.94,19.18,0.78,,0.0,0.0,0.0,1.0
1665481250004972488,,3407,,1665481250,4631996,'',,,5.89,19.44,0.88,,0.0,0.0,0.0,1.0
1665481250106076718,,3408,,1665481250,105613946,'',,,5.89,19.62,1.06,,0.0,0.0,0.0,1.0
1665481250198030886,,3409,,1665481250,197439908,'',,,5.93,19.81,0.94,,0.0,0.0,0.0,1.0
1665481250304626264,,3410,,1665481250,303992033,'',,,5.92,20.03,1.12,,0.0,0.0,0.0,1.0
1665481250405253881,,3411,,1665481250,404443025,'',,,5.91,20.27,1.28,,0.0,0.0,0.0,1.0
1665481250498884516,,3412,,1665481250,498245000,'',,,5.99,20.46,1.04,,0.0,0.0,0.0,1.0
1665481250606324450,,3413,,1665481250,605340957,'',,,5.99,20.67,1.23,,0.0,0.0,0.0,1.0
1665481250705326254,,3414,,1665481250,704875946,'',,,6.0,20.88,1.41,,0.0,0.0,0.0,1.0
1665481250799116720,,3415,,1665481250,798449993,'',,,6.08,21.1,1.16,,0.0,0.0,0.0,1.0
1665481250905427320,,3416,,1665481250,904721021,'',,,6.17,21.31,0.92,,0.0,0.0,0.0,1.0
1665481251006218575,,3417,,1665481251,5419015,'',,,6.22,21.48,0.95,,0.0,0.0,0.0,1.0
1665481251098597841,,3418,,1665481251,97431898,'',,,6.27,21.67,0.82,,0.0,0.0,0.0,1.0
1665481251206657808,,3419,,1665481251,205527067,'',,,6.33,21.84,0.95,,0.0,0.0,0.0,1.0
1665481251304923605,,3420,,1665481251,304603099,'',,,6.43,22.01,0.86,,0.0,0.0,0.0,1.0
1665481251404023941,,3421,,1665481251,403580904,'',,,6.39,22.23,1.19,,0.0,0.0,0.0,1.0
1665481251506317812,,3422,,1665481251,504940986,'',,,6.41,22.45,1.28,,0.0,0.0,0.0,1.0
1665481251604669628,,3423,,1665481251,604044914,'',,,6.43,22.65,1.4,,0.0,0.0,0.0,1.0
1665481251698533992,,3424,,1665481251,697925090,'',,,6.54,22.85,1.14,,0.0,0.0,0.0,1.0
1665481251805672493,,3425,,1665481251,804968118,'',,,6.61,23.05,1.05,,0.0,0.0,0.0,1.0
1665481251904754592,,3426,,1665481251,904489994,'',,,6.63,23.26,1.2,,0.0,0.0,0.0,1.0
1665481252005379450,,3427,,1665481252,5126953,'',,,6.7,23.42,1.26,,0.0,0.0,0.0,1.0
1665481252104424750,,3428,,1665481252,104178905,'',,,6.77,23.61,1.31,,0.0,0.0,0.0,1.0
1665481252205736437,,3429,,1665481252,205450057,'',,,6.8,23.83,1.4,,0.0,0.0,0.0,1.0
1665481252305456579,,3430,,1665481252,305113077,'',,,6.84,24.04,1.53,,0.0,0.0,0.0,1.0
1665481252407030758,,3431,,1665481252,405798912,'',,,6.88,24.25,1.65,,0.0,0.0,0.0,1.0
1665481252506560974,,3432,,1665481252,506273031,'',,,6.89,24.46,1.86,,0.0,0.0,0.0,1.0
1665481252604860657,,3433,,1665481252,604542970,'',,,6.95,24.68,1.83,,0.0,0.0,0.0,1.0
1665481252705961148,,3434,,1665481252,705393075,'',,,6.99,24.89,1.84,,0.0,0.0,0.0,1.0
1665481252805826736,,3435,,1665481252,805370092,'',,,7.08,25.1,1.52,,0.0,0.0,0.0,1.0
1665481252905365659,,3436,,1665481252,904905080,'',,,7.1,25.31,1.64,,0.0,0.0,0.0,1.0
1665481253005015336,,3437,,1665481253,4774093,'',,,7.12,25.52,1.69,,0.0,0.0,0.0,1.0
1665481253106375850,,3438,,1665481253,105845928,'',,,7.15,25.72,1.8,,0.0,0.0,0.0,1.0
1665481253204778433,,3439,,1665481253,204394102,'',,,7.17,25.94,1.83,,0.0,0.0,0.0,1.0
1665481253305369241,,3440,,1665481253,304868936,'',,,7.16,26.16,1.95,,0.0,0.0,0.0,1.0
1665481253404884427,,3441,,1665481253,404649019,'',,,7.18,26.38,1.84,,0.0,0.0,0.0,1.0
1665481253505964809,,3442,,1665481253,505222082,'',,,7.29,26.56,1.72,,0.0,0.0,0.0,1.0
1665481253605295726,,3443,,1665481253,604911088,'',,,7.31,26.78,1.76,,0.0,0.0,0.0,1.0
1665481253706612148,,3444,,1665481253,705590009,'',,,7.32,26.99,1.77,,0.0,0.0,0.0,1.0
1665481253805317841,,3445,,1665481253,804995059,'',,,7.39,27.17,1.73,,0.0,0.0,0.0,1.0
1665481253905409989,,3446,,1665481253,904989957,'',,,7.34,27.42,1.87,,0.0,0.0,0.0,1.0
1665481254006155809,,3447,,1665481254,5855083,'',,,7.29,27.65,1.96,,0.0,0.0,0.0,1.0
1665481254105782369,,3448,,1665481254,104873895,'',,,7.3,27.87,1.68,,0.0,0.0,0.0,1.0
1665481254205030762,,3449,,1665481254,204308032,'',,,7.29,28.07,1.53,,0.0,0.0,0.0,1.0
1665481254303979548,,3450,,1665481254,303775072,'',,,7.29,28.28,1.34,,0.0,0.0,0.0,1.0
1665481254404565592,,3451,,1665481254,404354095,'',,,7.29,28.49,1.17,,0.0,0.0,0.0,1.0
1665481254504109366,,3452,,1665481254,503837108,'',,,7.25,28.68,1.29,,0.0,0.0,0.0,1.0
1665481254605959220,,3453,,1665481254,605360984,'',,,7.22,28.89,1.15,,0.0,0.0,0.0,1.0
1665481254704381657,,3454,,1665481254,704137086,'',,,7.14,29.12,1.28,,0.0,0.0,0.0,1.0
1665481254804806715,,3455,,1665481254,804546117,'',,,7.07,29.34,1.35,,0.0,0.0,0.0,1.0
1665481254904647304,,3456,,1665481254,904350996,'',,,7.0,29.57,1.35,,0.0,0.0,0.0,1.0
1665481255006308631,,3457,,1665481255,5805969,'',,,7.02,29.74,1.51,,0.0,0.0,0.0,1.0
1665481255105647110,,3458,,1665481255,104691982,'',,,7.0,29.91,1.68,,0.0,0.0,0.0,1.0
1665481255204332168,,3459,,1665481255,203990936,'',,,6.96,30.11,1.72,,0.0,0.0,0.0,1.0
1665481255304465980,,3460,,1665481255,304131031,'',,,6.86,30.35,1.6,,0.0,0.0,0.0,1.0
1665481255404313810,,3461,,1665481255,404015064,'',,,6.82,30.54,1.72,,0.0,0.0,0.0,1.0
1665481255504108840,,3462,,1665481255,503767967,'',,,6.76,30.74,1.84,,0.0,0.0,0.0,1.0
1665481255603797131,,3463,,1665481255,603193998,'',,,6.72,30.94,1.76,,0.0,0.0,0.0,1.0
1665481255704703728,,3464,,1665481255,704366922,'',,,6.63,31.18,1.67,,0.0,0.0,0.0,1.0
1665481255804766521,,3465,,1665481255,804372072,'',,,6.59,31.39,1.56,,0.0,0.0,0.0,1.0
1665481255904252576,,3466,,1665481255,903894901,'',,,6.56,31.6,1.39,,0.0,0.0,0.0,1.0
1665481256005142498,,3467,,1665481256,4754066,'',,,6.53,31.78,1.68,,0.0,0.0,0.0,1.0
1665481256104021760,,3468,,1665481256,103698015,'',,,6.48,31.99,1.7,,0.0,0.0,0.0,1.0
1665481256198066935,,3469,,1665481256,197477102,'',,,6.42,32.23,1.42,,0.0,0.0,0.0,1.0
1665481256303656472,,3470,,1665481256,303386926,'',,,6.33,32.47,1.42,,0.0,0.0,0.0,1.0
1665481256404865867,,3471,,1665481256,404093980,'',,,6.31,32.67,1.67,,0.0,0.0,0.0,1.0
1665481256496747296,,3472,,1665481256,496490955,'',,,6.28,32.9,1.4,,0.0,0.0,0.0,1.0
1665481256604203791,,3473,,1665481256,604017972,'',,,6.27,33.08,1.7,,0.0,0.0,0.0,1.0
1665481256703205570,,3474,,1665481256,702979087,'',,,6.26,33.27,1.81,,0.0,0.0,0.0,1.0
1665481256796632368,,3475,,1665481256,796334028,'',,,6.21,33.52,1.45,,0.0,0.0,0.0,1.0
1665481256906017317,,3476,,1665481256,904683113,'',,,6.21,33.72,1.69,,0.0,0.0,0.0,1.0
1665481257006187123,,3477,,1665481257,4836082,'',,,6.21,33.92,1.72,,0.0,0.0,0.0,1.0
1665481257103895096,,3478,,1665481257,103581905,'',,,6.21,34.12,1.94,,0.0,0.0,0.0,1.0
1665481257205077782,,3479,,1665481257,204758882,'',,,6.22,34.33,1.95,,0.0,0.0,0.0,1.0
1665481257303625120,,3480,,1665481257,303353071,'',,,6.23,34.53,2.07,,0.0,0.0,0.0,1.0
1665481257397125151,,3481,,1665481257,396858930,'',,,6.25,34.76,1.71,,0.0,0.0,0.0,1.0
1665481257504640590,,3482,,1665481257,503815889,'',,,6.29,34.96,1.89,,0.0,0.0,0.0,1.0
1665481257603723282,,3483,,1665481257,602847099,'',,,6.32,35.15,1.95,,0.0,0.0,0.0,1.0
1665481257698126483,,3484,,1665481257,697452068,'',,,6.34,35.41,1.6,,0.0,0.0,0.0,1.0
1665481257804270579,,3485,,1665481257,803210020,'',,,6.38,35.59,1.75,,0.0,0.0,0.0,1.0
1665481257904168012,,3486,,1665481257,903820037,'',,,6.42,35.77,1.96,,0.0,0.0,0.0,1.0
1665481257997550456,,3487,,1665481257,996762990,'',,,6.46,36.0,1.62,,0.0,0.0,0.0,1.0
1665481258103652277,,3488,,1665481258,103020906,'',,,6.51,36.2,1.86,,0.0,0.0,0.0,1.0
1665481258204306369,,3489,,1665481258,203238964,'',,,6.56,36.43,1.56,,0.0,0.0,0.0,1.0
1665481258296905897,,3490,,1665481258,296116113,'',,,6.62,36.65,1.26,,0.0,0.0,0.0,1.0
1665481258403534503,,3491,,1665481258,403188943,'',,,6.7,36.82,1.57,,0.0,0.0,0.0,1.0
1665481258497957803,,3492,,1665481258,497273921,'',,,6.75,37.01,1.4,,0.0,0.0,0.0,1.0
1665481258598559837,,3493,,1665481258,596992969,'',,,6.79,37.23,1.21,,0.0,0.0,0.0,1.0
1665481258696404620,,3494,,1665481258,696218013,'',,,6.84,37.46,1.07,,0.0,0.0,0.0,1.0
1665481258804016287,,3495,,1665481258,803088903,'',,,6.88,37.63,1.08,,0.0,0.0,0.0,1.0
1665481258903125442,,3496,,1665481258,902842044,'',,,6.97,37.83,1.31,,0.0,0.0,0.0,1.0
1665481259003658927,,3497,,1665481259,3142118,'',,,7.04,37.99,1.68,,0.0,0.0,0.0,1.0
1665481259104110190,,3498,,1665481259,103703975,'',,,7.06,38.19,1.7,,0.0,0.0,0.0,1.0
1665481259203263068,,3499,,1665481259,202989101,'',,,7.11,38.37,1.78,,0.0,0.0,0.0,1.0
1665481259302640558,,3500,,1665481259,302407979,'',,,7.16,38.52,1.9,,0.0,0.0,0.0,1.0
1665481259402439741,,3501,,1665481259,402228116,'',,,7.17,38.7,1.94,,0.0,0.0,0.0,1.0
1665481259503643531,,3502,,1665481259,502899885,'',,,7.21,38.89,1.67,,0.0,0.0,0.0,1.0
1665481259603450008,,3503,,1665481259,603014945,'',,,7.24,39.09,1.48,,0.0,0.0,0.0,1.0
1665481259702967764,,3504,,1665481259,702028036,'',,,7.27,39.3,1.33,,0.0,0.0,0.0,1.0
1665481259802763898,,3505,,1665481259,802186012,'',,,7.31,39.46,1.68,,0.0,0.0,0.0,1.0
1665481259903986781,,3506,,1665481259,903192996,'',,,7.31,39.66,1.51,,0.0,0.0,0.0,1.0
1665481260004124510,,3507,,1665481260,3487110,'',,,7.33,39.85,1.41,,0.0,0.0,0.0,1.0
1665481260102438135,,3508,,1665481260,102209091,'',,,7.34,40.02,1.33,,0.0,0.0,0.0,1.0
1665481260202740410,,3509,,1665481260,202389955,'',,,7.37,40.2,1.66,,0.0,0.0,0.0,1.0
1665481260302607076,,3510,,1665481260,302098035,'',,,7.37,40.38,1.53,,0.0,0.0,0.0,1.0
1665481260405497492,,3511,,1665481260,404968023,'',,,7.37,40.59,1.41,,0.0,0.0,0.0,1.0
1665481260502945243,,3512,,1665481260,502638101,'',,,7.35,40.79,1.49,,0.0,0.0,0.0,1.0
1665481260603012145,,3513,,1665481260,602865934,'',,,7.35,40.94,1.53,,0.0,0.0,0.0,1.0
1665481260703388668,,3514,,1665481260,702775955,'',,,7.33,41.13,1.56,,0.0,0.0,0.0,1.0
1665481260803232384,,3515,,1665481260,803031921,'',,,7.35,41.27,1.82,,0.0,0.0,0.0,1.0
1665481260901743865,,3516,,1665481260,901492118,'',,,7.34,41.37,1.59,,0.0,0.0,0.0,1.0
1665481261002199449,,3517,,1665481261,2012968,'',,,7.34,41.49,1.61,,0.0,0.0,0.0,1.0
1665481261102892933,,3518,,1665481261,102299928,'',,,7.32,41.65,1.62,,0.0,0.0,0.0,1.0
1665481261202857949,,3519,,1665481261,202553987,'',,,7.32,41.74,1.56,,0.0,0.0,0.0,1.0
1665481261296092637,,3520,,1665481261,295677900,'',,,7.33,41.83,1.52,,0.0,0.0,0.0,1.0
1665481261402575881,,3521,,1665481261,402096033,'',,,7.3,41.93,1.57,,0.0,0.0,0.0,1.0
1665481261503661703,,3522,,1665481261,502518892,'',,,7.27,42.06,1.57,,0.0,0.0,0.0,1.0
1665481261603684551,,3523,,1665481261,603413105,'',,,7.29,42.05,1.52,,0.0,0.0,0.0,1.0
1665481261703241335,,3524,,1665481261,702490091,'',,,7.31,42.07,1.8,,0.0,0.0,0.0,1.0
1665481261802027435,,3525,,1665481261,801661968,'',,,7.32,42.07,2.05,,0.0,0.0,0.0,1.0
1665481261903795417,,3526,,1665481261,903398990,'',,,7.28,42.18,1.96,,0.0,0.0,0.0,1.0
1665481262002558505,,3527,,1665481262,2211093,'',,,7.29,42.14,1.78,,0.0,0.0,0.0,1.0
1665481262102918085,,3528,,1665481262,102498054,'',,,7.3,42.14,1.62,,0.0,0.0,0.0,1.0
1665481262202065666,,3529,,1665481262,201545953,'',,,7.29,42.15,1.57,,0.0,0.0,0.0,1.0
1665481262302536739,,3530,,1665481262,302220106,'',,,7.3,42.15,1.49,,0.0,0.0,0.0,1.0
1665481262402378833,,3531,,1665481262,402074098,'',,,7.3,42.14,1.39,,0.0,0.0,0.0,1.0
1665481262502083077,,3532,,1665481262,501868009,'',,,7.27,42.21,1.44,,0.0,0.0,0.0,1.0
1665481262604062982,,3533,,1665481262,603117942,'',,,7.24,42.28,1.5,,0.0,0.0,0.0,1.0
1665481262703175496,,3534,,1665481262,702919006,'',,,7.27,42.26,1.47,,0.0,0.0,0.0,1.0
1665481262802494846,,3535,,1665481262,802124023,'',,,7.28,42.2,1.5,,0.0,0.0,0.0,1.0
1665481262904073618,,3536,,1665481262,903532981,'',,,7.25,42.27,1.5,,0.0,0.0,0.0,1.0
1665481263002504342,,3537,,1665481263,2150058,'',,,7.22,42.3,1.49,,0.0,0.0,0.0,1.0
1665481263105427957,,3538,,1665481263,104346036,'',,,7.25,42.22,1.55,,0.0,0.0,0.0,1.0
1665481263203698571,,3539,,1665481263,202770948,'',,,7.25,42.23,1.54,,0.0,0.0,0.0,1.0
1665481263303129130,,3540,,1665481263,302854061,'',,,7.22,42.34,1.57,,0.0,0.0,0.0,1.0
1665481263403481924,,3541,,1665481263,402456045,'',,,7.21,42.38,1.59,,0.0,0.0,0.0,1.0
1665481263504143361,,3542,,1665481263,503683090,'',,,7.23,42.32,1.49,,0.0,0.0,0.0,1.0
1665481263601850858,,3543,,1665481263,601612091,'',,,7.25,42.27,1.41,,0.0,0.0,0.0,1.0
1665481263702183205,,3544,,1665481263,701857089,'',,,7.22,42.33,1.45,,0.0,0.0,0.0,1.0
1665481263802858489,,3545,,1665481263,802576065,'',,,7.23,42.33,1.48,,0.0,0.0,0.0,1.0
1665481263904992226,,3546,,1665481263,903558015,'',,,7.25,42.27,1.4,,0.0,0.0,0.0,1.0
1665481264004210423,,3547,,1665481264,3222942,'',,,7.27,42.25,1.33,,0.0,0.0,0.0,1.0
1665481264103323395,,3548,,1665481264,103024005,'',,,7.29,42.18,1.44,,0.0,0.0,0.0,1.0
1665481264204035607,,3549,,1665481264,202830076,'',,,7.3,42.13,1.43,,0.0,0.0,0.0,1.0
1665481264303621765,,3550,,1665481264,303108930,'',,,7.27,42.2,1.5,,0.0,0.0,0.0,1.0
1665481264403691226,,3551,,1665481264,402901887,'',,,7.22,42.31,1.54,,0.0,0.0,0.0,1.0
