rosbagTimestamp,header,seq,stamp,secs,nsecs,frame_id,pose,position,x,y,z,orientation,x,y,z,w
1665761019198565477,,1544,,1665761019,197868108,'',,,-1.43,12.05,1.02,,0.0,0.0,0.0,1.0
1665761019298382854,,1545,,1665761019,298074960,'',,,-1.41,12.0,1.08,,0.0,0.0,0.0,1.0
1665761019397875748,,1546,,1665761019,397661924,'',,,-1.44,11.92,1.07,,0.0,0.0,0.0,1.0
1665761019497910609,,1547,,1665761019,497708082,'',,,-1.4,11.88,0.92,,0.0,0.0,0.0,1.0
1665761019598973151,,1548,,1665761019,598422050,'',,,-1.47,11.8,0.84,,0.0,0.0,0.0,1.0
1665761019698164377,,1549,,1665761019,697926998,'',,,-1.41,11.76,0.81,,0.0,0.0,0.0,1.0
1665761019798500011,,1550,,1665761019,798156976,'',,,-1.34,11.74,0.88,,0.0,0.0,0.0,1.0
1665761019898707613,,1551,,1665761019,898231029,'',,,-1.43,11.62,0.81,,0.0,0.0,0.0,1.0
1665761019998853668,,1552,,1665761019,998245954,'',,,-1.38,11.55,0.74,,0.0,0.0,0.0,1.0
1665761020098982698,,1553,,1665761020,98412036,'',,,-1.33,11.51,0.68,,0.0,0.0,0.0,1.0
1665761020198308277,,1554,,1665761020,198000907,'',,,-1.41,11.38,0.66,,0.0,0.0,0.0,1.0
1665761020298898291,,1555,,1665761020,298554897,'',,,-1.34,11.34,0.73,,0.0,0.0,0.0,1.0
1665761020398929286,,1556,,1665761020,398591041,'',,,-1.29,11.27,0.66,,0.0,0.0,0.0,1.0
1665761020498048711,,1557,,1665761020,497766971,'',,,-1.29,11.14,0.64,,0.0,0.0,0.0,1.0
1665761020597817356,,1558,,1665761020,597520112,'',,,-1.31,10.98,0.69,,0.0,0.0,0.0,1.0
1665761020697795627,,1559,,1665761020,697470903,'',,,-1.28,10.91,0.7,,0.0,0.0,0.0,1.0
1665761020798052169,,1560,,1665761020,797784090,'',,,-1.27,10.8,0.8,,0.0,0.0,0.0,1.0
1665761020897744626,,1561,,1665761020,897430896,'',,,-1.27,10.65,0.85,,0.0,0.0,0.0,1.0
1665761020998220853,,1562,,1665761020,997739076,'',,,-1.27,10.56,1.1,,0.0,0.0,0.0,1.0
1665761021098058166,,1563,,1665761021,97767114,'',,,-1.28,10.42,0.99,,0.0,0.0,0.0,1.0
1665761021198287513,,1564,,1665761021,197844028,'',,,-1.3,10.29,0.97,,0.0,0.0,0.0,1.0
1665761021298510146,,1565,,1665761021,297822952,'',,,-1.32,10.15,0.95,,0.0,0.0,0.0,1.0
1665761021398383390,,1566,,1665761021,398000955,'',,,-1.31,10.03,1.0,,0.0,0.0,0.0,1.0
1665761021498156157,,1567,,1665761021,497886896,'',,,-1.31,9.91,1.1,,0.0,0.0,0.0,1.0
1665761021598006346,,1568,,1665761021,597448110,'',,,-1.31,9.79,1.21,,0.0,0.0,0.0,1.0
1665761021698617816,,1569,,1665761021,697879076,'',,,-1.31,9.68,1.11,,0.0,0.0,0.0,1.0
1665761021798654145,,1570,,1665761021,797888040,'',,,-1.32,9.53,1.09,,0.0,0.0,0.0,1.0
1665761021898114790,,1571,,1665761021,897804021,'',,,-1.37,9.39,1.08,,0.0,0.0,0.0,1.0
1665761021998001019,,1572,,1665761021,997637033,'',,,-1.4,9.24,1.09,,0.0,0.0,0.0,1.0
1665761022099225054,,1573,,1665761022,98750114,'',,,-1.38,9.13,1.05,,0.0,0.0,0.0,1.0
1665761022198415635,,1574,,1665761022,198049068,'',,,-1.37,9.01,1.1,,0.0,0.0,0.0,1.0
1665761022298914760,,1575,,1665761022,298501014,'',,,-1.34,8.9,0.96,,0.0,0.0,0.0,1.0
1665761022391714816,,1576,,1665761022,391407966,'',,,-1.46,8.74,1.13,,0.0,0.0,0.0,1.0
1665761022498344267,,1577,,1665761022,497875928,'',,,-1.39,8.63,1.03,,0.0,0.0,0.0,1.0
1665761022598677741,,1578,,1665761022,597801923,'',,,-1.38,8.49,1.04,,0.0,0.0,0.0,1.0
1665761022699130410,,1579,,1665761022,698267936,'',,,-1.44,8.32,0.94,,0.0,0.0,0.0,1.0
1665761022798673484,,1580,,1665761022,797650098,'',,,-1.42,8.2,1.07,,0.0,0.0,0.0,1.0
1665761022898021058,,1581,,1665761022,897650957,'',,,-1.49,8.02,1.05,,0.0,0.0,0.0,1.0
1665761022999123605,,1582,,1665761022,997981071,'',,,-1.45,7.91,0.99,,0.0,0.0,0.0,1.0
1665761023098271274,,1583,,1665761023,97906112,'',,,-1.47,7.77,0.88,,0.0,0.0,0.0,1.0
1665761023198417041,,1584,,1665761023,197863101,'',,,-1.52,7.62,0.98,,0.0,0.0,0.0,1.0
1665761023297964721,,1585,,1665761023,297683954,'',,,-1.58,7.46,0.87,,0.0,0.0,0.0,1.0
1665761023397910142,,1586,,1665761023,397582054,'',,,-1.63,7.32,0.83,,0.0,0.0,0.0,1.0
1665761023497998217,,1587,,1665761023,497689962,'',,,-1.7,7.19,0.83,,0.0,0.0,0.0,1.0
1665761023597890860,,1588,,1665761023,597563028,'',,,-1.76,7.05,0.77,,0.0,0.0,0.0,1.0
1665761023697691241,,1589,,1665761023,697376012,'',,,-1.88,6.89,0.81,,0.0,0.0,0.0,1.0
1665761023797774684,,1590,,1665761023,797363042,'',,,-1.99,6.78,0.87,,0.0,0.0,0.0,1.0
1665761023898615509,,1591,,1665761023,897699117,'',,,-2.08,6.65,0.89,,0.0,0.0,0.0,1.0
1665761023998160752,,1592,,1665761023,997823953,'',,,-2.2,6.49,0.82,,0.0,0.0,0.0,1.0
1665761024098170146,,1593,,1665761024,97795009,'',,,-2.24,6.38,0.79,,0.0,0.0,0.0,1.0
1665761024198900097,,1594,,1665761024,198359966,'',,,-2.3,6.27,0.81,,0.0,0.0,0.0,1.0
1665761024298850513,,1595,,1665761024,298491954,'',,,-2.4,6.15,0.82,,0.0,0.0,0.0,1.0
1665761024398681443,,1596,,1665761024,398322105,'',,,-2.53,6.03,0.79,,0.0,0.0,0.0,1.0
1665761024497928901,,1597,,1665761024,497673034,'',,,-2.66,5.92,1.07,,0.0,0.0,0.0,1.0
1665761024599073617,,1598,,1665761024,597810983,'',,,-2.72,5.87,1.16,,0.0,0.0,0.0,1.0
1665761024698136733,,1599,,1665761024,697814941,'',,,-2.82,5.79,1.11,,0.0,0.0,0.0,1.0
1665761024798270179,,1600,,1665761024,797832965,'',,,-2.91,5.71,1.04,,0.0,0.0,0.0,1.0
1665761024897965582,,1601,,1665761024,897682905,'',,,-3.01,5.63,0.95,,0.0,0.0,0.0,1.0
1665761024998563914,,1602,,1665761024,998251914,'',,,-3.12,5.54,0.9,,0.0,0.0,0.0,1.0
1665761025098495904,,1603,,1665761025,98110914,'',,,-3.23,5.5,0.98,,0.0,0.0,0.0,1.0
1665761025198260592,,1604,,1665761025,197849988,'',,,-3.34,5.45,0.98,,0.0,0.0,0.0,1.0
1665761025299317163,,1605,,1665761025,297775030,'',,,-3.46,5.39,1.07,,0.0,0.0,0.0,1.0
1665761025397940154,,1606,,1665761025,397710084,'',,,-3.58,5.34,1.17,,0.0,0.0,0.0,1.0
1665761025497780174,,1607,,1665761025,497551918,'',,,-3.71,5.27,1.18,,0.0,0.0,0.0,1.0
1665761025597941209,,1608,,1665761025,597698926,'',,,-3.85,5.22,1.23,,0.0,0.0,0.0,1.0
1665761025698157050,,1609,,1665761025,697801113,'',,,-3.99,5.2,1.33,,0.0,0.0,0.0,1.0
1665761025798561666,,1610,,1665761025,797920942,'',,,-4.13,5.16,1.3,,0.0,0.0,0.0,1.0
1665761025898523458,,1611,,1665761025,898196935,'',,,-4.27,5.1,1.24,,0.0,0.0,0.0,1.0
1665761025998070805,,1612,,1665761025,997723102,'',,,-4.42,5.09,1.35,,0.0,0.0,0.0,1.0
1665761026098170649,,1613,,1665761026,97718954,'',,,-4.55,5.08,1.26,,0.0,0.0,0.0,1.0
1665761026198536650,,1614,,1665761026,198254108,'',,,-4.66,5.05,1.32,,0.0,0.0,0.0,1.0
1665761026298003686,,1615,,1665761026,297717094,'',,,-4.82,5.06,1.27,,0.0,0.0,0.0,1.0
1665761026398982349,,1616,,1665761026,398578882,'',,,-4.96,5.09,1.32,,0.0,0.0,0.0,1.0
1665761026498696550,,1617,,1665761026,498330116,'',,,-5.1,5.13,1.31,,0.0,0.0,0.0,1.0
1665761026598582442,,1618,,1665761026,598263978,'',,,-5.23,5.17,1.15,,0.0,0.0,0.0,1.0
1665761026699055280,,1619,,1665761026,698659896,'',,,-5.38,5.23,1.06,,0.0,0.0,0.0,1.0
1665761026798638738,,1620,,1665761026,798136949,'',,,-5.52,5.27,1.15,,0.0,0.0,0.0,1.0
1665761026898657933,,1621,,1665761026,898219108,'',,,-5.66,5.29,1.21,,0.0,0.0,0.0,1.0
1665761026998610667,,1622,,1665761026,998076915,'',,,-5.8,5.35,1.3,,0.0,0.0,0.0,1.0
1665761027098543733,,1623,,1665761027,98198890,'',,,-5.93,5.35,1.18,,0.0,0.0,0.0,1.0
1665761027197846930,,1624,,1665761027,197587966,'',,,-6.09,5.38,1.08,,0.0,0.0,0.0,1.0
1665761027297366182,,1625,,1665761027,297051906,'',,,-6.24,5.43,1.0,,0.0,0.0,0.0,1.0
1665761027398003286,,1626,,1665761027,397525072,'',,,-6.38,5.51,0.95,,0.0,0.0,0.0,1.0
1665761027497992123,,1627,,1665761027,497699022,'',,,-6.51,5.6,0.96,,0.0,0.0,0.0,1.0
1665761027598076911,,1628,,1665761027,597701072,'',,,-6.63,5.69,0.93,,0.0,0.0,0.0,1.0
1665761027697789286,,1629,,1665761027,697499036,'',,,-6.76,5.77,0.92,,0.0,0.0,0.0,1.0
1665761027798126593,,1630,,1665761027,797796964,'',,,-6.91,5.85,0.82,,0.0,0.0,0.0,1.0
1665761027898236231,,1631,,1665761027,897768974,'',,,-7.04,5.93,0.79,,0.0,0.0,0.0,1.0
1665761027997981943,,1632,,1665761027,997781038,'',,,-7.13,6.06,0.72,,0.0,0.0,0.0,1.0
1665761028097868649,,1633,,1665761028,97527980,'',,,-7.22,6.19,0.83,,0.0,0.0,0.0,1.0
1665761028198151169,,1634,,1665761028,197829008,'',,,-7.36,6.29,0.79,,0.0,0.0,0.0,1.0
1665761028298360036,,1635,,1665761028,297961950,'',,,-7.44,6.43,1.0,,0.0,0.0,0.0,1.0
1665761028398176528,,1636,,1665761028,397773981,'',,,-7.53,6.56,1.03,,0.0,0.0,0.0,1.0
1665761028498690364,,1637,,1665761028,498188018,'',,,-7.62,6.7,1.11,,0.0,0.0,0.0,1.0
1665761028598304531,,1638,,1665761028,597945928,'',,,-7.7,6.85,1.14,,0.0,0.0,0.0,1.0
1665761028698261023,,1639,,1665761028,697928905,'',,,-7.8,6.98,1.11,,0.0,0.0,0.0,1.0
1665761028798819216,,1640,,1665761028,798063039,'',,,-7.89,7.14,1.08,,0.0,0.0,0.0,1.0
1665761028898581767,,1641,,1665761028,898212909,'',,,-7.96,7.28,1.18,,0.0,0.0,0.0,1.0
1665761028998929136,,1642,,1665761028,998333930,'',,,-8.01,7.42,1.08,,0.0,0.0,0.0,1.0
1665761029098621732,,1643,,1665761029,98229885,'',,,-8.08,7.58,0.99,,0.0,0.0,0.0,1.0
1665761029198300297,,1644,,1665761029,197897911,'',,,-8.16,7.78,1.15,,0.0,0.0,0.0,1.0
1665761029299106431,,1645,,1665761029,298746109,'',,,-8.22,7.95,1.06,,0.0,0.0,0.0,1.0
1665761029398625043,,1646,,1665761029,398158073,'',,,-8.31,8.16,1.19,,0.0,0.0,0.0,1.0
1665761029499176984,,1647,,1665761029,498599052,'',,,-8.38,8.34,1.1,,0.0,0.0,0.0,1.0
1665761029598802966,,1648,,1665761029,598422050,'',,,-8.45,8.57,1.0,,0.0,0.0,0.0,1.0
1665761029698218724,,1649,,1665761029,697932958,'',,,-8.54,8.82,0.95,,0.0,0.0,0.0,1.0
1665761029797951243,,1650,,1665761029,797648906,'',,,-8.61,9.09,1.01,,0.0,0.0,0.0,1.0
1665761029898909625,,1651,,1665761029,898439884,'',,,-8.66,9.32,1.0,,0.0,0.0,0.0,1.0
1665761029998002143,,1652,,1665761029,997631072,'',,,-8.76,9.62,0.91,,0.0,0.0,0.0,1.0
1665761030097953174,,1653,,1665761030,97662925,'',,,-8.81,9.87,0.98,,0.0,0.0,0.0,1.0
1665761030198071618,,1654,,1665761030,197788000,'',,,-8.77,10.03,1.0,,0.0,0.0,0.0,1.0
1665761030299048556,,1655,,1665761030,298569917,'',,,-8.83,10.29,0.91,,0.0,0.0,0.0,1.0
1665761030399373534,,1656,,1665761030,398964881,'',,,-8.84,10.52,1.08,,0.0,0.0,0.0,1.0
1665761030499447644,,1657,,1665761030,498936891,'',,,-8.82,10.72,1.04,,0.0,0.0,0.0,1.0
1665761030598621142,,1658,,1665761030,598244905,'',,,-8.8,10.93,1.01,,0.0,0.0,0.0,1.0
1665761030698200246,,1659,,1665761030,697865009,'',,,-8.79,11.15,1.09,,0.0,0.0,0.0,1.0
1665761030798793968,,1660,,1665761030,798264026,'',,,-8.79,11.39,1.0,,0.0,0.0,0.0,1.0
1665761030899005221,,1661,,1665761030,898694992,'',,,-8.81,11.67,0.97,,0.0,0.0,0.0,1.0
1665761030999251440,,1662,,1665761030,998922109,'',,,-8.82,11.93,0.97,,0.0,0.0,0.0,1.0
1665761031099037046,,1663,,1665761031,98717927,'',,,-8.83,12.21,0.9,,0.0,0.0,0.0,1.0
1665761031199001975,,1664,,1665761031,198713064,'',,,-8.88,12.54,0.85,,0.0,0.0,0.0,1.0
1665761031299648684,,1665,,1665761031,299041986,'',,,-8.87,12.82,0.87,,0.0,0.0,0.0,1.0
1665761031399964354,,1666,,1665761031,399436950,'',,,-8.87,13.12,0.83,,0.0,0.0,0.0,1.0
1665761031498976359,,1667,,1665761031,498436927,'',,,-8.88,13.41,0.77,,0.0,0.0,0.0,1.0
1665761031598858801,,1668,,1665761031,598582029,'',,,-8.87,13.71,0.71,,0.0,0.0,0.0,1.0
1665761031699013875,,1669,,1665761031,698556900,'',,,-8.87,14.03,0.69,,0.0,0.0,0.0,1.0
1665761031798858170,,1670,,1665761031,798563003,'',,,-8.88,14.35,0.83,,0.0,0.0,0.0,1.0
1665761031899522400,,1671,,1665761031,899142980,'',,,-8.89,14.67,0.9,,0.0,0.0,0.0,1.0
1665761032000016707,,1672,,1665761031,999118089,'',,,-8.87,15.01,0.97,,0.0,0.0,0.0,1.0
1665761032100619242,,1673,,1665761032,99927902,'',,,-8.89,15.39,1.11,,0.0,0.0,0.0,1.0
1665761032199473151,,1674,,1665761032,199120998,'',,,-8.88,15.72,1.21,,0.0,0.0,0.0,1.0
1665761032298998759,,1675,,1665761032,297893047,'',,,-8.96,16.05,1.05,,0.0,0.0,0.0,1.0
1665761032400136877,,1676,,1665761032,399697065,'',,,-8.91,16.41,0.98,,0.0,0.0,0.0,1.0
1665761032498958201,,1677,,1665761032,498593091,'',,,-8.92,16.77,1.08,,0.0,0.0,0.0,1.0
1665761032600719759,,1678,,1665761032,600328922,'',,,-8.87,17.12,1.01,,0.0,0.0,0.0,1.0
1665761032699750396,,1679,,1665761032,699479103,'',,,-8.85,17.5,0.98,,0.0,0.0,0.0,1.0
1665761032799745124,,1680,,1665761032,799416065,'',,,-8.86,17.85,1.05,,0.0,0.0,0.0,1.0
1665761032899910838,,1681,,1665761032,899425983,'',,,-8.84,18.22,1.07,,0.0,0.0,0.0,1.0
1665761032999840632,,1682,,1665761032,999388933,'',,,-8.87,18.55,1.01,,0.0,0.0,0.0,1.0
1665761033099584566,,1683,,1665761033,99293947,'',,,-8.88,18.87,1.05,,0.0,0.0,0.0,1.0
1665761033200016957,,1684,,1665761033,199580907,'',,,-8.88,19.22,1.0,,0.0,0.0,0.0,1.0
1665761033299294937,,1685,,1665761033,299012899,'',,,-8.88,19.57,0.99,,0.0,0.0,0.0,1.0
1665761033399998676,,1686,,1665761033,399606943,'',,,-8.84,20.0,0.92,,0.0,0.0,0.0,1.0
1665761033499725796,,1687,,1665761033,499444007,'',,,-8.81,20.41,1.0,,0.0,0.0,0.0,1.0
1665761033599614868,,1688,,1665761033,599257946,'',,,-8.81,20.78,1.12,,0.0,0.0,0.0,1.0
1665761033700432485,,1689,,1665761033,699521064,'',,,-8.81,21.17,1.13,,0.0,0.0,0.0,1.0
1665761033800660457,,1690,,1665761033,799727916,'',,,-8.8,21.56,1.27,,0.0,0.0,0.0,1.0
1665761033899887526,,1691,,1665761033,899307012,'',,,-8.81,21.91,1.12,,0.0,0.0,0.0,1.0
1665761034000047133,,1692,,1665761033,999648094,'',,,-8.78,22.34,1.01,,0.0,0.0,0.0,1.0
1665761034099335642,,1693,,1665761034,98994016,'',,,-8.76,22.74,1.22,,0.0,0.0,0.0,1.0
1665761034199585554,,1694,,1665761034,199305057,'',,,-8.74,23.15,1.1,,0.0,0.0,0.0,1.0
1665761034300175192,,1695,,1665761034,299715995,'',,,-8.76,23.51,0.99,,0.0,0.0,0.0,1.0
1665761034400132638,,1696,,1665761034,399765014,'',,,-8.77,23.89,0.94,,0.0,0.0,0.0,1.0
1665761034500540190,,1697,,1665761034,499952077,'',,,-8.76,24.32,0.91,,0.0,0.0,0.0,1.0
1665761034599954304,,1698,,1665761034,599698066,'',,,-8.75,24.74,0.92,,0.0,0.0,0.0,1.0
1665761034692734832,,1699,,1665761034,692245960,'',,,-8.74,25.11,1.07,,0.0,0.0,0.0,1.0
1665761034799610344,,1700,,1665761034,799220085,'',,,-8.74,25.48,1.17,,0.0,0.0,0.0,1.0
1665761034899773129,,1701,,1665761034,899478912,'',,,-8.7,25.94,1.17,,0.0,0.0,0.0,1.0
1665761034992954958,,1702,,1665761034,992047071,'',,,-8.64,26.33,1.2,,0.0,0.0,0.0,1.0
1665761035099562849,,1703,,1665761035,99255084,'',,,-8.61,26.76,1.15,,0.0,0.0,0.0,1.0
1665761035200411848,,1704,,1665761035,200000047,'',,,-8.59,27.19,1.24,,0.0,0.0,0.0,1.0
1665761035300178204,,1705,,1665761035,299820899,'',,,-8.57,27.61,1.18,,0.0,0.0,0.0,1.0
1665761035399795003,,1706,,1665761035,399311065,'',,,-8.59,27.96,1.16,,0.0,0.0,0.0,1.0
1665761035500120235,,1707,,1665761035,499792098,'',,,-8.56,28.29,1.06,,0.0,0.0,0.0,1.0
1665761035600322391,,1708,,1665761035,599881887,'',,,-8.53,28.66,1.07,,0.0,0.0,0.0,1.0
1665761035699895022,,1709,,1665761035,699565887,'',,,-8.52,29.04,1.03,,0.0,0.0,0.0,1.0
1665761035799110177,,1710,,1665761035,798780918,'',,,-8.57,29.5,0.94,,0.0,0.0,0.0,1.0
1665761035900045842,,1711,,1665761035,899573087,'',,,-8.58,29.92,0.96,,0.0,0.0,0.0,1.0
1665761035999572383,,1712,,1665761035,999185085,'',,,-8.54,30.3,1.07,,0.0,0.0,0.0,1.0
1665761036098726543,,1713,,1665761036,98448991,'',,,-8.56,30.75,1.0,,0.0,0.0,0.0,1.0
1665761036199195868,,1714,,1665761036,198662996,'',,,-8.59,31.21,0.9,,0.0,0.0,0.0,1.0
1665761036298567372,,1715,,1665761036,298325061,'',,,-8.61,31.66,0.84,,0.0,0.0,0.0,1.0
1665761036399198518,,1716,,1665761036,398969888,'',,,-8.57,32.04,0.86,,0.0,0.0,0.0,1.0
1665761036500210367,,1717,,1665761036,499886035,'',,,-8.53,32.43,0.85,,0.0,0.0,0.0,1.0
1665761036600575726,,1718,,1665761036,599873065,'',,,-8.49,32.83,0.85,,0.0,0.0,0.0,1.0
1665761036698523882,,1719,,1665761036,698221921,'',,,-8.45,33.22,0.92,,0.0,0.0,0.0,1.0
1665761036799180851,,1720,,1665761036,798758029,'',,,-8.42,33.62,0.91,,0.0,0.0,0.0,1.0
1665761036899570833,,1721,,1665761036,899173021,'',,,-8.39,34.03,0.84,,0.0,0.0,0.0,1.0
1665761036999230481,,1722,,1665761036,998722076,'',,,-8.38,34.44,0.8,,0.0,0.0,0.0,1.0
1665761037099110541,,1723,,1665761037,98717927,'',,,-8.37,34.86,0.74,,0.0,0.0,0.0,1.0
1665761037198683640,,1724,,1665761037,198487997,'',,,-8.37,35.28,0.71,,0.0,0.0,0.0,1.0
1665761037300396565,,1725,,1665761037,299891948,'',,,-8.34,35.7,0.74,,0.0,0.0,0.0,1.0
1665761037399900029,,1726,,1665761037,399652004,'',,,-8.31,36.13,0.8,,0.0,0.0,0.0,1.0
1665761037499803829,,1727,,1665761037,499133110,'',,,-8.32,36.56,0.73,,0.0,0.0,0.0,1.0
1665761037598660612,,1728,,1665761037,598300933,'',,,-8.31,36.99,0.89,,0.0,0.0,0.0,1.0
1665761037699199629,,1729,,1665761037,698712110,'',,,-8.31,37.41,0.8,,0.0,0.0,0.0,1.0
1665761037798926368,,1730,,1665761037,798476934,'',,,-8.31,37.83,0.97,,0.0,0.0,0.0,1.0
1665761037898825301,,1731,,1665761037,898550033,'',,,-8.32,38.26,1.08,,0.0,0.0,0.0,1.0
1665761037999242961,,1732,,1665761037,998667001,'',,,-8.32,38.68,1.05,,0.0,0.0,0.0,1.0
1665761038099284498,,1733,,1665761038,98602056,'',,,-8.33,39.1,1.05,,0.0,0.0,0.0,1.0
1665761038199579424,,1734,,1665761038,199034929,'',,,-8.36,39.49,0.96,,0.0,0.0,0.0,1.0
1665761038299048380,,1735,,1665761038,298616886,'',,,-8.37,39.87,1.13,,0.0,0.0,0.0,1.0
1665761038398599033,,1736,,1665761038,398367881,'',,,-8.39,40.24,1.27,,0.0,0.0,0.0,1.0
1665761038499118532,,1737,,1665761038,498747110,'',,,-8.41,40.65,1.27,,0.0,0.0,0.0,1.0
1665761038598689156,,1738,,1665761038,598397970,'',,,-8.44,41.08,1.29,,0.0,0.0,0.0,1.0
1665761038699338472,,1739,,1665761038,698883056,'',,,-8.47,41.51,1.27,,0.0,0.0,0.0,1.0
1665761038798758406,,1740,,1665761038,798408985,'',,,-8.53,41.95,1.29,,0.0,0.0,0.0,1.0
1665761038898691840,,1741,,1665761038,898403882,'',,,-8.58,42.36,1.17,,0.0,0.0,0.0,1.0
1665761038999328479,,1742,,1665761038,998985052,'',,,-8.61,42.78,1.23,,0.0,0.0,0.0,1.0
1665761039099647597,,1743,,1665761039,99051952,'',,,-8.68,43.2,1.21,,0.0,0.0,0.0,1.0
1665761039199917411,,1744,,1665761039,199311017,'',,,-8.76,43.58,1.17,,0.0,0.0,0.0,1.0
1665761039299054822,,1745,,1665761039,298564910,'',,,-8.85,43.99,1.16,,0.0,0.0,0.0,1.0
1665761039398796911,,1746,,1665761039,398456096,'',,,-8.94,44.42,1.19,,0.0,0.0,0.0,1.0
1665761039499310276,,1747,,1665761039,498825073,'',,,-9.05,44.83,1.21,,0.0,0.0,0.0,1.0
1665761039599039187,,1748,,1665761039,598743915,'',,,-9.15,45.23,1.13,,0.0,0.0,0.0,1.0
1665761039699186327,,1749,,1665761039,698760986,'',,,-9.27,45.61,1.17,,0.0,0.0,0.0,1.0
1665761039799637639,,1750,,1665761039,799211025,'',,,-9.41,45.98,1.06,,0.0,0.0,0.0,1.0
1665761039898789446,,1751,,1665761039,898473024,'',,,-9.51,46.32,1.06,,0.0,0.0,0.0,1.0
1665761039999122328,,1752,,1665761039,998702049,'',,,-9.65,46.71,1.2,,0.0,0.0,0.0,1.0
1665761040099597209,,1753,,1665761040,99067926,'',,,-9.79,47.08,1.19,,0.0,0.0,0.0,1.0
1665761040199514969,,1754,,1665761040,199136972,'',,,-9.93,47.45,1.34,,0.0,0.0,0.0,1.0
1665761040298885282,,1755,,1665761040,298666954,'',,,-10.08,47.82,1.33,,0.0,0.0,0.0,1.0
1665761040399310258,,1756,,1665761040,398775100,'',,,-10.24,48.2,1.38,,0.0,0.0,0.0,1.0
1665761040499166701,,1757,,1665761040,498833894,'',,,-10.39,48.56,1.48,,0.0,0.0,0.0,1.0
1665761040599890351,,1758,,1665761040,599302053,'',,,-10.53,48.94,1.56,,0.0,0.0,0.0,1.0
1665761040699780775,,1759,,1665761040,699317932,'',,,-10.67,49.29,1.63,,0.0,0.0,0.0,1.0
1665761040799778748,,1760,,1665761040,799335002,'',,,-10.85,49.7,1.5,,0.0,0.0,0.0,1.0
1665761040899519362,,1761,,1665761040,899139881,'',,,-10.97,50.04,1.35,,0.0,0.0,0.0,1.0
1665761041000111855,,1762,,1665761040,999792098,'',,,-11.08,50.39,1.26,,0.0,0.0,0.0,1.0
1665761041100396805,,1763,,1665761041,99993944,'',,,-11.23,50.79,1.14,,0.0,0.0,0.0,1.0
1665761041193576756,,1764,,1665761041,192941904,'',,,-11.37,51.19,1.06,,0.0,0.0,0.0,1.0
1665761041293373698,,1765,,1665761041,292874097,'',,,-11.51,51.6,1.19,,0.0,0.0,0.0,1.0
1665761041403106384,,1766,,1665761041,402811050,'',,,-11.61,51.99,1.16,,0.0,0.0,0.0,1.0
1665761041504371756,,1767,,1665761041,503756046,'',,,-11.72,52.42,1.18,,0.0,0.0,0.0,1.0
1665761041600235915,,1768,,1665761041,599920034,'',,,-11.72,52.76,1.05,,0.0,0.0,0.0,1.0
1665761041700326116,,1769,,1665761041,699680089,'',,,-11.71,53.1,1.13,,0.0,0.0,0.0,1.0
1665761041799606179,,1770,,1665761041,799280881,'',,,-11.7,53.43,1.0,,0.0,0.0,0.0,1.0
1665761041900643005,,1771,,1665761041,900302886,'',,,-11.7,53.79,1.05,,0.0,0.0,0.0,1.0
1665761042000337722,,1772,,1665761041,999809026,'',,,-11.69,54.15,1.0,,0.0,0.0,0.0,1.0
1665761042099976593,,1773,,1665761042,99651098,'',,,-11.65,54.52,0.96,,0.0,0.0,0.0,1.0
1665761042200092290,,1774,,1665761042,199843883,'',,,-11.62,54.88,0.85,,0.0,0.0,0.0,1.0
1665761042299609660,,1775,,1665761042,299382925,'',,,-11.57,55.23,0.82,,0.0,0.0,0.0,1.0
1665761042400510187,,1776,,1665761042,400088071,'',,,-11.5,55.58,0.79,,0.0,0.0,0.0,1.0
1665761042500328269,,1777,,1665761042,499953031,'',,,-11.41,55.94,0.74,,0.0,0.0,0.0,1.0
1665761042599702402,,1778,,1665761042,599421024,'',,,-11.29,56.31,0.84,,0.0,0.0,0.0,1.0
1665761042699600271,,1779,,1665761042,699105978,'',,,-11.16,56.67,0.82,,0.0,0.0,0.0,1.0
1665761042800476141,,1780,,1665761042,800051927,'',,,-11.01,57.0,0.77,,0.0,0.0,0.0,1.0
1665761042899558776,,1781,,1665761042,899275064,'',,,-10.85,57.31,1.02,,0.0,0.0,0.0,1.0
1665761042999475505,,1782,,1665761042,999243021,'',,,-10.66,57.63,1.08,,0.0,0.0,0.0,1.0
1665761043099432893,,1783,,1665761043,99069118,'',,,-10.49,57.95,1.04,,0.0,0.0,0.0,1.0
1665761043200065078,,1784,,1665761043,199738979,'',,,-10.32,58.21,0.93,,0.0,0.0,0.0,1.0
1665761043299030071,,1785,,1665761043,298427104,'',,,-10.16,58.46,0.98,,0.0,0.0,0.0,1.0
1665761043399058370,,1786,,1665761043,398827075,'',,,-9.96,58.71,0.98,,0.0,0.0,0.0,1.0
1665761043499306692,,1787,,1665761043,498914957,'',,,-9.74,58.94,0.99,,0.0,0.0,0.0,1.0
1665761043599754734,,1788,,1665761043,599448919,'',,,-9.5,59.13,1.05,,0.0,0.0,0.0,1.0
1665761043700462597,,1789,,1665761043,700140953,'',,,-9.24,59.32,1.0,,0.0,0.0,0.0,1.0
1665761043800467139,,1790,,1665761043,800067901,'',,,-8.99,59.46,0.95,,0.0,0.0,0.0,1.0
1665761043899750614,,1791,,1665761043,899508953,'',,,-8.74,59.59,0.88,,0.0,0.0,0.0,1.0
1665761044001056802,,1792,,1665761044,653028,'',,,-8.46,59.7,1.1,,0.0,0.0,0.0,1.0
1665761044097796686,,1793,,1665761044,97438097,'',,,-8.28,59.77,0.94,,0.0,0.0,0.0,1.0
1665761044192851364,,1794,,1665761044,192205905,'',,,-7.96,59.91,1.17,,0.0,0.0,0.0,1.0
1665761044299558742,,1795,,1665761044,298526048,'',,,-7.74,59.93,1.06,,0.0,0.0,0.0,1.0
1665761044399219333,,1796,,1665761044,398964881,'',,,-7.49,59.94,1.1,,0.0,0.0,0.0,1.0
1665761044499781983,,1797,,1665761044,498959064,'',,,-7.24,59.95,1.05,,0.0,0.0,0.0,1.0
1665761044598756721,,1798,,1665761044,598400115,'',,,-7.0,59.94,0.96,,0.0,0.0,0.0,1.0
1665761044699486667,,1799,,1665761044,699142932,'',,,-6.73,59.92,0.96,,0.0,0.0,0.0,1.0
1665761044799228301,,1800,,1665761044,799002885,'',,,-6.48,59.9,1.04,,0.0,0.0,0.0,1.0
1665761044899911990,,1801,,1665761044,899243116,'',,,-6.2,59.84,1.05,,0.0,0.0,0.0,1.0
1665761044999399393,,1802,,1665761044,999016046,'',,,-5.95,59.78,1.11,,0.0,0.0,0.0,1.0
1665761045099672835,,1803,,1665761045,99318027,'',,,-5.68,59.7,1.16,,0.0,0.0,0.0,1.0
1665761045199790639,,1804,,1665761045,199156999,'',,,-5.42,59.61,1.21,,0.0,0.0,0.0,1.0
1665761045299566396,,1805,,1665761045,299069881,'',,,-5.19,59.52,1.29,,0.0,0.0,0.0,1.0
1665761045399525262,,1806,,1665761045,399137973,'',,,-4.95,59.4,1.29,,0.0,0.0,0.0,1.0
1665761045499543299,,1807,,1665761045,499135971,'',,,-4.73,59.25,1.37,,0.0,0.0,0.0,1.0
1665761045600324379,,1808,,1665761045,599556922,'',,,-4.51,59.1,1.23,,0.0,0.0,0.0,1.0
1665761045699105101,,1809,,1665761045,698775053,'',,,-4.3,58.96,1.24,,0.0,0.0,0.0,1.0
1665761045799270718,,1810,,1665761045,798976898,'',,,-4.12,58.79,1.4,,0.0,0.0,0.0,1.0
1665761045899614565,,1811,,1665761045,898921966,'',,,-3.95,58.6,1.41,,0.0,0.0,0.0,1.0
1665761045999335553,,1812,,1665761045,998966932,'',,,-3.8,58.44,1.44,,0.0,0.0,0.0,1.0
1665761046099262783,,1813,,1665761046,98797082,'',,,-3.64,58.22,1.39,,0.0,0.0,0.0,1.0
1665761046198688299,,1814,,1665761046,198376893,'',,,-3.53,58.02,1.4,,0.0,0.0,0.0,1.0
1665761046299129256,,1815,,1665761046,298825025,'',,,-3.42,57.79,1.39,,0.0,0.0,0.0,1.0
1665761046399724375,,1816,,1665761046,398988962,'',,,-3.32,57.57,1.36,,0.0,0.0,0.0,1.0
1665761046499172092,,1817,,1665761046,498759984,'',,,-3.23,57.33,1.42,,0.0,0.0,0.0,1.0
1665761046598643639,,1818,,1665761046,598455905,'',,,-3.13,57.05,1.39,,0.0,0.0,0.0,1.0
1665761046698636907,,1819,,1665761046,698400974,'',,,-3.04,56.77,1.4,,0.0,0.0,0.0,1.0
1665761046798347216,,1820,,1665761046,798115968,'',,,-2.96,56.49,1.36,,0.0,0.0,0.0,1.0
1665761046899194242,,1821,,1665761046,898597955,'',,,-2.87,56.18,1.39,,0.0,0.0,0.0,1.0
1665761046999171388,,1822,,1665761046,998796939,'',,,-2.82,55.89,1.45,,0.0,0.0,0.0,1.0
1665761047098881749,,1823,,1665761047,98229885,'',,,-2.78,55.58,1.5,,0.0,0.0,0.0,1.0
1665761047199698904,,1824,,1665761047,199363946,'',,,-2.75,55.3,1.36,,0.0,0.0,0.0,1.0
1665761047299429062,,1825,,1665761047,299129962,'',,,-2.74,55.01,1.23,,0.0,0.0,0.0,1.0
1665761047398998199,,1826,,1665761047,398729085,'',,,-2.74,54.7,1.15,,0.0,0.0,0.0,1.0
1665761047499017031,,1827,,1665761047,498795032,'',,,-2.74,54.39,1.09,,0.0,0.0,0.0,1.0
1665761047598497972,,1828,,1665761047,598218917,'',,,-2.78,54.13,1.08,,0.0,0.0,0.0,1.0
1665761047699180244,,1829,,1665761047,698849916,'',,,-2.85,53.84,1.13,,0.0,0.0,0.0,1.0
1665761047799179368,,1830,,1665761047,798865079,'',,,-2.91,53.55,1.19,,0.0,0.0,0.0,1.0
1665761047899641385,,1831,,1665761047,899010896,'',,,-2.98,53.24,1.23,,0.0,0.0,0.0,1.0
1665761047999130101,,1832,,1665761047,998570919,'',,,-3.06,52.93,1.2,,0.0,0.0,0.0,1.0
1665761048099712788,,1833,,1665761048,99431037,'',,,-3.13,52.6,1.29,,0.0,0.0,0.0,1.0
1665761048198967305,,1834,,1665761048,198694944,'',,,-3.2,52.27,1.18,,0.0,0.0,0.0,1.0
1665761048299260684,,1835,,1665761048,298768043,'',,,-3.28,51.94,1.17,,0.0,0.0,0.0,1.0
1665761048399152088,,1836,,1665761048,398839950,'',,,-3.36,51.6,1.22,,0.0,0.0,0.0,1.0
1665761048498617168,,1837,,1665761048,498336076,'',,,-3.45,51.26,1.18,,0.0,0.0,0.0,1.0
1665761048599559666,,1838,,1665761048,599140882,'',,,-3.56,50.93,1.17,,0.0,0.0,0.0,1.0
1665761048699003678,,1839,,1665761048,698710918,'',,,-3.67,50.58,1.22,,0.0,0.0,0.0,1.0
1665761048799435424,,1840,,1665761048,798991918,'',,,-3.76,50.24,1.22,,0.0,0.0,0.0,1.0
1665761048899355084,,1841,,1665761048,899113893,'',,,-3.86,49.88,1.05,,0.0,0.0,0.0,1.0
1665761048999614850,,1842,,1665761048,999234914,'',,,-3.94,49.54,1.23,,0.0,0.0,0.0,1.0
1665761049099424881,,1843,,1665761049,99075078,'',,,-4.03,49.19,1.34,,0.0,0.0,0.0,1.0
1665761049198995756,,1844,,1665761049,198725938,'',,,-4.1,48.84,1.26,,0.0,0.0,0.0,1.0
1665761049299500649,,1845,,1665761049,298943042,'',,,-4.18,48.49,1.18,,0.0,0.0,0.0,1.0
1665761049399241140,,1846,,1665761049,398901939,'',,,-4.24,48.13,1.14,,0.0,0.0,0.0,1.0
1665761049499498163,,1847,,1665761049,498969078,'',,,-4.32,47.78,1.1,,0.0,0.0,0.0,1.0
1665761049598712397,,1848,,1665761049,598413944,'',,,-4.39,47.43,1.23,,0.0,0.0,0.0,1.0
1665761049699823817,,1849,,1665761049,699275970,'',,,-4.47,47.06,1.18,,0.0,0.0,0.0,1.0
1665761049799586436,,1850,,1665761049,799060106,'',,,-4.55,46.67,1.11,,0.0,0.0,0.0,1.0
1665761049899621212,,1851,,1665761049,899259090,'',,,-4.65,46.25,1.01,,0.0,0.0,0.0,1.0
1665761049999255813,,1852,,1665761049,998891115,'',,,-4.7,45.9,1.02,,0.0,0.0,0.0,1.0
1665761050100318129,,1853,,1665761050,99716901,'',,,-4.76,45.49,1.04,,0.0,0.0,0.0,1.0
1665761050199552654,,1854,,1665761050,199168920,'',,,-4.81,45.11,1.0,,0.0,0.0,0.0,1.0
1665761050299470834,,1855,,1665761050,298995018,'',,,-4.85,44.73,0.99,,0.0,0.0,0.0,1.0
1665761050399029020,,1856,,1665761050,398732900,'',,,-4.89,44.33,1.03,,0.0,0.0,0.0,1.0
1665761050499192545,,1857,,1665761050,498692989,'',,,-4.93,43.94,0.97,,0.0,0.0,0.0,1.0
1665761050599263017,,1858,,1665761050,598927974,'',,,-4.95,43.54,0.94,,0.0,0.0,0.0,1.0
1665761050698816756,,1859,,1665761050,698539972,'',,,-4.98,43.14,0.93,,0.0,0.0,0.0,1.0
1665761050799695826,,1860,,1665761050,799297094,'',,,-5.01,42.7,0.99,,0.0,0.0,0.0,1.0
1665761050899492284,,1861,,1665761050,899207115,'',,,-5.05,42.31,0.99,,0.0,0.0,0.0,1.0
1665761050998938465,,1862,,1665761050,998717069,'',,,-5.08,41.88,1.0,,0.0,0.0,0.0,1.0
1665761051099416483,,1863,,1665761051,98927021,'',,,-5.1,41.44,1.05,,0.0,0.0,0.0,1.0
1665761051193348898,,1864,,1665761051,192754030,'',,,-5.1,41.01,1.18,,0.0,0.0,0.0,1.0
1665761051293022039,,1865,,1665761051,292638063,'',,,-5.12,40.59,1.38,,0.0,0.0,0.0,1.0
1665761051399840866,,1866,,1665761051,399507999,'',,,-5.13,40.16,1.23,,0.0,0.0,0.0,1.0
1665761051501405678,,1867,,1665761051,499814987,'',,,-5.17,39.73,1.21,,0.0,0.0,0.0,1.0
1665761051599914230,,1868,,1665761051,599637031,'',,,-5.19,39.31,1.22,,0.0,0.0,0.0,1.0
1665761051699917427,,1869,,1665761051,699657917,'',,,-5.19,38.88,1.15,,0.0,0.0,0.0,1.0
1665761051799981775,,1870,,1665761051,799679040,'',,,-5.21,38.43,1.06,,0.0,0.0,0.0,1.0
1665761051900485653,,1871,,1665761051,900230884,'',,,-5.21,37.98,1.04,,0.0,0.0,0.0,1.0
1665761052000086507,,1872,,1665761051,999876022,'',,,-5.23,37.53,1.01,,0.0,0.0,0.0,1.0
1665761052101071060,,1873,,1665761052,100507974,'',,,-5.25,37.09,0.99,,0.0,0.0,0.0,1.0
1665761052200030471,,1874,,1665761052,199722051,'',,,-5.27,36.65,0.97,,0.0,0.0,0.0,1.0
1665761052300604417,,1875,,1665761052,300091028,'',,,-5.26,36.21,1.05,,0.0,0.0,0.0,1.0
1665761052400680177,,1876,,1665761052,400368928,'',,,-5.26,35.76,1.11,,0.0,0.0,0.0,1.0
1665761052500434062,,1877,,1665761052,500027894,'',,,-5.24,35.3,1.12,,0.0,0.0,0.0,1.0
1665761052600528919,,1878,,1665761052,600186109,'',,,-5.22,34.84,1.13,,0.0,0.0,0.0,1.0
1665761052700551490,,1879,,1665761052,700190067,'',,,-5.19,34.38,1.05,,0.0,0.0,0.0,1.0
1665761052800220107,,1880,,1665761052,799998998,'',,,-5.16,33.94,1.0,,0.0,0.0,0.0,1.0
1665761052900580875,,1881,,1665761052,900223016,'',,,-5.11,33.48,1.0,,0.0,0.0,0.0,1.0
1665761052999809403,,1882,,1665761052,999466896,'',,,-5.1,33.04,0.94,,0.0,0.0,0.0,1.0
1665761053100869782,,1883,,1665761053,100060939,'',,,-5.06,32.61,1.02,,0.0,0.0,0.0,1.0
1665761053201145362,,1884,,1665761053,200754880,'',,,-4.99,32.16,0.93,,0.0,0.0,0.0,1.0
1665761053300636170,,1885,,1665761053,300416946,'',,,-4.9,31.71,1.01,,0.0,0.0,0.0,1.0
1665761053400745789,,1886,,1665761053,400449037,'',,,-4.86,31.27,0.91,,0.0,0.0,0.0,1.0
1665761053501233483,,1887,,1665761053,500767946,'',,,-4.81,30.83,0.81,,0.0,0.0,0.0,1.0
1665761053601191342,,1888,,1665761053,600951910,'',,,-4.75,30.41,0.73,,0.0,0.0,0.0,1.0
1665761053701030394,,1889,,1665761053,700671911,'',,,-4.65,30.01,0.67,,0.0,0.0,0.0,1.0
1665761053801222260,,1890,,1665761053,800978899,'',,,-4.56,29.59,0.64,,0.0,0.0,0.0,1.0
1665761053900940235,,1891,,1665761053,900645017,'',,,-4.45,29.18,0.74,,0.0,0.0,0.0,1.0
1665761054000688427,,1892,,1665761054,366926,'',,,-4.34,28.77,0.79,,0.0,0.0,0.0,1.0
1665761054100582906,,1893,,1665761054,100334882,'',,,-4.2,28.37,0.9,,0.0,0.0,0.0,1.0
1665761054201596445,,1894,,1665761054,200628995,'',,,-4.03,27.93,1.06,,0.0,0.0,0.0,1.0
1665761054300222182,,1895,,1665761054,299765110,'',,,-3.88,27.52,0.97,,0.0,0.0,0.0,1.0
1665761054400120443,,1896,,1665761054,399739027,'',,,-3.73,27.13,0.94,,0.0,0.0,0.0,1.0
1665761054500840371,,1897,,1665761054,500375986,'',,,-3.57,26.76,1.05,,0.0,0.0,0.0,1.0
1665761054600200568,,1898,,1665761054,599909067,'',,,-3.42,26.38,1.26,,0.0,0.0,0.0,1.0
1665761054700273957,,1899,,1665761054,699845075,'',,,-3.27,25.99,1.29,,0.0,0.0,0.0,1.0
1665761054800145041,,1900,,1665761054,799796104,'',,,-3.15,25.61,1.27,,0.0,0.0,0.0,1.0
1665761054900588651,,1901,,1665761054,899960041,'',,,-3.01,25.2,1.42,,0.0,0.0,0.0,1.0
1665761055000431924,,1902,,1665761055,52928,'',,,-2.9,24.79,1.34,,0.0,0.0,0.0,1.0
1665761055100204766,,1903,,1665761055,99849939,'',,,-2.76,24.4,1.26,,0.0,0.0,0.0,1.0
1665761055200564136,,1904,,1665761055,200045108,'',,,-2.65,23.98,1.19,,0.0,0.0,0.0,1.0
1665761055299874679,,1905,,1665761055,299576997,'',,,-2.54,23.6,1.35,,0.0,0.0,0.0,1.0
1665761055400122690,,1906,,1665761055,399774074,'',,,-2.44,23.19,1.22,,0.0,0.0,0.0,1.0
1665761055500641168,,1907,,1665761055,500343084,'',,,-2.3,22.8,1.28,,0.0,0.0,0.0,1.0
1665761055600727564,,1908,,1665761055,600358963,'',,,-2.16,22.43,1.25,,0.0,0.0,0.0,1.0
1665761055700256374,,1909,,1665761055,700031042,'',,,-2.07,22.01,1.23,,0.0,0.0,0.0,1.0
1665761055800219083,,1910,,1665761055,799818038,'',,,-2.0,21.58,1.21,,0.0,0.0,0.0,1.0
1665761055900023838,,1911,,1665761055,899713039,'',,,-1.93,21.15,1.22,,0.0,0.0,0.0,1.0
1665761056000176739,,1912,,1665761055,999854087,'',,,-1.87,20.74,1.3,,0.0,0.0,0.0,1.0
1665761056100283105,,1913,,1665761056,99961996,'',,,-1.77,20.39,1.29,,0.0,0.0,0.0,1.0
1665761056200020829,,1914,,1665761056,199743986,'',,,-1.73,19.98,1.34,,0.0,0.0,0.0,1.0
1665761056300315226,,1915,,1665761056,299778938,'',,,-1.7,19.56,1.46,,0.0,0.0,0.0,1.0
1665761056400009439,,1916,,1665761056,399705886,'',,,-1.64,19.18,1.41,,0.0,0.0,0.0,1.0
1665761056499919169,,1917,,1665761056,499702930,'',,,-1.61,18.76,1.43,,0.0,0.0,0.0,1.0
1665761056600059430,,1918,,1665761056,599787950,'',,,-1.58,18.39,1.37,,0.0,0.0,0.0,1.0
1665761056698926567,,1919,,1665761056,698717117,'',,,-1.56,18.0,1.41,,0.0,0.0,0.0,1.0
1665761056793418185,,1920,,1665761056,792829990,'',,,-1.54,17.62,1.46,,0.0,0.0,0.0,1.0
1665761056900206818,,1921,,1665761056,899792909,'',,,-1.52,17.26,1.5,,0.0,0.0,0.0,1.0
1665761056999201036,,1922,,1665761056,998888015,'',,,-1.51,16.9,1.57,,0.0,0.0,0.0,1.0
1665761057099521502,,1923,,1665761057,99100112,'',,,-1.51,16.54,1.57,,0.0,0.0,0.0,1.0
1665761057200634638,,1924,,1665761057,199987888,'',,,-1.5,16.19,1.41,,0.0,0.0,0.0,1.0
1665761057299483887,,1925,,1665761057,299164056,'',,,-1.48,15.86,1.35,,0.0,0.0,0.0,1.0
1665761057399527201,,1926,,1665761057,399262905,'',,,-1.45,15.54,1.43,,0.0,0.0,0.0,1.0
1665761057500303433,,1927,,1665761057,499771118,'',,,-1.45,15.22,1.25,,0.0,0.0,0.0,1.0
1665761057599683716,,1928,,1665761057,599282979,'',,,-1.45,14.92,1.19,,0.0,0.0,0.0,1.0
1665761057699408714,,1929,,1665761057,699157953,'',,,-1.46,14.62,1.08,,0.0,0.0,0.0,1.0
1665761057799112179,,1930,,1665761057,798759937,'',,,-1.46,14.33,1.13,,0.0,0.0,0.0,1.0
1665761057899098729,,1931,,1665761057,898821115,'',,,-1.43,14.08,1.24,,0.0,0.0,0.0,1.0
1665761057999021766,,1932,,1665761057,998764991,'',,,-1.44,13.82,1.24,,0.0,0.0,0.0,1.0
1665761058099273532,,1933,,1665761058,98830938,'',,,-1.47,13.57,1.22,,0.0,0.0,0.0,1.0
1665761058198954546,,1934,,1665761058,198616981,'',,,-1.48,13.34,1.28,,0.0,0.0,0.0,1.0
1665761058299195481,,1935,,1665761058,298871994,'',,,-1.47,13.14,1.26,,0.0,0.0,0.0,1.0
1665761058399108463,,1936,,1665761058,398742914,'',,,-1.48,12.95,1.22,,0.0,0.0,0.0,1.0
1665761058499709333,,1937,,1665761058,498960018,'',,,-1.52,12.76,1.23,,0.0,0.0,0.0,1.0
1665761058598761044,,1938,,1665761058,598536968,'',,,-1.54,12.61,1.14,,0.0,0.0,0.0,1.0
1665761058699123654,,1939,,1665761058,698935985,'',,,-1.47,12.5,0.96,,0.0,0.0,0.0,1.0
1665761058799442875,,1940,,1665761058,799005985,'',,,-1.43,12.39,0.95,,0.0,0.0,0.0,1.0
1665761058899112263,,1941,,1665761058,898847103,'',,,-1.48,12.27,1.03,,0.0,0.0,0.0,1.0
1665761058999417605,,1942,,1665761058,999041080,'',,,-1.45,12.19,1.06,,0.0,0.0,0.0,1.0
1665761059099542023,,1943,,1665761059,98970890,'',,,-1.43,12.13,1.08,,0.0,0.0,0.0,1.0
1665761059199548932,,1944,,1665761059,199134111,'',,,-1.4,12.08,1.16,,0.0,0.0,0.0,1.0
1665761059299180427,,1945,,1665761059,298396110,'',,,-1.42,12.01,1.21,,0.0,0.0,0.0,1.0
1665761059399410017,,1946,,1665761059,398684024,'',,,-1.4,11.96,1.09,,0.0,0.0,0.0,1.0
1665761059499086026,,1947,,1665761059,498744964,'',,,-1.44,11.92,1.06,,0.0,0.0,0.0,1.0
1665761059598899860,,1948,,1665761059,598645925,'',,,-1.47,11.88,1.06,,0.0,0.0,0.0,1.0
1665761059699549198,,1949,,1665761059,699187040,'',,,-1.41,11.89,0.93,,0.0,0.0,0.0,1.0
1665761059799659016,,1950,,1665761059,799221992,'',,,-1.37,11.89,0.8,,0.0,0.0,0.0,1.0
1665761059898804966,,1951,,1665761059,898581027,'',,,-1.37,11.9,0.91,,0.0,0.0,0.0,1.0
1665761059999293411,,1952,,1665761059,999039888,'',,,-1.34,11.91,0.84,,0.0,0.0,0.0,1.0
1665761060099820619,,1953,,1665761060,99569082,'',,,-1.4,11.88,0.77,,0.0,0.0,0.0,1.0
1665761060199680351,,1954,,1665761060,199394941,'',,,-1.38,11.88,0.65,,0.0,0.0,0.0,1.0
1665761060299235132,,1955,,1665761060,298918008,'',,,-1.36,11.91,0.68,,0.0,0.0,0.0,1.0
1665761060399488830,,1956,,1665761060,399086952,'',,,-1.42,11.88,0.8,,0.0,0.0,0.0,1.0
1665761060499496195,,1957,,1665761060,498975992,'',,,-1.4,11.89,0.92,,0.0,0.0,0.0,1.0
1665761060599097934,,1958,,1665761060,598764896,'',,,-1.38,11.89,0.94,,0.0,0.0,0.0,1.0
