rosbagTimestamp,header,seq,stamp,secs,nsecs,frame_id,pose,position,x,y,z,orientation,x,y,z,w
1665761075793128814,,2110,,1665761075,792732954,'',,,-1.42,11.95,0.67,,0.0,0.0,0.0,1.0
1665761075899381601,,2111,,1665761075,899127960,'',,,-1.39,11.93,0.86,,0.0,0.0,0.0,1.0
1665761075999790520,,2112,,1665761075,999546051,'',,,-1.36,11.92,0.72,,0.0,0.0,0.0,1.0
1665761076099793162,,2113,,1665761076,99272966,'',,,-1.35,11.9,0.8,,0.0,0.0,0.0,1.0
1665761076199898078,,2114,,1665761076,199451923,'',,,-1.35,11.9,0.94,,0.0,0.0,0.0,1.0
1665761076299701251,,2115,,1665761076,299506902,'',,,-1.32,11.91,0.87,,0.0,0.0,0.0,1.0
1665761076399604489,,2116,,1665761076,399369001,'',,,-1.31,11.92,0.8,,0.0,0.0,0.0,1.0
1665761076499686370,,2117,,1665761076,499427080,'',,,-1.32,11.9,0.78,,0.0,0.0,0.0,1.0
1665761076599786607,,2118,,1665761076,599524974,'',,,-1.32,11.91,0.67,,0.0,0.0,0.0,1.0
1665761076699905957,,2119,,1665761076,699625015,'',,,-1.4,11.87,0.66,,0.0,0.0,0.0,1.0
1665761076799906554,,2120,,1665761076,799487113,'',,,-1.39,11.86,0.88,,0.0,0.0,0.0,1.0
1665761076899971359,,2121,,1665761076,899760007,'',,,-1.37,11.85,0.8,,0.0,0.0,0.0,1.0
1665761076999828321,,2122,,1665761076,999411106,'',,,-1.38,11.83,1.02,,0.0,0.0,0.0,1.0
1665761077099539947,,2123,,1665761077,99284887,'',,,-1.36,11.8,0.93,,0.0,0.0,0.0,1.0
1665761077200039616,,2124,,1665761077,199666976,'',,,-1.33,11.76,0.79,,0.0,0.0,0.0,1.0
1665761077299911014,,2125,,1665761077,299550056,'',,,-1.32,11.7,0.68,,0.0,0.0,0.0,1.0
1665761077400197974,,2126,,1665761077,399754047,'',,,-1.42,11.61,0.65,,0.0,0.0,0.0,1.0
1665761077493512101,,2127,,1665761077,492995977,'',,,-1.44,11.53,0.66,,0.0,0.0,0.0,1.0
1665761077599928792,,2128,,1665761077,599519968,'',,,-1.42,11.48,0.63,,0.0,0.0,0.0,1.0
1665761077693381483,,2129,,1665761077,692819118,'',,,-1.42,11.38,0.68,,0.0,0.0,0.0,1.0
1665761077793617913,,2130,,1665761077,792994976,'',,,-1.42,11.28,0.7,,0.0,0.0,0.0,1.0
1665761077899986480,,2131,,1665761077,899593114,'',,,-1.49,11.17,0.67,,0.0,0.0,0.0,1.0
1665761078000111527,,2132,,1665761077,999747037,'',,,-1.57,11.07,0.69,,0.0,0.0,0.0,1.0
1665761078093379832,,2133,,1665761078,93000888,'',,,-1.54,10.96,0.77,,0.0,0.0,0.0,1.0
1665761078200070077,,2134,,1665761078,199799060,'',,,-1.45,10.9,0.67,,0.0,0.0,0.0,1.0
1665761078300067188,,2135,,1665761078,299649000,'',,,-1.42,10.8,0.59,,0.0,0.0,0.0,1.0
1665761078400303671,,2136,,1665761078,399914979,'',,,-1.39,10.7,0.74,,0.0,0.0,0.0,1.0
1665761078500032193,,2137,,1665761078,499644994,'',,,-1.39,10.59,0.78,,0.0,0.0,0.0,1.0
1665761078600172871,,2138,,1665761078,599713087,'',,,-1.35,10.48,0.73,,0.0,0.0,0.0,1.0
1665761078700320027,,2139,,1665761078,699728965,'',,,-1.35,10.34,0.69,,0.0,0.0,0.0,1.0
1665761078801745194,,2140,,1665761078,799767971,'',,,-1.34,10.21,0.8,,0.0,0.0,0.0,1.0
1665761078893014509,,2141,,1665761078,892657995,'',,,-1.38,10.01,0.86,,0.0,0.0,0.0,1.0
1665761078993675096,,2142,,1665761078,992913961,'',,,-1.41,9.83,1.08,,0.0,0.0,0.0,1.0
1665761079100576936,,2143,,1665761079,100234985,'',,,-1.43,9.63,1.01,,0.0,0.0,0.0,1.0
1665761079199737226,,2144,,1665761079,199316024,'',,,-1.45,9.46,1.01,,0.0,0.0,0.0,1.0
1665761079299819644,,2145,,1665761079,299563884,'',,,-1.44,9.3,0.88,,0.0,0.0,0.0,1.0
1665761079399236312,,2146,,1665761079,398797988,'',,,-1.48,9.11,0.89,,0.0,0.0,0.0,1.0
1665761079499384170,,2147,,1665761079,499037981,'',,,-1.49,8.93,0.94,,0.0,0.0,0.0,1.0
1665761079599474650,,2148,,1665761079,599189996,'',,,-1.52,8.74,0.91,,0.0,0.0,0.0,1.0
1665761079699597988,,2149,,1665761079,699083089,'',,,-1.6,8.5,0.86,,0.0,0.0,0.0,1.0
1665761079799117383,,2150,,1665761079,798744916,'',,,-1.68,8.28,0.82,,0.0,0.0,0.0,1.0
1665761079899856774,,2151,,1665761079,899106025,'',,,-1.69,8.1,0.89,,0.0,0.0,0.0,1.0
1665761079998836770,,2152,,1665761079,998617887,'',,,-1.74,7.89,1.08,,0.0,0.0,0.0,1.0
1665761080099364107,,2153,,1665761080,99004030,'',,,-1.78,7.69,0.98,,0.0,0.0,0.0,1.0
1665761080199545401,,2154,,1665761080,199181079,'',,,-1.85,7.51,1.07,,0.0,0.0,0.0,1.0
1665761080299769757,,2155,,1665761080,299460887,'',,,-1.94,7.28,1.03,,0.0,0.0,0.0,1.0
1665761080399195944,,2156,,1665761080,398864984,'',,,-1.99,7.1,0.94,,0.0,0.0,0.0,1.0
1665761080499527034,,2157,,1665761080,499247074,'',,,-2.07,6.91,0.94,,0.0,0.0,0.0,1.0
1665761080600377505,,2158,,1665761080,599838018,'',,,-2.18,6.71,0.9,,0.0,0.0,0.0,1.0
1665761080699694832,,2159,,1665761080,699326992,'',,,-2.36,6.5,0.92,,0.0,0.0,0.0,1.0
1665761080799794107,,2160,,1665761080,799429893,'',,,-2.48,6.33,1.18,,0.0,0.0,0.0,1.0
1665761080900180419,,2161,,1665761080,899369955,'',,,-2.62,6.13,1.08,,0.0,0.0,0.0,1.0
1665761080999725320,,2162,,1665761080,999469041,'',,,-2.72,5.99,1.04,,0.0,0.0,0.0,1.0
1665761081100334369,,2163,,1665761081,99538087,'',,,-2.81,5.85,1.0,,0.0,0.0,0.0,1.0
1665761081199735663,,2164,,1665761081,199307918,'',,,-2.92,5.72,1.02,,0.0,0.0,0.0,1.0
1665761081300314102,,2165,,1665761081,299683094,'',,,-3.04,5.62,1.14,,0.0,0.0,0.0,1.0
1665761081400020050,,2166,,1665761081,399714946,'',,,-3.26,5.43,1.01,,0.0,0.0,0.0,1.0
1665761081499948076,,2167,,1665761081,499566078,'',,,-3.43,5.28,0.98,,0.0,0.0,0.0,1.0
1665761081599971564,,2168,,1665761081,599391937,'',,,-3.56,5.18,0.93,,0.0,0.0,0.0,1.0
1665761081699917481,,2169,,1665761081,699512004,'',,,-3.75,5.07,0.89,,0.0,0.0,0.0,1.0
1665761081799936367,,2170,,1665761081,799499988,'',,,-3.88,5.0,0.85,,0.0,0.0,0.0,1.0
1665761081899929601,,2171,,1665761081,899621009,'',,,-4.05,4.92,0.98,,0.0,0.0,0.0,1.0
1665761081999630123,,2172,,1665761081,999113082,'',,,-4.18,4.88,1.0,,0.0,0.0,0.0,1.0
1665761082099719712,,2173,,1665761082,99440097,'',,,-4.41,4.77,0.93,,0.0,0.0,0.0,1.0
1665761082200368261,,2174,,1665761082,199426889,'',,,-4.58,4.72,0.95,,0.0,0.0,0.0,1.0
1665761082300106535,,2175,,1665761082,299534082,'',,,-4.74,4.7,1.08,,0.0,0.0,0.0,1.0
1665761082400540385,,2176,,1665761082,399497985,'',,,-4.93,4.69,1.13,,0.0,0.0,0.0,1.0
1665761082500049046,,2177,,1665761082,499516010,'',,,-5.1,4.67,1.2,,0.0,0.0,0.0,1.0
1665761082599799469,,2178,,1665761082,599550962,'',,,-5.29,4.68,1.29,,0.0,0.0,0.0,1.0
1665761082699894022,,2179,,1665761082,699593067,'',,,-5.45,4.65,1.2,,0.0,0.0,0.0,1.0
1665761082793636649,,2180,,1665761082,793019056,'',,,-5.63,4.63,1.15,,0.0,0.0,0.0,1.0
1665761082900978680,,2181,,1665761082,899827003,'',,,-5.78,4.63,1.09,,0.0,0.0,0.0,1.0
1665761083000681745,,2182,,1665761082,999222993,'',,,-5.96,4.67,1.09,,0.0,0.0,0.0,1.0
1665761083099938681,,2183,,1665761083,99231004,'',,,-6.13,4.72,1.08,,0.0,0.0,0.0,1.0
1665761083199629549,,2184,,1665761083,199314117,'',,,-6.28,4.76,1.23,,0.0,0.0,0.0,1.0
1665761083299477537,,2185,,1665761083,299082994,'',,,-6.42,4.79,1.24,,0.0,0.0,0.0,1.0
1665761083399741286,,2186,,1665761083,399209976,'',,,-6.58,4.87,1.15,,0.0,0.0,0.0,1.0
1665761083499650859,,2187,,1665761083,499331951,'',,,-6.74,4.92,1.1,,0.0,0.0,0.0,1.0
1665761083599328339,,2188,,1665761083,598932981,'',,,-6.9,4.98,0.99,,0.0,0.0,0.0,1.0
1665761083700051050,,2189,,1665761083,699517011,'',,,-7.04,5.07,0.99,,0.0,0.0,0.0,1.0
1665761083799372569,,2190,,1665761083,799036026,'',,,-7.18,5.15,0.96,,0.0,0.0,0.0,1.0
1665761083899973095,,2191,,1665761083,899528980,'',,,-7.31,5.25,1.06,,0.0,0.0,0.0,1.0
1665761083999946257,,2192,,1665761083,999387979,'',,,-7.43,5.35,1.09,,0.0,0.0,0.0,1.0
1665761084099876291,,2193,,1665761084,99494934,'',,,-7.54,5.45,1.15,,0.0,0.0,0.0,1.0
1665761084199892628,,2194,,1665761084,199431896,'',,,-7.69,5.52,1.05,,0.0,0.0,0.0,1.0
1665761084300871210,,2195,,1665761084,299592971,'',,,-7.86,5.58,0.91,,0.0,0.0,0.0,1.0
1665761084399960951,,2196,,1665761084,399440050,'',,,-7.93,5.7,0.92,,0.0,0.0,0.0,1.0
1665761084499498905,,2197,,1665761084,499262094,'',,,-8.0,5.83,1.04,,0.0,0.0,0.0,1.0
1665761084600183872,,2198,,1665761084,599709987,'',,,-8.07,5.96,1.18,,0.0,0.0,0.0,1.0
1665761084700536525,,2199,,1665761084,699877977,'',,,-8.14,6.09,1.26,,0.0,0.0,0.0,1.0
1665761084800424303,,2200,,1665761084,799410104,'',,,-8.21,6.19,1.22,,0.0,0.0,0.0,1.0
1665761084900116922,,2201,,1665761084,899630069,'',,,-8.32,6.27,1.09,,0.0,0.0,0.0,1.0
1665761085000549590,,2202,,1665761085,88930,'',,,-8.38,6.4,1.19,,0.0,0.0,0.0,1.0
1665761085099829729,,2203,,1665761085,99531888,'',,,-8.45,6.51,1.17,,0.0,0.0,0.0,1.0
1665761085199943973,,2204,,1665761085,199321031,'',,,-8.52,6.65,1.1,,0.0,0.0,0.0,1.0
1665761085300504712,,2205,,1665761085,299779891,'',,,-8.58,6.8,1.11,,0.0,0.0,0.0,1.0
1665761085400896016,,2206,,1665761085,399585008,'',,,-8.64,6.93,1.25,,0.0,0.0,0.0,1.0
1665761085499955564,,2207,,1665761085,499547958,'',,,-8.68,7.08,1.33,,0.0,0.0,0.0,1.0
1665761085600322002,,2208,,1665761085,599715948,'',,,-8.73,7.23,1.43,,0.0,0.0,0.0,1.0
1665761085699935501,,2209,,1665761085,699522972,'',,,-8.78,7.38,1.41,,0.0,0.0,0.0,1.0
1665761085800315620,,2210,,1665761085,799931049,'',,,-8.8,7.52,1.28,,0.0,0.0,0.0,1.0
1665761085900372246,,2211,,1665761085,900068044,'',,,-8.84,7.68,1.11,,0.0,0.0,0.0,1.0
1665761086000949419,,2212,,1665761086,560045,'',,,-8.87,7.86,1.04,,0.0,0.0,0.0,1.0
1665761086094035642,,2213,,1665761086,93417882,'',,,-8.9,8.03,0.94,,0.0,0.0,0.0,1.0
1665761086201012742,,2214,,1665761086,200520038,'',,,-8.92,8.21,0.96,,0.0,0.0,0.0,1.0
1665761086300662570,,2215,,1665761086,300415039,'',,,-8.94,8.4,0.99,,0.0,0.0,0.0,1.0
1665761086400528558,,2216,,1665761086,400274038,'',,,-8.95,8.61,0.98,,0.0,0.0,0.0,1.0
1665761086500977195,,2217,,1665761086,500582933,'',,,-8.97,8.82,1.01,,0.0,0.0,0.0,1.0
1665761086601199312,,2218,,1665761086,600621938,'',,,-8.97,9.03,1.06,,0.0,0.0,0.0,1.0
1665761086700700988,,2219,,1665761086,700254917,'',,,-8.96,9.26,1.1,,0.0,0.0,0.0,1.0
1665761086800956872,,2220,,1665761086,800575971,'',,,-8.97,9.51,1.09,,0.0,0.0,0.0,1.0
1665761086901534499,,2221,,1665761086,901001930,'',,,-8.98,9.79,1.12,,0.0,0.0,0.0,1.0
1665761087000514627,,2222,,1665761087,236034,'',,,-9.0,10.07,1.14,,0.0,0.0,0.0,1.0
1665761087101549437,,2223,,1665761087,100884914,'',,,-8.97,10.32,1.18,,0.0,0.0,0.0,1.0
1665761087200952590,,2224,,1665761087,200592041,'',,,-8.97,10.61,1.18,,0.0,0.0,0.0,1.0
1665761087301166697,,2225,,1665761087,300724029,'',,,-8.94,10.88,1.2,,0.0,0.0,0.0,1.0
1665761087400625950,,2226,,1665761087,400391101,'',,,-8.97,11.22,1.34,,0.0,0.0,0.0,1.0
1665761087500053733,,2227,,1665761087,499824047,'',,,-8.96,11.51,1.31,,0.0,0.0,0.0,1.0
1665761087600308597,,2228,,1665761087,599972963,'',,,-8.94,11.81,1.29,,0.0,0.0,0.0,1.0
1665761087700807273,,2229,,1665761087,700402021,'',,,-8.91,12.12,1.15,,0.0,0.0,0.0,1.0
1665761087800335893,,2230,,1665761087,800034046,'',,,-8.89,12.43,1.09,,0.0,0.0,0.0,1.0
1665761087900275170,,2231,,1665761087,899997949,'',,,-8.88,12.76,0.98,,0.0,0.0,0.0,1.0
1665761088000140405,,2232,,1665761087,999891996,'',,,-8.88,13.12,0.92,,0.0,0.0,0.0,1.0
1665761088100207425,,2233,,1665761088,99826097,'',,,-8.88,13.46,0.89,,0.0,0.0,0.0,1.0
1665761088200598314,,2234,,1665761088,200270891,'',,,-8.88,13.83,0.83,,0.0,0.0,0.0,1.0
1665761088301059340,,2235,,1665761088,300657033,'',,,-8.88,14.21,0.84,,0.0,0.0,0.0,1.0
1665761088401174976,,2236,,1665761088,400782108,'',,,-8.86,14.59,0.97,,0.0,0.0,0.0,1.0
1665761088501316837,,2237,,1665761088,500953912,'',,,-8.87,14.99,1.08,,0.0,0.0,0.0,1.0
1665761088601761140,,2238,,1665761088,601283073,'',,,-8.85,15.4,1.03,,0.0,0.0,0.0,1.0
1665761088702226828,,2239,,1665761088,701534032,'',,,-8.81,15.78,0.95,,0.0,0.0,0.0,1.0
1665761088801880320,,2240,,1665761088,801384925,'',,,-8.78,16.18,0.91,,0.0,0.0,0.0,1.0
1665761088901362914,,2241,,1665761088,901046037,'',,,-8.75,16.59,0.82,,0.0,0.0,0.0,1.0
1665761089002287365,,2242,,1665761089,1987934,'',,,-8.72,16.99,0.84,,0.0,0.0,0.0,1.0
1665761089101137447,,2243,,1665761089,100697040,'',,,-8.73,17.38,0.97,,0.0,0.0,0.0,1.0
1665761089201761937,,2244,,1665761089,201231956,'',,,-8.73,17.78,0.99,,0.0,0.0,0.0,1.0
1665761089301256910,,2245,,1665761089,300971984,'',,,-8.74,18.22,1.05,,0.0,0.0,0.0,1.0
1665761089401069721,,2246,,1665761089,400629043,'',,,-8.73,18.62,1.11,,0.0,0.0,0.0,1.0
1665761089501160176,,2247,,1665761089,500793933,'',,,-8.76,18.98,1.08,,0.0,0.0,0.0,1.0
1665761089601962983,,2248,,1665761089,601290941,'',,,-8.78,19.36,1.04,,0.0,0.0,0.0,1.0
1665761089701431382,,2249,,1665761089,700879096,'',,,-8.79,19.73,1.04,,0.0,0.0,0.0,1.0
1665761089801431366,,2250,,1665761089,801152944,'',,,-8.8,20.12,0.96,,0.0,0.0,0.0,1.0
1665761089901000868,,2251,,1665761089,900664091,'',,,-8.8,20.52,0.91,,0.0,0.0,0.0,1.0
1665761090000814100,,2252,,1665761090,627040,'',,,-8.79,20.95,1.01,,0.0,0.0,0.0,1.0
1665761090101864884,,2253,,1665761090,101423978,'',,,-8.78,21.36,0.94,,0.0,0.0,0.0,1.0
1665761090200966123,,2254,,1665761090,200520992,'',,,-8.75,21.8,1.05,,0.0,0.0,0.0,1.0
1665761090301084194,,2255,,1665761090,300800085,'',,,-8.73,22.24,1.15,,0.0,0.0,0.0,1.0
1665761090394096751,,2256,,1665761090,393716096,'',,,-8.68,22.62,1.09,,0.0,0.0,0.0,1.0
1665761090501256819,,2257,,1665761090,500967025,'',,,-8.67,23.07,1.01,,0.0,0.0,0.0,1.0
1665761090601530223,,2258,,1665761090,601208925,'',,,-8.65,23.51,0.97,,0.0,0.0,0.0,1.0
1665761090701664102,,2259,,1665761090,701167106,'',,,-8.65,23.94,1.13,,0.0,0.0,0.0,1.0
1665761090802098465,,2260,,1665761090,801115036,'',,,-8.66,24.31,1.02,,0.0,0.0,0.0,1.0
1665761090901722849,,2261,,1665761090,901376962,'',,,-8.67,24.73,0.98,,0.0,0.0,0.0,1.0
1665761090994687238,,2262,,1665761090,994016885,'',,,-8.68,25.11,1.08,,0.0,0.0,0.0,1.0
1665761091100917201,,2263,,1665761091,100686073,'',,,-8.67,25.5,1.19,,0.0,0.0,0.0,1.0
1665761091201742026,,2264,,1665761091,201091051,'',,,-8.66,25.9,1.2,,0.0,0.0,0.0,1.0
1665761091294715894,,2265,,1665761091,294025897,'',,,-8.62,26.28,0.95,,0.0,0.0,0.0,1.0
1665761091401326756,,2266,,1665761091,401000022,'',,,-8.59,26.74,1.01,,0.0,0.0,0.0,1.0
1665761091501693620,,2267,,1665761091,501389980,'',,,-8.57,27.14,1.11,,0.0,0.0,0.0,1.0
1665761091601551700,,2268,,1665761091,601248025,'',,,-8.57,27.51,1.1,,0.0,0.0,0.0,1.0
1665761091701193230,,2269,,1665761091,700887918,'',,,-8.58,27.86,1.04,,0.0,0.0,0.0,1.0
1665761091800726366,,2270,,1665761091,800441026,'',,,-8.56,28.24,1.02,,0.0,0.0,0.0,1.0
1665761091902037452,,2271,,1665761091,901735067,'',,,-8.53,28.57,0.97,,0.0,0.0,0.0,1.0
1665761092000790440,,2272,,1665761092,503063,'',,,-8.49,28.91,1.08,,0.0,0.0,0.0,1.0
1665761092101265651,,2273,,1665761092,100934982,'',,,-8.47,29.31,1.17,,0.0,0.0,0.0,1.0
1665761092200521404,,2274,,1665761092,200226068,'',,,-8.52,29.73,1.04,,0.0,0.0,0.0,1.0
1665761092301005315,,2275,,1665761092,300729990,'',,,-8.51,30.12,1.05,,0.0,0.0,0.0,1.0
1665761092401660601,,2276,,1665761092,401376962,'',,,-8.47,30.46,0.96,,0.0,0.0,0.0,1.0
1665761092500242642,,2277,,1665761092,499922037,'',,,-8.52,30.91,0.91,,0.0,0.0,0.0,1.0
1665761092600041330,,2278,,1665761092,599817037,'',,,-8.56,31.33,0.84,,0.0,0.0,0.0,1.0
1665761092700401036,,2279,,1665761092,700176954,'',,,-8.58,31.73,0.83,,0.0,0.0,0.0,1.0
1665761092800892337,,2280,,1665761092,800651073,'',,,-8.57,32.13,0.95,,0.0,0.0,0.0,1.0
1665761092901486142,,2281,,1665761092,900928974,'',,,-8.56,32.48,1.02,,0.0,0.0,0.0,1.0
1665761093001516799,,2282,,1665761093,1210927,'',,,-8.52,32.81,0.94,,0.0,0.0,0.0,1.0
1665761093094563858,,2283,,1665761093,94239950,'',,,-8.48,33.17,0.87,,0.0,0.0,0.0,1.0
1665761093200686855,,2284,,1665761093,200474977,'',,,-8.49,33.56,0.83,,0.0,0.0,0.0,1.0
1665761093299972567,,2285,,1665761093,299736976,'',,,-8.46,33.89,0.81,,0.0,0.0,0.0,1.0
1665761093400698872,,2286,,1665761093,400367021,'',,,-8.43,34.25,0.77,,0.0,0.0,0.0,1.0
1665761093500173310,,2287,,1665761093,499914884,'',,,-8.41,34.59,0.77,,0.0,0.0,0.0,1.0
1665761093600391861,,2288,,1665761093,600109100,'',,,-8.4,34.95,0.72,,0.0,0.0,0.0,1.0
1665761093700931890,,2289,,1665761093,700568914,'',,,-8.38,35.3,0.67,,0.0,0.0,0.0,1.0
1665761093800886776,,2290,,1665761093,800635099,'',,,-8.39,35.68,0.69,,0.0,0.0,0.0,1.0
1665761093901843761,,2291,,1665761093,901462078,'',,,-8.33,36.05,0.74,,0.0,0.0,0.0,1.0
1665761093993971565,,2292,,1665761093,993638038,'',,,-8.32,36.46,0.98,,0.0,0.0,0.0,1.0
1665761094100933569,,2293,,1665761094,100656032,'',,,-8.34,36.78,1.0,,0.0,0.0,0.0,1.0
1665761094200156438,,2294,,1665761094,199783086,'',,,-8.34,37.13,1.14,,0.0,0.0,0.0,1.0
1665761094300089927,,2295,,1665761094,299871921,'',,,-8.34,37.48,1.33,,0.0,0.0,0.0,1.0
1665761094400884555,,2296,,1665761094,400162935,'',,,-8.34,37.83,1.16,,0.0,0.0,0.0,1.0
1665761094500380968,,2297,,1665761094,500144004,'',,,-8.36,38.23,1.04,,0.0,0.0,0.0,1.0
1665761094600968742,,2298,,1665761094,600146055,'',,,-8.38,38.57,1.16,,0.0,0.0,0.0,1.0
1665761094700373645,,2299,,1665761094,700038909,'',,,-8.4,38.93,1.15,,0.0,0.0,0.0,1.0
1665761094800086744,,2300,,1665761094,799875020,'',,,-8.42,39.28,1.17,,0.0,0.0,0.0,1.0
1665761094900543859,,2301,,1665761094,900307893,'',,,-8.43,39.63,1.1,,0.0,0.0,0.0,1.0
1665761095000884261,,2302,,1665761095,499963,'',,,-8.44,39.93,0.96,,0.0,0.0,0.0,1.0
1665761095102182707,,2303,,1665761095,100503921,'',,,-8.39,40.28,0.86,,0.0,0.0,0.0,1.0
1665761095200847497,,2304,,1665761095,200622081,'',,,-8.42,40.56,0.92,,0.0,0.0,0.0,1.0
1665761095300309975,,2305,,1665761095,300014019,'',,,-8.42,40.9,1.02,,0.0,0.0,0.0,1.0
1665761095400201613,,2306,,1665761095,399873018,'',,,-8.45,41.22,1.03,,0.0,0.0,0.0,1.0
1665761095500686790,,2307,,1665761095,500387907,'',,,-8.48,41.57,1.1,,0.0,0.0,0.0,1.0
1665761095601213311,,2308,,1665761095,600039005,'',,,-8.51,41.92,1.07,,0.0,0.0,0.0,1.0
1665761095701138535,,2309,,1665761095,700589895,'',,,-8.56,42.3,1.18,,0.0,0.0,0.0,1.0
1665761095800290703,,2310,,1665761095,800060987,'',,,-8.6,42.66,1.14,,0.0,0.0,0.0,1.0
1665761095900064020,,2311,,1665761095,899868011,'',,,-8.65,42.98,1.11,,0.0,0.0,0.0,1.0
1665761096000493138,,2312,,1665761096,258922,'',,,-8.7,43.34,1.17,,0.0,0.0,0.0,1.0
1665761096100539728,,2313,,1665761096,100179910,'',,,-8.76,43.63,1.19,,0.0,0.0,0.0,1.0
1665761096200113196,,2314,,1665761096,199832916,'',,,-8.83,43.94,1.15,,0.0,0.0,0.0,1.0
1665761096300215135,,2315,,1665761096,299945116,'',,,-8.89,44.24,1.18,,0.0,0.0,0.0,1.0
1665761096400570617,,2316,,1665761096,400266885,'',,,-8.96,44.57,1.19,,0.0,0.0,0.0,1.0
1665761096500604169,,2317,,1665761096,500294923,'',,,-9.02,44.88,1.23,,0.0,0.0,0.0,1.0
1665761096600346531,,2318,,1665761096,600033044,'',,,-9.1,45.23,1.31,,0.0,0.0,0.0,1.0
1665761096700385850,,2319,,1665761096,700189113,'',,,-9.19,45.55,1.35,,0.0,0.0,0.0,1.0
1665761096800330682,,2320,,1665761096,800087928,'',,,-9.28,45.85,1.35,,0.0,0.0,0.0,1.0
1665761096901324472,,2321,,1665761096,901096105,'',,,-9.36,46.14,1.27,,0.0,0.0,0.0,1.0
1665761096994670491,,2322,,1665761096,994224071,'',,,-9.47,46.44,1.15,,0.0,0.0,0.0,1.0
1665761097101332935,,2323,,1665761097,101114034,'',,,-9.57,46.73,1.08,,0.0,0.0,0.0,1.0
1665761097200281967,,2324,,1665761097,200032949,'',,,-9.66,47.02,1.24,,0.0,0.0,0.0,1.0
1665761097302051150,,2325,,1665761097,300935983,'',,,-9.78,47.34,1.09,,0.0,0.0,0.0,1.0
1665761097400911825,,2326,,1665761097,400643110,'',,,-9.9,47.63,1.01,,0.0,0.0,0.0,1.0
1665761097501667502,,2327,,1665761097,501028060,'',,,-10.03,47.92,0.96,,0.0,0.0,0.0,1.0
1665761097600733467,,2328,,1665761097,600424051,'',,,-10.14,48.22,1.01,,0.0,0.0,0.0,1.0
1665761097700571626,,2329,,1665761097,700308084,'',,,-10.26,48.52,1.1,,0.0,0.0,0.0,1.0
1665761097800562415,,2330,,1665761097,800236940,'',,,-10.43,48.84,1.01,,0.0,0.0,0.0,1.0
1665761097901026080,,2331,,1665761097,900727987,'',,,-10.53,49.13,1.17,,0.0,0.0,0.0,1.0
1665761098000541232,,2332,,1665761098,291109,'',,,-10.66,49.42,1.3,,0.0,0.0,0.0,1.0
1665761098100522012,,2333,,1665761098,100229978,'',,,-10.8,49.71,1.4,,0.0,0.0,0.0,1.0
1665761098201177630,,2334,,1665761098,200931072,'',,,-10.95,50.02,1.39,,0.0,0.0,0.0,1.0
1665761098294827597,,2335,,1665761098,294184923,'',,,-11.08,50.33,1.44,,0.0,0.0,0.0,1.0
1665761098401514914,,2336,,1665761098,401206970,'',,,-11.2,50.62,1.38,,0.0,0.0,0.0,1.0
1665761098501942396,,2337,,1665761098,501642942,'',,,-11.33,50.91,1.36,,0.0,0.0,0.0,1.0
1665761098602083793,,2338,,1665761098,601632118,'',,,-11.47,51.23,1.26,,0.0,0.0,0.0,1.0
1665761098701651045,,2339,,1665761098,701248884,'',,,-11.59,51.52,1.22,,0.0,0.0,0.0,1.0
1665761098795308207,,2340,,1665761098,794728994,'',,,-11.74,51.84,1.26,,0.0,0.0,0.0,1.0
1665761098901679760,,2341,,1665761098,901433944,'',,,-11.81,52.11,1.28,,0.0,0.0,0.0,1.0
1665761098995412571,,2342,,1665761098,994853973,'',,,-11.96,52.44,1.14,,0.0,0.0,0.0,1.0
1665761099094747470,,2343,,1665761099,94392061,'',,,-12.04,52.71,1.14,,0.0,0.0,0.0,1.0
1665761099204204402,,2344,,1665761099,203839063,'',,,-12.1,52.95,1.14,,0.0,0.0,0.0,1.0
1665761099294533184,,2345,,1665761099,294101953,'',,,-12.17,53.25,1.26,,0.0,0.0,0.0,1.0
1665761099405621575,,2346,,1665761099,405147075,'',,,-12.23,53.55,1.17,,0.0,0.0,0.0,1.0
1665761099494851847,,2347,,1665761099,494551897,'',,,-12.29,53.88,1.27,,0.0,0.0,0.0,1.0
1665761099602143895,,2348,,1665761099,601941108,'',,,-12.35,54.23,1.4,,0.0,0.0,0.0,1.0
1665761099702216485,,2349,,1665761099,701761960,'',,,-12.31,54.49,1.51,,0.0,0.0,0.0,1.0
1665761099803111383,,2350,,1665761099,802263021,'',,,-12.31,54.77,1.29,,0.0,0.0,0.0,1.0
1665761099901936521,,2351,,1665761099,901016950,'',,,-12.28,55.04,1.16,,0.0,0.0,0.0,1.0
1665761100002424205,,2352,,1665761100,1925945,'',,,-12.29,55.33,1.03,,0.0,0.0,0.0,1.0
1665761100102038843,,2353,,1665761100,101587057,'',,,-12.27,55.61,1.0,,0.0,0.0,0.0,1.0
1665761100201751559,,2354,,1665761100,201422929,'',,,-12.26,55.88,0.95,,0.0,0.0,0.0,1.0
1665761100301689126,,2355,,1665761100,301286935,'',,,-12.22,56.15,1.08,,0.0,0.0,0.0,1.0
1665761100401274102,,2356,,1665761100,400979995,'',,,-12.18,56.42,1.24,,0.0,0.0,0.0,1.0
1665761100502017967,,2357,,1665761100,500971078,'',,,-12.08,56.71,1.17,,0.0,0.0,0.0,1.0
1665761100600818473,,2358,,1665761100,600522041,'',,,-11.97,56.99,1.03,,0.0,0.0,0.0,1.0
1665761100700884117,,2359,,1665761100,700619935,'',,,-11.87,57.24,0.95,,0.0,0.0,0.0,1.0
1665761100801749422,,2360,,1665761100,800782918,'',,,-11.75,57.49,1.0,,0.0,0.0,0.0,1.0
1665761100901209891,,2361,,1665761100,900954008,'',,,-11.63,57.74,1.03,,0.0,0.0,0.0,1.0
1665761101001087566,,2362,,1665761101,865936,'',,,-11.51,57.97,1.08,,0.0,0.0,0.0,1.0
1665761101101100277,,2363,,1665761101,100843906,'',,,-11.36,58.21,1.04,,0.0,0.0,0.0,1.0
1665761101199812301,,2364,,1665761101,199579954,'',,,-11.19,58.47,1.2,,0.0,0.0,0.0,1.0
1665761101299952475,,2365,,1665761101,299699068,'',,,-11.12,58.66,1.25,,0.0,0.0,0.0,1.0
1665761101399335852,,2366,,1665761101,399111032,'',,,-11.04,58.84,1.09,,0.0,0.0,0.0,1.0
1665761101501016171,,2367,,1665761101,500384092,'',,,-10.92,59.0,1.02,,0.0,0.0,0.0,1.0
1665761101600183577,,2368,,1665761101,599839925,'',,,-10.74,59.18,1.02,,0.0,0.0,0.0,1.0
1665761101701152834,,2369,,1665761101,700288057,'',,,-10.59,59.33,1.03,,0.0,0.0,0.0,1.0
1665761101800571897,,2370,,1665761101,800398111,'',,,-10.4,59.51,1.01,,0.0,0.0,0.0,1.0
1665761101900705620,,2371,,1665761101,900461912,'',,,-10.2,59.67,0.95,,0.0,0.0,0.0,1.0
1665761102001787314,,2372,,1665761102,1306056,'',,,-10.01,59.8,0.99,,0.0,0.0,0.0,1.0
1665761102101585505,,2373,,1665761102,101299047,'',,,-9.81,59.9,1.11,,0.0,0.0,0.0,1.0
1665761102201893473,,2374,,1665761102,201662063,'',,,-9.59,59.99,1.06,,0.0,0.0,0.0,1.0
1665761102302196626,,2375,,1665761102,301657915,'',,,-9.38,60.1,0.98,,0.0,0.0,0.0,1.0
1665761102401834095,,2376,,1665761102,401505947,'',,,-9.17,60.18,1.13,,0.0,0.0,0.0,1.0
1665761102502715370,,2377,,1665761102,502197027,'',,,-8.95,60.26,1.03,,0.0,0.0,0.0,1.0
1665761102602628663,,2378,,1665761102,602303028,'',,,-8.73,60.32,1.1,,0.0,0.0,0.0,1.0
1665761102702501810,,2379,,1665761102,701801061,'',,,-8.53,60.36,1.02,,0.0,0.0,0.0,1.0
1665761102802218215,,2380,,1665761102,801743984,'',,,-8.32,60.4,1.24,,0.0,0.0,0.0,1.0
1665761102902617380,,2381,,1665761102,902290105,'',,,-8.09,60.43,1.21,,0.0,0.0,0.0,1.0
1665761102999799779,,2382,,1665761102,999464988,'',,,-7.92,60.44,1.2,,0.0,0.0,0.0,1.0
1665761103101418745,,2383,,1665761103,101136922,'',,,-7.7,60.44,1.19,,0.0,0.0,0.0,1.0
1665761103201115205,,2384,,1665761103,200860977,'',,,-7.49,60.42,1.17,,0.0,0.0,0.0,1.0
1665761103300491318,,2385,,1665761103,300178050,'',,,-7.29,60.4,1.25,,0.0,0.0,0.0,1.0
1665761103401742205,,2386,,1665761103,401103973,'',,,-7.06,60.38,1.17,,0.0,0.0,0.0,1.0
1665761103500658501,,2387,,1665761103,500300884,'',,,-6.83,60.34,1.33,,0.0,0.0,0.0,1.0
1665761103601086964,,2388,,1665761103,600589990,'',,,-6.6,60.31,1.2,,0.0,0.0,0.0,1.0
1665761103701323440,,2389,,1665761103,701097011,'',,,-6.36,60.24,1.21,,0.0,0.0,0.0,1.0
1665761103801506215,,2390,,1665761103,801122903,'',,,-6.13,60.17,1.31,,0.0,0.0,0.0,1.0
1665761103901926709,,2391,,1665761103,901644945,'',,,-5.89,60.1,1.33,,0.0,0.0,0.0,1.0
1665761104001519536,,2392,,1665761104,994920,'',,,-5.66,60.01,1.38,,0.0,0.0,0.0,1.0
1665761104101522049,,2393,,1665761104,101264953,'',,,-5.42,59.91,1.25,,0.0,0.0,0.0,1.0
1665761104201539990,,2394,,1665761104,201250076,'',,,-5.2,59.78,1.39,,0.0,0.0,0.0,1.0
1665761104301677601,,2395,,1665761104,301300048,'',,,-5.0,59.65,1.41,,0.0,0.0,0.0,1.0
1665761104402475605,,2396,,1665761104,402081012,'',,,-4.8,59.5,1.31,,0.0,0.0,0.0,1.0
1665761104501817175,,2397,,1665761104,501255989,'',,,-4.61,59.33,1.3,,0.0,0.0,0.0,1.0
1665761104601000248,,2398,,1665761104,600771903,'',,,-4.43,59.16,1.3,,0.0,0.0,0.0,1.0
1665761104700828005,,2399,,1665761104,700514078,'',,,-4.26,58.99,1.25,,0.0,0.0,0.0,1.0
1665761104801415527,,2400,,1665761104,801086902,'',,,-4.11,58.8,1.29,,0.0,0.0,0.0,1.0
1665761104900977922,,2401,,1665761104,900631904,'',,,-3.96,58.59,1.27,,0.0,0.0,0.0,1.0
1665761105000913897,,2402,,1665761105,636100,'',,,-3.83,58.37,1.24,,0.0,0.0,0.0,1.0
1665761105101143365,,2403,,1665761105,100800991,'',,,-3.7,58.15,1.2,,0.0,0.0,0.0,1.0
1665761105200972743,,2404,,1665761105,200654983,'',,,-3.59,57.93,1.2,,0.0,0.0,0.0,1.0
1665761105300873025,,2405,,1665761105,300573110,'',,,-3.49,57.67,1.24,,0.0,0.0,0.0,1.0
1665761105401026347,,2406,,1665761105,400593042,'',,,-3.41,57.43,1.23,,0.0,0.0,0.0,1.0
1665761105501263474,,2407,,1665761105,500828981,'',,,-3.33,57.18,1.29,,0.0,0.0,0.0,1.0
1665761105601023717,,2408,,1665761105,600683927,'',,,-3.26,56.92,1.33,,0.0,0.0,0.0,1.0
1665761105701167776,,2409,,1665761105,700773954,'',,,-3.2,56.66,1.37,,0.0,0.0,0.0,1.0
1665761105800619734,,2410,,1665761105,800335884,'',,,-3.14,56.38,1.39,,0.0,0.0,0.0,1.0
1665761105900568982,,2411,,1665761105,900192975,'',,,-3.06,56.1,1.37,,0.0,0.0,0.0,1.0
1665761106000856789,,2412,,1665761106,590085,'',,,-3.0,55.79,1.27,,0.0,0.0,0.0,1.0
1665761106101523323,,2413,,1665761106,101057052,'',,,-2.96,55.51,1.2,,0.0,0.0,0.0,1.0
1665761106194685531,,2414,,1665761106,194292068,'',,,-3.01,55.23,1.08,,0.0,0.0,0.0,1.0
1665761106301004778,,2415,,1665761106,300631046,'',,,-3.04,55.0,1.14,,0.0,0.0,0.0,1.0
1665761106400721481,,2416,,1665761106,400456905,'',,,-3.06,54.74,1.23,,0.0,0.0,0.0,1.0
1665761106501309392,,2417,,1665761106,500983953,'',,,-3.05,54.44,1.15,,0.0,0.0,0.0,1.0
1665761106600988658,,2418,,1665761106,600761890,'',,,-3.06,54.14,1.06,,0.0,0.0,0.0,1.0
1665761106700924075,,2419,,1665761106,700653076,'',,,-3.1,53.87,1.14,,0.0,0.0,0.0,1.0
1665761106801609994,,2420,,1665761106,800987005,'',,,-3.18,53.6,1.29,,0.0,0.0,0.0,1.0
1665761106901702886,,2421,,1665761106,901300907,'',,,-3.23,53.33,1.25,,0.0,0.0,0.0,1.0
1665761107000988057,,2422,,1665761107,639915,'',,,-3.3,53.05,1.24,,0.0,0.0,0.0,1.0
1665761107100839909,,2423,,1665761107,100527048,'',,,-3.36,52.76,1.22,,0.0,0.0,0.0,1.0
1665761107201089716,,2424,,1665761107,200653076,'',,,-3.43,52.47,1.2,,0.0,0.0,0.0,1.0
1665761107301116906,,2425,,1665761107,300715923,'',,,-3.51,52.18,1.22,,0.0,0.0,0.0,1.0
1665761107400826887,,2426,,1665761107,400469064,'',,,-3.58,51.89,1.12,,0.0,0.0,0.0,1.0
1665761107501388549,,2427,,1665761107,501076936,'',,,-3.65,51.56,1.03,,0.0,0.0,0.0,1.0
1665761107601132192,,2428,,1665761107,600877046,'',,,-3.74,51.26,1.05,,0.0,0.0,0.0,1.0
1665761107701323781,,2429,,1665761107,700927972,'',,,-3.84,50.96,1.14,,0.0,0.0,0.0,1.0
1665761107801535302,,2430,,1665761107,801196098,'',,,-3.92,50.66,1.15,,0.0,0.0,0.0,1.0
1665761107901675202,,2431,,1665761107,901335954,'',,,-4.0,50.35,1.33,,0.0,0.0,0.0,1.0
1665761108001040428,,2432,,1665761108,724077,'',,,-4.07,50.05,1.43,,0.0,0.0,0.0,1.0
1665761108102148225,,2433,,1665761108,101103067,'',,,-4.14,49.73,1.33,,0.0,0.0,0.0,1.0
1665761108201511378,,2434,,1665761108,201142072,'',,,-4.21,49.42,1.25,,0.0,0.0,0.0,1.0
1665761108301163534,,2435,,1665761108,300839900,'',,,-4.27,49.1,1.14,,0.0,0.0,0.0,1.0
1665761108401265376,,2436,,1665761108,400984048,'',,,-4.32,48.79,1.13,,0.0,0.0,0.0,1.0
1665761108500653045,,2437,,1665761108,500354051,'',,,-4.37,48.49,1.04,,0.0,0.0,0.0,1.0
1665761108601390620,,2438,,1665761108,600600004,'',,,-4.41,48.16,1.08,,0.0,0.0,0.0,1.0
1665761108700991101,,2439,,1665761108,700737953,'',,,-4.46,47.87,1.04,,0.0,0.0,0.0,1.0
1665761108801941951,,2440,,1665761108,800972938,'',,,-4.52,47.55,1.03,,0.0,0.0,0.0,1.0
1665761108901888954,,2441,,1665761108,901388883,'',,,-4.54,47.21,0.97,,0.0,0.0,0.0,1.0
1665761109001291818,,2442,,1665761109,853061,'',,,-4.6,46.9,0.92,,0.0,0.0,0.0,1.0
1665761109101495409,,2443,,1665761109,100933074,'',,,-4.64,46.61,0.95,,0.0,0.0,0.0,1.0
1665761109201296932,,2444,,1665761109,200898885,'',,,-4.7,46.27,0.89,,0.0,0.0,0.0,1.0
1665761109303099372,,2445,,1665761109,302706956,'',,,-4.75,45.94,0.96,,0.0,0.0,0.0,1.0
1665761109402093242,,2446,,1665761109,401782989,'',,,-4.79,45.62,0.93,,0.0,0.0,0.0,1.0
1665761109502046088,,2447,,1665761109,501678943,'',,,-4.83,45.3,0.94,,0.0,0.0,0.0,1.0
1665761109601353872,,2448,,1665761109,601042032,'',,,-4.86,44.98,0.97,,0.0,0.0,0.0,1.0
1665761109700648928,,2449,,1665761109,700344085,'',,,-4.9,44.66,1.09,,0.0,0.0,0.0,1.0
1665761109801841408,,2450,,1665761109,801265001,'',,,-4.94,44.33,1.1,,0.0,0.0,0.0,1.0
1665761109901382472,,2451,,1665761109,901057958,'',,,-4.96,43.98,1.14,,0.0,0.0,0.0,1.0
1665761110000868191,,2452,,1665761110,524997,'',,,-4.99,43.62,1.17,,0.0,0.0,0.0,1.0
1665761110101228166,,2453,,1665761110,100936889,'',,,-5.0,43.33,1.09,,0.0,0.0,0.0,1.0
1665761110201959676,,2454,,1665761110,201395034,'',,,-5.02,42.99,1.07,,0.0,0.0,0.0,1.0
1665761110301274045,,2455,,1665761110,300956010,'',,,-5.06,42.65,1.13,,0.0,0.0,0.0,1.0
1665761110401156983,,2456,,1665761110,400865077,'',,,-5.08,42.3,1.15,,0.0,0.0,0.0,1.0
1665761110501950758,,2457,,1665761110,501588106,'',,,-5.1,41.95,1.24,,0.0,0.0,0.0,1.0
1665761110601691156,,2458,,1665761110,601213932,'',,,-5.11,41.59,1.3,,0.0,0.0,0.0,1.0
1665761110701808211,,2459,,1665761110,701503038,'',,,-5.1,41.27,1.2,,0.0,0.0,0.0,1.0
1665761110801884241,,2460,,1665761110,801542043,'',,,-5.13,40.92,1.31,,0.0,0.0,0.0,1.0
1665761110902001325,,2461,,1665761110,901618957,'',,,-5.13,40.58,1.4,,0.0,0.0,0.0,1.0
1665761110995194204,,2462,,1665761110,994714021,'',,,-5.16,40.25,1.32,,0.0,0.0,0.0,1.0
1665761111102455607,,2463,,1665761111,102056980,'',,,-5.16,39.91,1.2,,0.0,0.0,0.0,1.0
1665761111202057150,,2464,,1665761111,201751947,'',,,-5.16,39.58,1.17,,0.0,0.0,0.0,1.0
1665761111301747125,,2465,,1665761111,301306962,'',,,-5.16,39.2,1.09,,0.0,0.0,0.0,1.0
1665761111402263964,,2466,,1665761111,401967048,'',,,-5.2,38.87,1.12,,0.0,0.0,0.0,1.0
1665761111502823329,,2467,,1665761111,502387046,'',,,-5.2,38.53,1.03,,0.0,0.0,0.0,1.0
1665761111602686276,,2468,,1665761111,602181911,'',,,-5.2,38.19,1.02,,0.0,0.0,0.0,1.0
1665761111702584187,,2469,,1665761111,702208042,'',,,-5.22,37.84,0.99,,0.0,0.0,0.0,1.0
1665761111802536479,,2470,,1665761111,802196025,'',,,-5.23,37.49,0.94,,0.0,0.0,0.0,1.0
1665761111902671154,,2471,,1665761111,902364969,'',,,-5.23,37.15,0.95,,0.0,0.0,0.0,1.0
1665761112002809723,,2472,,1665761112,2398967,'',,,-5.23,36.8,0.93,,0.0,0.0,0.0,1.0
1665761112102154111,,2473,,1665761112,101818084,'',,,-5.24,36.45,1.02,,0.0,0.0,0.0,1.0
1665761112202304647,,2474,,1665761112,201878070,'',,,-5.25,36.1,1.13,,0.0,0.0,0.0,1.0
1665761112302882266,,2475,,1665761112,302376031,'',,,-5.25,35.76,1.09,,0.0,0.0,0.0,1.0
1665761112402920640,,2476,,1665761112,402394056,'',,,-5.25,35.44,1.12,,0.0,0.0,0.0,1.0
1665761112503059703,,2477,,1665761112,502690076,'',,,-5.25,35.09,1.15,,0.0,0.0,0.0,1.0
1665761112602581738,,2478,,1665761112,602339982,'',,,-5.25,34.75,1.15,,0.0,0.0,0.0,1.0
1665761112702154808,,2479,,1665761112,701767921,'',,,-5.23,34.41,1.16,,0.0,0.0,0.0,1.0
1665761112802488576,,2480,,1665761112,802185058,'',,,-5.22,34.08,1.1,,0.0,0.0,0.0,1.0
1665761112902968034,,2481,,1665761112,902559995,'',,,-5.21,33.77,1.03,,0.0,0.0,0.0,1.0
1665761113003016522,,2482,,1665761113,2692937,'',,,-5.14,33.39,1.07,,0.0,0.0,0.0,1.0
1665761113102170871,,2483,,1665761113,101788997,'',,,-5.13,33.08,1.0,,0.0,0.0,0.0,1.0
1665761113202573707,,2484,,1665761113,202229976,'',,,-5.11,32.76,1.07,,0.0,0.0,0.0,1.0
1665761113302605306,,2485,,1665761113,302349090,'',,,-5.08,32.44,1.11,,0.0,0.0,0.0,1.0
1665761113402731997,,2486,,1665761113,402380943,'',,,-5.04,32.11,1.15,,0.0,0.0,0.0,1.0
1665761113502903419,,2487,,1665761113,502655029,'',,,-5.01,31.77,1.17,,0.0,0.0,0.0,1.0
1665761113603018651,,2488,,1665761113,602535963,'',,,-4.91,31.43,1.2,,0.0,0.0,0.0,1.0
1665761113702147557,,2489,,1665761113,701750993,'',,,-4.78,31.12,1.0,,0.0,0.0,0.0,1.0
1665761113795869804,,2490,,1665761113,795272111,'',,,-4.71,30.78,0.84,,0.0,0.0,0.0,1.0
1665761113895234256,,2491,,1665761113,894875049,'',,,-4.62,30.46,0.73,,0.0,0.0,0.0,1.0
1665761114002417401,,2492,,1665761114,2067089,'',,,-4.58,30.15,0.91,,0.0,0.0,0.0,1.0
1665761114103701537,,2493,,1665761114,103182077,'',,,-4.57,29.83,0.8,,0.0,0.0,0.0,1.0
1665761114202854633,,2494,,1665761114,202481031,'',,,-4.51,29.52,0.95,,0.0,0.0,0.0,1.0
1665761114303338036,,2495,,1665761114,303076028,'',,,-4.46,29.2,0.84,,0.0,0.0,0.0,1.0
1665761114403630058,,2496,,1665761114,403147935,'',,,-4.39,28.88,0.95,,0.0,0.0,0.0,1.0
1665761114502867483,,2497,,1665761114,502573013,'',,,-4.29,28.58,1.0,,0.0,0.0,0.0,1.0
1665761114602521987,,2498,,1665761114,602297067,'',,,-4.18,28.27,1.1,,0.0,0.0,0.0,1.0
1665761114702889085,,2499,,1665761114,702663898,'',,,-4.07,27.96,1.06,,0.0,0.0,0.0,1.0
1665761114902480853,,2500,,1665761114,902193069,'',,,-3.92,27.56,1.14,,0.0,0.0,0.0,1.0
1665761115002491680,,2501,,1665761115,2276897,'',,,-3.78,27.22,1.34,,0.0,0.0,0.0,1.0
1665761115102059891,,2502,,1665761115,101871967,'',,,-3.63,26.89,1.41,,0.0,0.0,0.0,1.0
1665761115202682678,,2503,,1665761115,202414989,'',,,-3.49,26.59,1.29,,0.0,0.0,0.0,1.0
1665761115303200154,,2504,,1665761115,302738904,'',,,-3.38,26.25,1.22,,0.0,0.0,0.0,1.0
1665761115402379313,,2505,,1665761115,402173042,'',,,-3.24,25.92,1.14,,0.0,0.0,0.0,1.0
1665761115502723426,,2506,,1665761115,502337932,'',,,-3.13,25.61,1.17,,0.0,0.0,0.0,1.0
1665761115602827083,,2507,,1665761115,602468967,'',,,-3.02,25.3,1.3,,0.0,0.0,0.0,1.0
1665761115696006485,,2508,,1665761115,695425033,'',,,-2.94,24.97,1.16,,0.0,0.0,0.0,1.0
1665761115802933487,,2509,,1665761115,802439928,'',,,-2.81,24.68,1.1,,0.0,0.0,0.0,1.0
1665761115902444347,,2510,,1665761115,902156114,'',,,-2.71,24.37,1.17,,0.0,0.0,0.0,1.0
1665761116002628890,,2511,,1665761116,2293109,'',,,-2.64,24.05,1.17,,0.0,0.0,0.0,1.0
1665761116102214619,,2512,,1665761116,101939916,'',,,-2.54,23.73,1.09,,0.0,0.0,0.0,1.0
1665761116201543178,,2513,,1665761116,201312065,'',,,-2.51,23.43,1.21,,0.0,0.0,0.0,1.0
1665761116302152673,,2514,,1665761116,301949024,'',,,-2.42,23.12,1.11,,0.0,0.0,0.0,1.0
1665761116402637738,,2515,,1665761116,402173042,'',,,-2.32,22.82,1.07,,0.0,0.0,0.0,1.0
1665761116503701175,,2516,,1665761116,503282070,'',,,-2.16,22.54,1.07,,0.0,0.0,0.0,1.0
1665761116602661775,,2517,,1665761116,601994991,'',,,-2.11,22.21,1.03,,0.0,0.0,0.0,1.0
1665761116702714898,,2518,,1665761116,702334880,'',,,-2.04,21.9,1.12,,0.0,0.0,0.0,1.0
1665761116802450965,,2519,,1665761116,802191972,'',,,-1.96,21.6,1.18,,0.0,0.0,0.0,1.0
1665761116902334353,,2520,,1665761116,901912927,'',,,-1.91,21.26,1.17,,0.0,0.0,0.0,1.0
1665761117002481365,,2521,,1665761117,2094984,'',,,-1.84,20.97,1.28,,0.0,0.0,0.0,1.0
1665761117102727987,,2522,,1665761117,102510929,'',,,-1.75,20.69,1.23,,0.0,0.0,0.0,1.0
1665761117202717921,,2523,,1665761117,202218055,'',,,-1.71,20.36,1.31,,0.0,0.0,0.0,1.0
1665761117302181701,,2524,,1665761117,301970958,'',,,-1.64,20.09,1.29,,0.0,0.0,0.0,1.0
1665761117402550970,,2525,,1665761117,402224063,'',,,-1.63,19.76,1.33,,0.0,0.0,0.0,1.0
1665761117502465967,,2526,,1665761117,501944065,'',,,-1.59,19.47,1.38,,0.0,0.0,0.0,1.0
1665761117601924221,,2527,,1665761117,601732969,'',,,-1.59,19.16,1.47,,0.0,0.0,0.0,1.0
1665761117702652553,,2528,,1665761117,702300071,'',,,-1.56,18.82,1.59,,0.0,0.0,0.0,1.0
1665761117802671130,,2529,,1665761117,802254915,'',,,-1.54,18.51,1.56,,0.0,0.0,0.0,1.0
1665761117902143784,,2530,,1665761117,901928901,'',,,-1.5,18.22,1.5,,0.0,0.0,0.0,1.0
1665761118002952093,,2531,,1665761118,2618074,'',,,-1.5,17.9,1.56,,0.0,0.0,0.0,1.0
1665761118101741435,,2532,,1665761118,101351976,'',,,-1.5,17.64,1.54,,0.0,0.0,0.0,1.0
1665761118202176054,,2533,,1665761118,201714038,'',,,-1.49,17.34,1.64,,0.0,0.0,0.0,1.0
1665761118303093453,,2534,,1665761118,302284955,'',,,-1.46,17.07,1.5,,0.0,0.0,0.0,1.0
1665761118402584919,,2535,,1665761118,401885986,'',,,-1.44,16.79,1.51,,0.0,0.0,0.0,1.0
1665761118502575284,,2536,,1665761118,502211093,'',,,-1.42,16.51,1.36,,0.0,0.0,0.0,1.0
1665761118602386184,,2537,,1665761118,602078914,'',,,-1.43,16.22,1.25,,0.0,0.0,0.0,1.0
1665761118701970437,,2538,,1665761118,701663970,'',,,-1.42,15.93,1.26,,0.0,0.0,0.0,1.0
1665761118801949468,,2539,,1665761118,801640987,'',,,-1.44,15.65,1.31,,0.0,0.0,0.0,1.0
1665761118902194106,,2540,,1665761118,901889085,'',,,-1.46,15.37,1.34,,0.0,0.0,0.0,1.0
1665761119002792737,,2541,,1665761119,2291917,'',,,-1.45,15.08,1.26,,0.0,0.0,0.0,1.0
1665761119101989123,,2542,,1665761119,101625919,'',,,-1.44,14.81,1.16,,0.0,0.0,0.0,1.0
1665761119202744397,,2543,,1665761119,202126979,'',,,-1.44,14.54,1.07,,0.0,0.0,0.0,1.0
1665761119301358812,,2544,,1665761119,301129102,'',,,-1.42,14.3,1.1,,0.0,0.0,0.0,1.0
1665761119401866705,,2545,,1665761119,401518106,'',,,-1.43,14.04,1.08,,0.0,0.0,0.0,1.0
1665761119502173727,,2546,,1665761119,501807928,'',,,-1.44,13.78,1.16,,0.0,0.0,0.0,1.0
1665761119601655266,,2547,,1665761119,601188898,'',,,-1.43,13.55,1.13,,0.0,0.0,0.0,1.0
1665761119701960077,,2548,,1665761119,701143026,'',,,-1.39,13.35,1.08,,0.0,0.0,0.0,1.0
1665761119802232832,,2549,,1665761119,801955938,'',,,-1.43,13.13,0.99,,0.0,0.0,0.0,1.0
1665761119902342620,,2550,,1665761119,901829004,'',,,-1.44,12.92,0.89,,0.0,0.0,0.0,1.0
1665761120001341017,,2551,,1665761120,1082897,'',,,-1.4,12.76,0.97,,0.0,0.0,0.0,1.0
1665761120102245571,,2552,,1665761120,101864099,'',,,-1.36,12.61,0.8,,0.0,0.0,0.0,1.0
1665761120195506673,,2553,,1665761120,194977998,'',,,-1.45,12.51,0.72,,0.0,0.0,0.0,1.0
1665761120301918393,,2554,,1665761120,301657915,'',,,-1.48,12.33,0.68,,0.0,0.0,0.0,1.0
1665761120402207741,,2555,,1665761120,401782035,'',,,-1.43,12.2,0.62,,0.0,0.0,0.0,1.0
1665761120502057549,,2556,,1665761120,501480102,'',,,-1.41,12.08,0.78,,0.0,0.0,0.0,1.0
1665761120602337402,,2557,,1665761120,601861000,'',,,-1.49,11.93,0.73,,0.0,0.0,0.0,1.0
1665761120702162309,,2558,,1665761120,701613903,'',,,-1.44,11.84,0.62,,0.0,0.0,0.0,1.0
1665761120801704646,,2559,,1665761120,801378965,'',,,-1.4,11.75,0.55,,0.0,0.0,0.0,1.0
1665761120901694101,,2560,,1665761120,901433944,'',,,-1.37,11.7,0.61,,0.0,0.0,0.0,1.0
1665761121002090298,,2561,,1665761121,1754045,'',,,-1.45,11.59,0.6,,0.0,0.0,0.0,1.0
1665761121102750845,,2562,,1665761121,101538896,'',,,-1.43,11.54,0.57,,0.0,0.0,0.0,1.0
1665761121202299933,,2563,,1665761121,201735019,'',,,-1.39,11.51,0.55,,0.0,0.0,0.0,1.0
1665761121302221800,,2564,,1665761121,301635980,'',,,-1.37,11.5,0.8,,0.0,0.0,0.0,1.0
