rosbagTimestamp,header,seq,stamp,secs,nsecs,frame_id,pose,position,x,y,z,orientation,x,y,z,w
1665761134202855394,,2688,,1665761134,202370882,'',,,-1.32,11.43,0.74,,0.0,0.0,0.0,1.0
1665761134302594838,,2689,,1665761134,302237987,'',,,-1.32,11.42,0.65,,0.0,0.0,0.0,1.0
1665761134402603107,,2690,,1665761134,402240037,'',,,-1.31,11.4,0.77,,0.0,0.0,0.0,1.0
1665761134503074348,,2691,,1665761134,502662897,'',,,-1.31,11.39,0.72,,0.0,0.0,0.0,1.0
1665761134603065657,,2692,,1665761134,602670907,'',,,-1.39,11.33,0.73,,0.0,0.0,0.0,1.0
1665761134695934621,,2693,,1665761134,695586919,'',,,-1.39,11.26,0.76,,0.0,0.0,0.0,1.0
1665761134795868656,,2694,,1665761134,795507907,'',,,-1.39,11.21,0.76,,0.0,0.0,0.0,1.0
1665761134902833036,,2695,,1665761134,902473926,'',,,-1.36,11.18,0.66,,0.0,0.0,0.0,1.0
1665761135002694696,,2696,,1665761135,2393007,'',,,-1.46,11.11,0.67,,0.0,0.0,0.0,1.0
1665761135104052847,,2697,,1665761135,103091955,'',,,-1.39,11.08,0.6,,0.0,0.0,0.0,1.0
1665761135195927964,,2698,,1665761135,195579051,'',,,-1.38,10.97,0.68,,0.0,0.0,0.0,1.0
1665761135302542111,,2699,,1665761135,302181005,'',,,-1.35,10.92,0.77,,0.0,0.0,0.0,1.0
1665761135403170524,,2700,,1665761135,402815103,'',,,-1.44,10.81,0.74,,0.0,0.0,0.0,1.0
1665761135502875414,,2701,,1665761135,502568006,'',,,-1.39,10.75,0.7,,0.0,0.0,0.0,1.0
1665761135603398935,,2702,,1665761135,602854967,'',,,-1.37,10.65,0.72,,0.0,0.0,0.0,1.0
1665761135703230179,,2703,,1665761135,702806949,'',,,-1.35,10.55,0.78,,0.0,0.0,0.0,1.0
1665761135802510012,,2704,,1665761135,802114009,'',,,-1.35,10.4,0.82,,0.0,0.0,0.0,1.0
1665761135902670591,,2705,,1665761135,902137994,'',,,-1.35,10.26,0.89,,0.0,0.0,0.0,1.0
1665761136003141211,,2706,,1665761136,2763032,'',,,-1.32,10.13,0.87,,0.0,0.0,0.0,1.0
1665761136102608848,,2707,,1665761136,102205038,'',,,-1.38,9.94,1.13,,0.0,0.0,0.0,1.0
1665761136202719971,,2708,,1665761136,202269077,'',,,-1.39,9.77,1.08,,0.0,0.0,0.0,1.0
1665761136303101943,,2709,,1665761136,302612066,'',,,-1.37,9.63,1.01,,0.0,0.0,0.0,1.0
1665761136403487591,,2710,,1665761136,402107000,'',,,-1.36,9.47,1.08,,0.0,0.0,0.0,1.0
1665761136502284874,,2711,,1665761136,501943111,'',,,-1.36,9.28,0.99,,0.0,0.0,0.0,1.0
1665761136602965517,,2712,,1665761136,602483987,'',,,-1.38,9.1,1.06,,0.0,0.0,0.0,1.0
1665761136702591576,,2713,,1665761136,702235937,'',,,-1.4,8.9,1.23,,0.0,0.0,0.0,1.0
1665761136802144771,,2714,,1665761136,801862001,'',,,-1.39,8.73,1.19,,0.0,0.0,0.0,1.0
1665761136903322095,,2715,,1665761136,902898073,'',,,-1.46,8.51,1.03,,0.0,0.0,0.0,1.0
1665761137003024927,,2716,,1665761137,2377986,'',,,-1.48,8.31,0.95,,0.0,0.0,0.0,1.0
1665761137102801625,,2717,,1665761137,102224111,'',,,-1.5,8.11,0.89,,0.0,0.0,0.0,1.0
1665761137202515040,,2718,,1665761137,202104091,'',,,-1.56,7.89,0.96,,0.0,0.0,0.0,1.0
1665761137296609485,,2719,,1665761137,296118974,'',,,-1.6,7.71,0.9,,0.0,0.0,0.0,1.0
1665761137401954811,,2720,,1665761137,401715040,'',,,-1.61,7.51,0.92,,0.0,0.0,0.0,1.0
1665761137502550681,,2721,,1665761137,502208948,'',,,-1.64,7.34,0.95,,0.0,0.0,0.0,1.0
1665761137601814205,,2722,,1665761137,601547002,'',,,-1.66,7.17,1.04,,0.0,0.0,0.0,1.0
1665761137702420642,,2723,,1665761137,702090024,'',,,-1.73,6.96,0.94,,0.0,0.0,0.0,1.0
1665761137802910977,,2724,,1665761137,802536964,'',,,-1.8,6.78,0.95,,0.0,0.0,0.0,1.0
1665761137902661889,,2725,,1665761137,902364969,'',,,-1.88,6.58,0.92,,0.0,0.0,0.0,1.0
1665761137996659576,,2726,,1665761137,996041059,'',,,-2.02,6.36,0.9,,0.0,0.0,0.0,1.0
1665761138102631433,,2727,,1665761138,102370977,'',,,-2.04,6.2,1.11,,0.0,0.0,0.0,1.0
1665761138197033252,,2728,,1665761138,196425914,'',,,-2.1,6.03,0.99,,0.0,0.0,0.0,1.0
1665761138296662901,,2729,,1665761138,296035051,'',,,-2.3,5.81,1.05,,0.0,0.0,0.0,1.0
1665761138402329648,,2730,,1665761138,402003049,'',,,-2.39,5.65,1.2,,0.0,0.0,0.0,1.0
1665761138501609295,,2731,,1665761138,501280069,'',,,-2.4,5.51,1.23,,0.0,0.0,0.0,1.0
1665761138603111078,,2732,,1665761138,602569103,'',,,-2.57,5.33,1.13,,0.0,0.0,0.0,1.0
1665761138702887023,,2733,,1665761138,702585935,'',,,-2.66,5.21,1.17,,0.0,0.0,0.0,1.0
1665761138802696982,,2734,,1665761138,802401065,'',,,-2.78,5.06,1.11,,0.0,0.0,0.0,1.0
1665761138902806764,,2735,,1665761138,902427911,'',,,-2.85,4.97,1.15,,0.0,0.0,0.0,1.0
1665761139002946047,,2736,,1665761139,2557992,'',,,-2.95,4.84,1.05,,0.0,0.0,0.0,1.0
1665761139096907860,,2737,,1665761139,96337080,'',,,-3.18,4.66,1.02,,0.0,0.0,0.0,1.0
1665761139202833137,,2738,,1665761139,202483892,'',,,-3.28,4.58,1.09,,0.0,0.0,0.0,1.0
1665761139303433436,,2739,,1665761139,302980899,'',,,-3.41,4.49,1.06,,0.0,0.0,0.0,1.0
1665761139403317881,,2740,,1665761139,402757883,'',,,-3.52,4.43,1.01,,0.0,0.0,0.0,1.0
1665761139502472895,,2741,,1665761139,502167940,'',,,-3.64,4.35,0.92,,0.0,0.0,0.0,1.0
1665761139602857456,,2742,,1665761139,602632045,'',,,-3.76,4.31,0.97,,0.0,0.0,0.0,1.0
1665761139702494561,,2743,,1665761139,702229022,'',,,-3.94,4.2,0.9,,0.0,0.0,0.0,1.0
1665761139802458823,,2744,,1665761139,802165985,'',,,-4.07,4.16,1.01,,0.0,0.0,0.0,1.0
1665761139902981600,,2745,,1665761139,902637958,'',,,-4.21,4.11,1.09,,0.0,0.0,0.0,1.0
1665761139996663470,,2746,,1665761139,996172904,'',,,-4.42,4.03,1.24,,0.0,0.0,0.0,1.0
1665761140102519474,,2747,,1665761140,102092027,'',,,-4.57,3.98,1.23,,0.0,0.0,0.0,1.0
1665761140202735629,,2748,,1665761140,202343940,'',,,-4.74,3.93,1.11,,0.0,0.0,0.0,1.0
1665761140302890383,,2749,,1665761140,302377939,'',,,-4.87,3.91,1.19,,0.0,0.0,0.0,1.0
1665761140402935000,,2750,,1665761140,402407884,'',,,-5.04,3.87,1.08,,0.0,0.0,0.0,1.0
1665761140502973217,,2751,,1665761140,502473115,'',,,-5.17,3.9,1.05,,0.0,0.0,0.0,1.0
1665761140602833155,,2752,,1665761140,602469921,'',,,-5.29,3.93,1.15,,0.0,0.0,0.0,1.0
1665761140702550194,,2753,,1665761140,702183008,'',,,-5.42,3.94,1.14,,0.0,0.0,0.0,1.0
1665761140802558721,,2754,,1665761140,802299976,'',,,-5.55,3.96,1.13,,0.0,0.0,0.0,1.0
1665761140896155147,,2755,,1665761140,895632028,'',,,-5.65,4.0,1.07,,0.0,0.0,0.0,1.0
1665761140996332385,,2756,,1665761140,995886087,'',,,-5.81,4.02,1.01,,0.0,0.0,0.0,1.0
1665761141103224844,,2757,,1665761141,102859020,'',,,-5.95,4.07,1.06,,0.0,0.0,0.0,1.0
1665761141202987654,,2758,,1665761141,202444076,'',,,-6.1,4.09,1.03,,0.0,0.0,0.0,1.0
1665761141303088004,,2759,,1665761141,302412033,'',,,-6.25,4.11,1.03,,0.0,0.0,0.0,1.0
1665761141402923123,,2760,,1665761141,402362108,'',,,-6.38,4.16,0.97,,0.0,0.0,0.0,1.0
1665761141502548008,,2761,,1665761141,502016067,'',,,-6.5,4.21,0.92,,0.0,0.0,0.0,1.0
1665761141602335080,,2762,,1665761141,601953983,'',,,-6.64,4.24,0.88,,0.0,0.0,0.0,1.0
1665761141702770590,,2763,,1665761141,702328920,'',,,-6.79,4.26,0.92,,0.0,0.0,0.0,1.0
1665761141802283768,,2764,,1665761141,801289081,'',,,-6.91,4.33,1.16,,0.0,0.0,0.0,1.0
1665761141902828981,,2765,,1665761141,902551889,'',,,-7.02,4.41,1.11,,0.0,0.0,0.0,1.0
1665761142003124188,,2766,,1665761142,2727985,'',,,-7.13,4.49,1.03,,0.0,0.0,0.0,1.0
1665761142102578801,,2767,,1665761142,102261066,'',,,-7.27,4.52,0.97,,0.0,0.0,0.0,1.0
1665761142203078921,,2768,,1665761142,202183961,'',,,-7.39,4.61,0.95,,0.0,0.0,0.0,1.0
1665761142303138490,,2769,,1665761142,302648067,'',,,-7.5,4.7,0.95,,0.0,0.0,0.0,1.0
1665761142402528118,,2770,,1665761142,402230978,'',,,-7.6,4.8,0.94,,0.0,0.0,0.0,1.0
1665761142502549225,,2771,,1665761142,502227067,'',,,-7.69,4.92,0.99,,0.0,0.0,0.0,1.0
1665761142602778100,,2772,,1665761142,602493047,'',,,-7.86,5.0,0.89,,0.0,0.0,0.0,1.0
1665761142703250685,,2773,,1665761142,702585935,'',,,-7.93,5.12,1.07,,0.0,0.0,0.0,1.0
1665761142802484606,,2774,,1665761142,802197933,'',,,-8.01,5.26,1.12,,0.0,0.0,0.0,1.0
1665761142902494107,,2775,,1665761142,902211904,'',,,-8.08,5.41,1.1,,0.0,0.0,0.0,1.0
1665761143002736371,,2776,,1665761143,2345085,'',,,-8.15,5.56,1.17,,0.0,0.0,0.0,1.0
1665761143102626310,,2777,,1665761143,102338075,'',,,-8.23,5.68,1.14,,0.0,0.0,0.0,1.0
1665761143203068904,,2778,,1665761143,202800035,'',,,-8.3,5.82,1.22,,0.0,0.0,0.0,1.0
1665761143302807982,,2779,,1665761143,302438020,'',,,-8.37,5.95,1.15,,0.0,0.0,0.0,1.0
1665761143402520366,,2780,,1665761143,402314901,'',,,-8.43,6.09,1.16,,0.0,0.0,0.0,1.0
1665761143503293565,,2781,,1665761143,502784013,'',,,-8.49,6.24,1.23,,0.0,0.0,0.0,1.0
1665761143603626444,,2782,,1665761143,603022098,'',,,-8.53,6.4,1.24,,0.0,0.0,0.0,1.0
1665761143703071823,,2783,,1665761143,702699899,'',,,-8.58,6.54,1.27,,0.0,0.0,0.0,1.0
1665761143803183950,,2784,,1665761143,802649021,'',,,-8.64,6.71,1.31,,0.0,0.0,0.0,1.0
1665761143902786674,,2785,,1665761143,902538061,'',,,-8.67,6.85,1.17,,0.0,0.0,0.0,1.0
1665761144002776664,,2786,,1665761144,2532958,'',,,-8.7,7.0,1.1,,0.0,0.0,0.0,1.0
1665761144103164926,,2787,,1665761144,102729082,'',,,-8.75,7.18,1.12,,0.0,0.0,0.0,1.0
1665761144203763243,,2788,,1665761144,203474998,'',,,-8.79,7.36,1.04,,0.0,0.0,0.0,1.0
1665761144303621174,,2789,,1665761144,303308963,'',,,-8.82,7.54,0.97,,0.0,0.0,0.0,1.0
1665761144403672128,,2790,,1665761144,403398990,'',,,-8.85,7.73,0.89,,0.0,0.0,0.0,1.0
1665761144503722773,,2791,,1665761144,503432035,'',,,-8.88,7.94,0.86,,0.0,0.0,0.0,1.0
1665761144604428040,,2792,,1665761144,603555917,'',,,-8.9,8.15,0.89,,0.0,0.0,0.0,1.0
1665761144703299614,,2793,,1665761144,703057050,'',,,-8.92,8.35,1.08,,0.0,0.0,0.0,1.0
1665761144803630587,,2794,,1665761144,803147077,'',,,-8.92,8.55,1.01,,0.0,0.0,0.0,1.0
1665761144903618662,,2795,,1665761144,903295993,'',,,-8.91,8.77,1.04,,0.0,0.0,0.0,1.0
1665761145003392228,,2796,,1665761145,3112077,'',,,-8.9,8.99,1.05,,0.0,0.0,0.0,1.0
1665761145103563406,,2797,,1665761145,103312015,'',,,-8.92,9.23,0.96,,0.0,0.0,0.0,1.0
1665761145203650482,,2798,,1665761145,203289031,'',,,-8.91,9.48,1.01,,0.0,0.0,0.0,1.0
1665761145303896587,,2799,,1665761145,303657054,'',,,-8.93,9.75,1.08,,0.0,0.0,0.0,1.0
1665761145403790859,,2800,,1665761145,403522968,'',,,-8.94,10.05,1.13,,0.0,0.0,0.0,1.0
1665761145503977371,,2801,,1665761145,503441095,'',,,-8.96,10.32,1.12,,0.0,0.0,0.0,1.0
1665761145603606523,,2802,,1665761145,603305101,'',,,-8.96,10.61,1.12,,0.0,0.0,0.0,1.0
1665761145704529125,,2803,,1665761145,704019069,'',,,-8.97,10.89,1.17,,0.0,0.0,0.0,1.0
1665761145804011360,,2804,,1665761145,803663015,'',,,-8.98,11.18,1.2,,0.0,0.0,0.0,1.0
1665761145903875180,,2805,,1665761145,903592109,'',,,-8.97,11.45,1.16,,0.0,0.0,0.0,1.0
1665761146003955366,,2806,,1665761146,3559112,'',,,-8.95,11.73,1.23,,0.0,0.0,0.0,1.0
1665761146103823118,,2807,,1665761146,103312969,'',,,-8.94,12.01,1.16,,0.0,0.0,0.0,1.0
1665761146204023887,,2808,,1665761146,203682899,'',,,-8.92,12.3,1.11,,0.0,0.0,0.0,1.0
1665761146303656989,,2809,,1665761146,303388118,'',,,-8.94,12.64,0.99,,0.0,0.0,0.0,1.0
1665761146403386278,,2810,,1665761146,403084993,'',,,-8.93,12.95,0.91,,0.0,0.0,0.0,1.0
1665761146503536998,,2811,,1665761146,503101110,'',,,-8.92,13.26,0.83,,0.0,0.0,0.0,1.0
1665761146603457639,,2812,,1665761146,603113889,'',,,-8.91,13.58,0.85,,0.0,0.0,0.0,1.0
1665761146703115862,,2813,,1665761146,702868938,'',,,-8.9,13.9,0.81,,0.0,0.0,0.0,1.0
1665761146804028594,,2814,,1665761146,803318977,'',,,-8.9,14.22,0.84,,0.0,0.0,0.0,1.0
1665761146904120583,,2815,,1665761146,903778076,'',,,-8.88,14.55,0.8,,0.0,0.0,0.0,1.0
1665761147004493878,,2816,,1665761147,4168987,'',,,-8.9,14.93,0.81,,0.0,0.0,0.0,1.0
1665761147104775952,,2817,,1665761147,104365110,'',,,-8.87,15.29,1.04,,0.0,0.0,0.0,1.0
1665761147204328751,,2818,,1665761147,204065084,'',,,-8.83,15.62,0.9,,0.0,0.0,0.0,1.0
1665761147304890876,,2819,,1665761147,304518938,'',,,-8.79,15.98,0.85,,0.0,0.0,0.0,1.0
1665761147403976957,,2820,,1665761147,403614997,'',,,-8.78,16.33,1.0,,0.0,0.0,0.0,1.0
1665761147504925095,,2821,,1665761147,504617929,'',,,-8.73,16.69,0.99,,0.0,0.0,0.0,1.0
1665761147604394408,,2822,,1665761147,604125022,'',,,-8.69,17.06,0.88,,0.0,0.0,0.0,1.0
1665761147704605837,,2823,,1665761147,704365015,'',,,-8.7,17.43,0.79,,0.0,0.0,0.0,1.0
1665761147804412573,,2824,,1665761147,804153919,'',,,-8.71,17.8,0.94,,0.0,0.0,0.0,1.0
1665761147905404892,,2825,,1665761147,903961896,'',,,-8.71,18.18,0.93,,0.0,0.0,0.0,1.0
1665761148004364730,,2826,,1665761148,3978967,'',,,-8.71,18.55,0.98,,0.0,0.0,0.0,1.0
1665761148104416539,,2827,,1665761148,103898048,'',,,-8.73,18.87,0.96,,0.0,0.0,0.0,1.0
1665761148204352100,,2828,,1665761148,203886985,'',,,-8.71,19.25,1.11,,0.0,0.0,0.0,1.0
1665761148304055638,,2829,,1665761148,303814888,'',,,-8.73,19.59,1.08,,0.0,0.0,0.0,1.0
1665761148403689961,,2830,,1665761148,403446912,'',,,-8.7,20.02,0.96,,0.0,0.0,0.0,1.0
1665761148504510231,,2831,,1665761148,504070997,'',,,-8.7,20.38,0.99,,0.0,0.0,0.0,1.0
1665761148604428229,,2832,,1665761148,604087114,'',,,-8.71,20.76,1.12,,0.0,0.0,0.0,1.0
1665761148704343125,,2833,,1665761148,703905105,'',,,-8.73,21.11,1.02,,0.0,0.0,0.0,1.0
1665761148803982691,,2834,,1665761148,803667068,'',,,-8.72,21.48,1.17,,0.0,0.0,0.0,1.0
1665761148905164562,,2835,,1665761148,904771089,'',,,-8.72,21.86,1.06,,0.0,0.0,0.0,1.0
1665761149004855060,,2836,,1665761149,4127979,'',,,-8.7,22.28,0.96,,0.0,0.0,0.0,1.0
1665761149104812699,,2837,,1665761149,104052066,'',,,-8.69,22.68,1.17,,0.0,0.0,0.0,1.0
1665761149204186311,,2838,,1665761149,203907012,'',,,-8.7,23.05,1.26,,0.0,0.0,0.0,1.0
1665761149304842497,,2839,,1665761149,304436922,'',,,-8.71,23.42,1.14,,0.0,0.0,0.0,1.0
1665761149404231060,,2840,,1665761149,404027938,'',,,-8.67,23.86,1.06,,0.0,0.0,0.0,1.0
1665761149504747846,,2841,,1665761149,504359006,'',,,-8.66,24.27,1.21,,0.0,0.0,0.0,1.0
1665761149604863670,,2842,,1665761149,604026079,'',,,-8.64,24.68,1.2,,0.0,0.0,0.0,1.0
1665761149703876050,,2843,,1665761149,703568935,'',,,-8.65,25.04,1.17,,0.0,0.0,0.0,1.0
1665761149805102294,,2844,,1665761149,804687023,'',,,-8.63,25.46,1.09,,0.0,0.0,0.0,1.0
1665761149904103143,,2845,,1665761149,903789997,'',,,-8.61,25.86,1.16,,0.0,0.0,0.0,1.0
1665761150004545955,,2846,,1665761150,4224061,'',,,-8.61,26.25,1.22,,0.0,0.0,0.0,1.0
1665761150104923372,,2847,,1665761150,104502916,'',,,-8.59,26.65,1.19,,0.0,0.0,0.0,1.0
1665761150204670561,,2848,,1665761150,204279899,'',,,-8.57,27.02,1.3,,0.0,0.0,0.0,1.0
1665761150304930138,,2849,,1665761150,304342985,'',,,-8.54,27.46,1.31,,0.0,0.0,0.0,1.0
1665761150404568303,,2850,,1665761150,404295921,'',,,-8.52,27.88,1.25,,0.0,0.0,0.0,1.0
1665761150504324877,,2851,,1665761150,503979921,'',,,-8.52,28.24,1.14,,0.0,0.0,0.0,1.0
1665761150604821968,,2852,,1665761150,604521989,'',,,-8.49,28.56,1.06,,0.0,0.0,0.0,1.0
1665761150705757524,,2853,,1665761150,705092906,'',,,-8.46,28.9,0.99,,0.0,0.0,0.0,1.0
1665761150803817245,,2854,,1665761150,803503036,'',,,-8.48,29.33,1.17,,0.0,0.0,0.0,1.0
1665761150903676783,,2855,,1665761150,903455972,'',,,-8.52,29.77,1.07,,0.0,0.0,0.0,1.0
1665761151004571842,,2856,,1665761151,4358053,'',,,-8.48,30.13,0.99,,0.0,0.0,0.0,1.0
1665761151097617753,,2857,,1665761151,97285985,'',,,-8.46,30.5,1.05,,0.0,0.0,0.0,1.0
1665761151203355125,,2858,,1665761151,203125953,'',,,-8.5,30.94,0.94,,0.0,0.0,0.0,1.0
1665761151303562581,,2859,,1665761151,303309917,'',,,-8.53,31.37,0.86,,0.0,0.0,0.0,1.0
1665761151403481832,,2860,,1665761151,403204917,'',,,-8.56,31.8,0.83,,0.0,0.0,0.0,1.0
1665761151504330533,,2861,,1665761151,503914117,'',,,-8.56,32.19,0.87,,0.0,0.0,0.0,1.0
1665761151604475473,,2862,,1665761151,604283094,'',,,-8.51,32.52,0.89,,0.0,0.0,0.0,1.0
1665761151704449246,,2863,,1665761151,704230070,'',,,-8.49,32.87,0.95,,0.0,0.0,0.0,1.0
1665761151797718262,,2864,,1665761151,797106981,'',,,-8.47,33.24,0.89,,0.0,0.0,0.0,1.0
1665761151904528922,,2865,,1665761151,904150962,'',,,-8.43,33.59,0.93,,0.0,0.0,0.0,1.0
1665761152004205537,,2866,,1665761152,3576040,'',,,-8.41,33.95,0.88,,0.0,0.0,0.0,1.0
1665761152097730877,,2867,,1665761152,97201108,'',,,-8.48,34.4,1.0,,0.0,0.0,0.0,1.0
1665761152204455898,,2868,,1665761152,203753948,'',,,-8.45,34.74,0.99,,0.0,0.0,0.0,1.0
1665761152303468262,,2869,,1665761152,303139925,'',,,-8.42,35.09,1.23,,0.0,0.0,0.0,1.0
1665761152397653684,,2870,,1665761152,397244930,'',,,-8.45,35.5,1.26,,0.0,0.0,0.0,1.0
1665761152505604602,,2871,,1665761152,505017042,'',,,-8.41,35.86,1.27,,0.0,0.0,0.0,1.0
1665761152604660424,,2872,,1665761152,604382038,'',,,-8.38,36.21,1.14,,0.0,0.0,0.0,1.0
1665761152697877451,,2873,,1665761152,697257995,'',,,-8.37,36.58,1.03,,0.0,0.0,0.0,1.0
1665761152805088923,,2874,,1665761152,804151058,'',,,-8.35,36.94,0.89,,0.0,0.0,0.0,1.0
1665761152903083484,,2875,,1665761152,902853012,'',,,-8.34,37.3,1.06,,0.0,0.0,0.0,1.0
1665761152997088545,,2876,,1665761152,996511936,'',,,-8.33,37.71,1.04,,0.0,0.0,0.0,1.0
1665761153103763283,,2877,,1665761153,103523015,'',,,-8.33,38.04,0.93,,0.0,0.0,0.0,1.0
1665761153203679254,,2878,,1665761153,203447103,'',,,-8.33,38.4,0.98,,0.0,0.0,0.0,1.0
1665761153297491032,,2879,,1665761153,296814918,'',,,-8.33,38.78,0.94,,0.0,0.0,0.0,1.0
1665761153403457834,,2880,,1665761153,403232097,'',,,-8.34,39.13,0.93,,0.0,0.0,0.0,1.0
1665761153503451662,,2881,,1665761153,503237009,'',,,-8.36,39.46,0.99,,0.0,0.0,0.0,1.0
1665761153603985392,,2882,,1665761153,603521108,'',,,-8.37,39.8,1.03,,0.0,0.0,0.0,1.0
1665761153704217244,,2883,,1665761153,703907966,'',,,-8.39,40.12,0.92,,0.0,0.0,0.0,1.0
1665761153803899751,,2884,,1665761153,803596019,'',,,-8.41,40.43,0.87,,0.0,0.0,0.0,1.0
1665761153897376841,,2885,,1665761153,896970987,'',,,-8.43,40.77,0.83,,0.0,0.0,0.0,1.0
1665761154003821806,,2886,,1665761154,3546953,'',,,-8.46,41.1,1.08,,0.0,0.0,0.0,1.0
1665761154103511849,,2887,,1665761154,103198051,'',,,-8.49,41.47,1.07,,0.0,0.0,0.0,1.0
1665761154204386254,,2888,,1665761154,203572988,'',,,-8.55,41.86,1.05,,0.0,0.0,0.0,1.0
1665761154304437340,,2889,,1665761154,303949117,'',,,-8.59,42.19,1.04,,0.0,0.0,0.0,1.0
1665761154403589700,,2890,,1665761154,403337955,'',,,-8.64,42.57,1.05,,0.0,0.0,0.0,1.0
1665761154503571503,,2891,,1665761154,503288984,'',,,-8.7,42.9,1.06,,0.0,0.0,0.0,1.0
1665761154603951893,,2892,,1665761154,603637933,'',,,-8.75,43.21,1.12,,0.0,0.0,0.0,1.0
1665761154703892352,,2893,,1665761154,703469038,'',,,-8.83,43.54,1.18,,0.0,0.0,0.0,1.0
1665761154804134589,,2894,,1665761154,803663969,'',,,-8.91,43.85,1.19,,0.0,0.0,0.0,1.0
1665761154903781266,,2895,,1665761154,903465986,'',,,-9.0,44.17,1.14,,0.0,0.0,0.0,1.0
1665761155005378844,,2896,,1665761155,3756046,'',,,-9.09,44.5,1.18,,0.0,0.0,0.0,1.0
1665761155105626219,,2897,,1665761155,103621959,'',,,-9.19,44.83,1.23,,0.0,0.0,0.0,1.0
1665761155204095030,,2898,,1665761155,203686952,'',,,-9.29,45.15,1.37,,0.0,0.0,0.0,1.0
1665761155303804411,,2899,,1665761155,303491115,'',,,-9.41,45.48,1.47,,0.0,0.0,0.0,1.0
1665761155397859162,,2900,,1665761155,397476911,'',,,-9.54,45.82,1.35,,0.0,0.0,0.0,1.0
1665761155503881143,,2901,,1665761155,503566026,'',,,-9.67,46.11,1.31,,0.0,0.0,0.0,1.0
1665761155597539253,,2902,,1665761155,597172021,'',,,-9.81,46.39,1.22,,0.0,0.0,0.0,1.0
1665761155703898158,,2903,,1665761155,703628063,'',,,-9.92,46.7,1.34,,0.0,0.0,0.0,1.0
1665761155804750071,,2904,,1665761155,804290056,'',,,-10.05,47.01,1.34,,0.0,0.0,0.0,1.0
1665761155904291583,,2905,,1665761155,903904914,'',,,-10.18,47.31,1.39,,0.0,0.0,0.0,1.0
1665761156005100854,,2906,,1665761156,4492998,'',,,-10.34,47.6,1.43,,0.0,0.0,0.0,1.0
1665761156104372962,,2907,,1665761156,103894948,'',,,-10.5,47.91,1.49,,0.0,0.0,0.0,1.0
1665761156204304491,,2908,,1665761156,203996896,'',,,-10.66,48.21,1.54,,0.0,0.0,0.0,1.0
1665761156298094569,,2909,,1665761156,297444105,'',,,-10.81,48.51,1.39,,0.0,0.0,0.0,1.0
1665761156404775179,,2910,,1665761156,404472112,'',,,-10.95,48.8,1.27,,0.0,0.0,0.0,1.0
1665761156504800894,,2911,,1665761156,503942966,'',,,-11.08,49.09,1.35,,0.0,0.0,0.0,1.0
1665761156604798450,,2912,,1665761156,604429960,'',,,-11.23,49.41,1.35,,0.0,0.0,0.0,1.0
1665761156704892585,,2913,,1665761156,704298019,'',,,-11.34,49.67,1.24,,0.0,0.0,0.0,1.0
1665761156804089665,,2914,,1665761156,803853988,'',,,-11.43,49.93,1.15,,0.0,0.0,0.0,1.0
1665761156905035097,,2915,,1665761156,904728889,'',,,-11.57,50.25,1.18,,0.0,0.0,0.0,1.0
1665761157004482284,,2916,,1665761157,4261016,'',,,-11.66,50.52,1.13,,0.0,0.0,0.0,1.0
1665761157104151258,,2917,,1665761157,103869915,'',,,-11.75,50.8,1.01,,0.0,0.0,0.0,1.0
1665761157205215902,,2918,,1665761157,204757928,'',,,-11.84,51.11,1.03,,0.0,0.0,0.0,1.0
1665761157298797170,,2919,,1665761157,298201084,'',,,-12.0,51.5,0.98,,0.0,0.0,0.0,1.0
1665761157404389742,,2920,,1665761157,404140949,'',,,-12.03,51.77,0.93,,0.0,0.0,0.0,1.0
1665761157504874678,,2921,,1665761157,504550933,'',,,-12.08,52.07,0.98,,0.0,0.0,0.0,1.0
1665761157605047983,,2922,,1665761157,604818105,'',,,-12.12,52.38,1.02,,0.0,0.0,0.0,1.0
1665761157698299565,,2923,,1665761157,697846889,'',,,-12.21,52.74,1.12,,0.0,0.0,0.0,1.0
1665761157798076515,,2924,,1665761157,797660112,'',,,-12.26,53.08,1.13,,0.0,0.0,0.0,1.0
1665761157898134938,,2925,,1665761157,897715091,'',,,-12.28,53.4,1.04,,0.0,0.0,0.0,1.0
1665761157998171921,,2926,,1665761157,997627973,'',,,-12.28,53.71,1.22,,0.0,0.0,0.0,1.0
1665761158097918738,,2927,,1665761158,97560882,'',,,-12.28,54.01,1.09,,0.0,0.0,0.0,1.0
1665761158204760846,,2928,,1665761158,204442024,'',,,-12.25,54.32,1.19,,0.0,0.0,0.0,1.0
1665761158305387292,,2929,,1665761158,305123090,'',,,-12.24,54.65,1.14,,0.0,0.0,0.0,1.0
1665761158405872674,,2930,,1665761158,405388116,'',,,-12.21,54.98,1.05,,0.0,0.0,0.0,1.0
1665761158505223380,,2931,,1665761158,504930019,'',,,-12.09,55.22,1.03,,0.0,0.0,0.0,1.0
1665761158604979337,,2932,,1665761158,604533910,'',,,-11.95,55.49,1.12,,0.0,0.0,0.0,1.0
1665761158704837029,,2933,,1665761158,704261064,'',,,-11.83,55.75,1.19,,0.0,0.0,0.0,1.0
1665761158804555898,,2934,,1665761158,804303884,'',,,-11.71,56.0,1.24,,0.0,0.0,0.0,1.0
1665761158904354973,,2935,,1665761158,904072046,'',,,-11.57,56.28,1.16,,0.0,0.0,0.0,1.0
1665761159005485907,,2936,,1665761159,4714012,'',,,-11.42,56.5,1.07,,0.0,0.0,0.0,1.0
1665761159104654164,,2937,,1665761159,104387044,'',,,-11.24,56.72,1.22,,0.0,0.0,0.0,1.0
1665761159203689348,,2938,,1665761159,203437089,'',,,-11.08,56.94,1.1,,0.0,0.0,0.0,1.0
1665761159297627534,,2939,,1665761159,297008991,'',,,-10.89,57.19,1.01,,0.0,0.0,0.0,1.0
1665761159405024371,,2940,,1665761159,404433012,'',,,-10.74,57.38,0.96,,0.0,0.0,0.0,1.0
1665761159504665569,,2941,,1665761159,504193067,'',,,-10.58,57.53,0.96,,0.0,0.0,0.0,1.0
1665761159597748131,,2942,,1665761159,597345113,'',,,-10.4,57.71,1.13,,0.0,0.0,0.0,1.0
1665761159704898655,,2943,,1665761159,704583883,'',,,-10.2,57.88,1.27,,0.0,0.0,0.0,1.0
1665761159804155621,,2944,,1665761159,803741931,'',,,-10.02,58.02,1.2,,0.0,0.0,0.0,1.0
1665761159897030838,,2945,,1665761159,896791934,'',,,-9.79,58.2,1.02,,0.0,0.0,0.0,1.0
1665761160005039261,,2946,,1665761160,4714965,'',,,-9.59,58.29,0.93,,0.0,0.0,0.0,1.0
1665761160104618161,,2947,,1665761160,104226112,'',,,-9.39,58.36,1.15,,0.0,0.0,0.0,1.0
1665761160197438154,,2948,,1665761160,196994066,'',,,-9.15,58.48,1.06,,0.0,0.0,0.0,1.0
1665761160305644661,,2949,,1665761160,305046081,'',,,-8.93,58.53,0.95,,0.0,0.0,0.0,1.0
1665761160404854505,,2950,,1665761160,404485940,'',,,-8.72,58.58,0.87,,0.0,0.0,0.0,1.0
1665761160497759120,,2951,,1665761160,497188091,'',,,-8.48,58.67,0.94,,0.0,0.0,0.0,1.0
1665761160605373022,,2952,,1665761160,604770898,'',,,-8.25,58.69,0.92,,0.0,0.0,0.0,1.0
1665761160704782057,,2953,,1665761160,704473972,'',,,-8.03,58.68,0.91,,0.0,0.0,0.0,1.0
1665761160805007001,,2954,,1665761160,804692029,'',,,-7.79,58.69,0.97,,0.0,0.0,0.0,1.0
1665761160905678368,,2955,,1665761160,905230045,'',,,-7.55,58.67,0.96,,0.0,0.0,0.0,1.0
1665761161005101198,,2956,,1665761161,4791975,'',,,-7.34,58.71,1.02,,0.0,0.0,0.0,1.0
1665761161097780412,,2957,,1665761161,97264051,'',,,-7.07,58.72,0.94,,0.0,0.0,0.0,1.0
1665761161205221494,,2958,,1665761161,204668998,'',,,-6.84,58.64,1.05,,0.0,0.0,0.0,1.0
1665761161304945569,,2959,,1665761161,304332971,'',,,-6.63,58.56,1.14,,0.0,0.0,0.0,1.0
1665761161397527562,,2960,,1665761161,397032976,'',,,-6.39,58.53,1.3,,0.0,0.0,0.0,1.0
1665761161504335121,,2961,,1665761161,503962039,'',,,-6.17,58.42,1.33,,0.0,0.0,0.0,1.0
1665761161604194517,,2962,,1665761161,603831052,'',,,-5.95,58.31,1.3,,0.0,0.0,0.0,1.0
1665761161697830257,,2963,,1665761161,697328090,'',,,-5.7,58.27,1.21,,0.0,0.0,0.0,1.0
1665761161804699640,,2964,,1665761161,804234981,'',,,-5.5,58.13,1.19,,0.0,0.0,0.0,1.0
1665761161904229818,,2965,,1665761161,904009103,'',,,-5.31,58.0,1.19,,0.0,0.0,0.0,1.0
1665761161997924099,,2966,,1665761161,997332096,'',,,-5.09,57.9,1.08,,0.0,0.0,0.0,1.0
1665761162104825310,,2967,,1665761162,104229927,'',,,-4.92,57.73,1.15,,0.0,0.0,0.0,1.0
1665761162204054924,,2968,,1665761162,203799962,'',,,-4.75,57.54,1.32,,0.0,0.0,0.0,1.0
1665761162298091509,,2969,,1665761162,297380924,'',,,-4.62,57.37,1.27,,0.0,0.0,0.0,1.0
1665761162403233286,,2970,,1665761162,402865886,'',,,-4.48,57.19,1.2,,0.0,0.0,0.0,1.0
1665761162503428070,,2971,,1665761162,502938032,'',,,-4.33,57.0,1.14,,0.0,0.0,0.0,1.0
1665761162598190814,,2972,,1665761162,597568035,'',,,-4.18,56.81,1.05,,0.0,0.0,0.0,1.0
1665761162705113228,,2973,,1665761162,704076051,'',,,-4.03,56.6,1.09,,0.0,0.0,0.0,1.0
1665761162805040230,,2974,,1665761162,803621053,'',,,-3.9,56.4,1.1,,0.0,0.0,0.0,1.0
1665761162903429851,,2975,,1665761162,903208971,'',,,-3.78,56.17,1.16,,0.0,0.0,0.0,1.0
1665761163004389151,,2976,,1665761163,3988981,'',,,-3.68,55.95,1.15,,0.0,0.0,0.0,1.0
1665761163103922216,,2977,,1665761163,103612899,'',,,-3.58,55.76,1.1,,0.0,0.0,0.0,1.0
1665761163204153542,,2978,,1665761163,203694105,'',,,-3.5,55.53,1.12,,0.0,0.0,0.0,1.0
1665761163304308139,,2979,,1665761163,303951025,'',,,-3.44,55.28,1.17,,0.0,0.0,0.0,1.0
1665761163403962757,,2980,,1665761163,403743028,'',,,-3.39,55.06,1.23,,0.0,0.0,0.0,1.0
1665761163504017900,,2981,,1665761163,503797054,'',,,-3.32,54.8,1.14,,0.0,0.0,0.0,1.0
1665761163605201640,,2982,,1665761163,604734897,'',,,-3.29,54.57,1.06,,0.0,0.0,0.0,1.0
1665761163704336016,,2983,,1665761163,703962087,'',,,-3.27,54.33,1.12,,0.0,0.0,0.0,1.0
1665761163804231899,,2984,,1665761163,803878068,'',,,-3.28,54.08,1.28,,0.0,0.0,0.0,1.0
1665761163904560503,,2985,,1665761163,904274940,'',,,-3.25,53.81,1.18,,0.0,0.0,0.0,1.0
1665761164004515029,,2986,,1665761164,4147052,'',,,-3.29,53.58,1.06,,0.0,0.0,0.0,1.0
1665761164105013222,,2987,,1665761164,104243040,'',,,-3.32,53.33,1.11,,0.0,0.0,0.0,1.0
1665761164205092216,,2988,,1665761164,204600095,'',,,-3.36,53.05,1.1,,0.0,0.0,0.0,1.0
1665761164304330052,,2989,,1665761164,303875923,'',,,-3.4,52.8,1.17,,0.0,0.0,0.0,1.0
1665761164404217432,,2990,,1665761164,403922080,'',,,-3.44,52.54,1.19,,0.0,0.0,0.0,1.0
1665761164504731080,,2991,,1665761164,504189968,'',,,-3.51,52.27,1.23,,0.0,0.0,0.0,1.0
1665761164604385792,,2992,,1665761164,604054927,'',,,-3.53,51.97,1.12,,0.0,0.0,0.0,1.0
1665761164704194287,,2993,,1665761164,703886032,'',,,-3.63,51.71,1.2,,0.0,0.0,0.0,1.0
1665761164804545838,,2994,,1665761164,804229974,'',,,-3.7,51.45,1.2,,0.0,0.0,0.0,1.0
1665761164904674549,,2995,,1665761164,904052019,'',,,-3.78,51.17,1.22,,0.0,0.0,0.0,1.0
1665761165004702261,,2996,,1665761165,4204988,'',,,-3.85,50.89,1.18,,0.0,0.0,0.0,1.0
1665761165104557568,,2997,,1665761165,104247093,'',,,-3.95,50.6,1.02,,0.0,0.0,0.0,1.0
1665761165204499325,,2998,,1665761165,204161882,'',,,-4.05,50.31,0.94,,0.0,0.0,0.0,1.0
1665761165304295222,,2999,,1665761165,304059982,'',,,-4.1,50.0,0.92,,0.0,0.0,0.0,1.0
1665761165404247886,,3000,,1665761165,404023885,'',,,-4.18,49.73,0.95,,0.0,0.0,0.0,1.0
1665761165504746433,,3001,,1665761165,504193067,'',,,-4.24,49.44,0.93,,0.0,0.0,0.0,1.0
1665761165604098532,,3002,,1665761165,603862047,'',,,-4.31,49.16,1.02,,0.0,0.0,0.0,1.0
1665761165704610423,,3003,,1665761165,704340934,'',,,-4.38,48.87,1.09,,0.0,0.0,0.0,1.0
1665761165804776793,,3004,,1665761165,804282903,'',,,-4.43,48.58,1.04,,0.0,0.0,0.0,1.0
1665761165903760289,,3005,,1665761165,903458118,'',,,-4.48,48.28,0.97,,0.0,0.0,0.0,1.0
1665761166004622303,,3006,,1665761166,3958940,'',,,-4.54,47.99,0.93,,0.0,0.0,0.0,1.0
1665761166103837994,,3007,,1665761166,103602886,'',,,-4.59,47.7,0.91,,0.0,0.0,0.0,1.0
1665761166204200521,,3008,,1665761166,203974008,'',,,-4.64,47.41,0.99,,0.0,0.0,0.0,1.0
1665761166305024564,,3009,,1665761166,304183006,'',,,-4.68,47.07,0.95,,0.0,0.0,0.0,1.0
1665761166405266975,,3010,,1665761166,404150009,'',,,-4.73,46.78,0.95,,0.0,0.0,0.0,1.0
1665761166504003970,,3011,,1665761166,503726959,'',,,-4.77,46.49,0.93,,0.0,0.0,0.0,1.0
1665761166604159267,,3012,,1665761166,603868961,'',,,-4.81,46.25,0.91,,0.0,0.0,0.0,1.0
1665761166705292644,,3013,,1665761166,703927993,'',,,-4.86,45.96,0.92,,0.0,0.0,0.0,1.0
1665761166804626954,,3014,,1665761166,804143905,'',,,-4.91,45.66,0.97,,0.0,0.0,0.0,1.0
1665761166906387769,,3015,,1665761166,905365943,'',,,-4.96,45.33,0.99,,0.0,0.0,0.0,1.0
1665761167004339674,,3016,,1665761167,4014968,'',,,-5.0,45.02,0.97,,0.0,0.0,0.0,1.0
1665761167104419984,,3017,,1665761167,103806972,'',,,-5.04,44.68,0.98,,0.0,0.0,0.0,1.0
1665761167204756825,,3018,,1665761167,204382896,'',,,-5.07,44.36,1.0,,0.0,0.0,0.0,1.0
1665761167304343715,,3019,,1665761167,304059028,'',,,-5.1,44.04,1.03,,0.0,0.0,0.0,1.0
1665761167404281550,,3020,,1665761167,404007911,'',,,-5.13,43.71,1.03,,0.0,0.0,0.0,1.0
1665761167504475001,,3021,,1665761167,504215002,'',,,-5.15,43.41,1.03,,0.0,0.0,0.0,1.0
1665761167604625884,,3022,,1665761167,604176044,'',,,-5.18,43.08,1.07,,0.0,0.0,0.0,1.0
1665761167704237459,,3023,,1665761167,703984022,'',,,-5.21,42.74,1.09,,0.0,0.0,0.0,1.0
1665761167804507815,,3024,,1665761167,804239034,'',,,-5.25,42.44,1.04,,0.0,0.0,0.0,1.0
1665761167904916788,,3025,,1665761167,904308080,'',,,-5.28,42.11,1.17,,0.0,0.0,0.0,1.0
1665761168004801076,,3026,,1665761168,4344940,'',,,-5.27,41.77,1.22,,0.0,0.0,0.0,1.0
1665761168104903911,,3027,,1665761168,104351997,'',,,-5.3,41.45,1.26,,0.0,0.0,0.0,1.0
1665761168205064473,,3028,,1665761168,204411029,'',,,-5.29,41.12,1.26,,0.0,0.0,0.0,1.0
1665761168304599972,,3029,,1665761168,304318904,'',,,-5.29,40.78,1.37,,0.0,0.0,0.0,1.0
1665761168405200518,,3030,,1665761168,404867887,'',,,-5.29,40.47,1.17,,0.0,0.0,0.0,1.0
1665761168498801543,,3031,,1665761168,498208045,'',,,-5.28,40.13,1.09,,0.0,0.0,0.0,1.0
1665761168604474767,,3032,,1665761168,604147911,'',,,-5.29,39.81,1.21,,0.0,0.0,0.0,1.0
1665761168705416730,,3033,,1665761168,705060958,'',,,-5.29,39.49,1.15,,0.0,0.0,0.0,1.0
1665761168805458453,,3034,,1665761168,805131912,'',,,-5.28,39.17,1.04,,0.0,0.0,0.0,1.0
1665761168905540870,,3035,,1665761168,905064105,'',,,-5.3,38.86,1.08,,0.0,0.0,0.0,1.0
1665761169005117975,,3036,,1665761169,4784107,'',,,-5.32,38.55,1.02,,0.0,0.0,0.0,1.0
1665761169105682015,,3037,,1665761169,105340003,'',,,-5.33,38.21,0.92,,0.0,0.0,0.0,1.0
1665761169205440305,,3038,,1665761169,205121994,'',,,-5.32,37.88,0.88,,0.0,0.0,0.0,1.0
1665761169306518014,,3039,,1665761169,305466890,'',,,-5.3,37.54,0.93,,0.0,0.0,0.0,1.0
1665761169405826086,,3040,,1665761169,405365943,'',,,-5.3,37.22,0.83,,0.0,0.0,0.0,1.0
1665761169505102187,,3041,,1665761169,504821062,'',,,-5.29,36.9,0.84,,0.0,0.0,0.0,1.0
1665761169605405386,,3042,,1665761169,604957103,'',,,-5.3,36.56,0.79,,0.0,0.0,0.0,1.0
1665761169705272771,,3043,,1665761169,704971075,'',,,-5.29,36.23,0.84,,0.0,0.0,0.0,1.0
1665761169806107473,,3044,,1665761169,805640935,'',,,-5.29,35.91,0.96,,0.0,0.0,0.0,1.0
1665761169905961904,,3045,,1665761169,905587911,'',,,-5.28,35.6,1.12,,0.0,0.0,0.0,1.0
1665761170005833789,,3046,,1665761170,5412101,'',,,-5.27,35.28,1.08,,0.0,0.0,0.0,1.0
1665761170105737179,,3047,,1665761170,105412960,'',,,-5.25,34.98,1.2,,0.0,0.0,0.0,1.0
1665761170205810511,,3048,,1665761170,205519914,'',,,-5.24,34.66,1.11,,0.0,0.0,0.0,1.0
1665761170305567971,,3049,,1665761170,305310010,'',,,-5.21,34.34,1.15,,0.0,0.0,0.0,1.0
1665761170405529043,,3050,,1665761170,405323028,'',,,-5.21,34.02,1.1,,0.0,0.0,0.0,1.0
1665761170505164558,,3051,,1665761170,504877090,'',,,-5.21,33.74,1.0,,0.0,0.0,0.0,1.0
1665761170606440776,,3052,,1665761170,605905055,'',,,-5.14,33.37,0.95,,0.0,0.0,0.0,1.0
1665761170705874322,,3053,,1665761170,705482959,'',,,-5.09,33.03,0.89,,0.0,0.0,0.0,1.0
1665761170805648713,,3054,,1665761170,805289983,'',,,-5.1,32.75,0.86,,0.0,0.0,0.0,1.0
1665761170906149450,,3055,,1665761170,905704975,'',,,-5.09,32.45,0.98,,0.0,0.0,0.0,1.0
1665761171006429244,,3056,,1665761171,5800008,'',,,-5.08,32.14,0.86,,0.0,0.0,0.0,1.0
1665761171105763464,,3057,,1665761171,105370044,'',,,-5.04,31.82,0.82,,0.0,0.0,0.0,1.0
1665761171205721676,,3058,,1665761171,205400943,'',,,-4.95,31.46,0.93,,0.0,0.0,0.0,1.0
1665761171305570113,,3059,,1665761171,305320978,'',,,-4.9,31.16,0.95,,0.0,0.0,0.0,1.0
1665761171405638366,,3060,,1665761171,405349969,'',,,-4.81,30.85,1.13,,0.0,0.0,0.0,1.0
1665761171506205876,,3061,,1665761171,505696058,'',,,-4.79,30.55,1.23,,0.0,0.0,0.0,1.0
1665761171606324621,,3062,,1665761171,605992078,'',,,-4.78,30.25,1.09,,0.0,0.0,0.0,1.0
1665761171706769101,,3063,,1665761171,706068992,'',,,-4.74,29.95,1.2,,0.0,0.0,0.0,1.0
1665761171805609632,,3064,,1665761171,805306911,'',,,-4.69,29.64,1.35,,0.0,0.0,0.0,1.0
1665761171905161745,,3065,,1665761171,904859066,'',,,-4.57,29.34,1.29,,0.0,0.0,0.0,1.0
1665761172006736333,,3066,,1665761172,6402015,'',,,-4.52,29.04,1.1,,0.0,0.0,0.0,1.0
1665761172107785784,,3067,,1665761172,106483936,'',,,-4.47,28.73,0.97,,0.0,0.0,0.0,1.0
1665761172206177108,,3068,,1665761172,205872058,'',,,-4.41,28.43,1.15,,0.0,0.0,0.0,1.0
1665761172305914797,,3069,,1665761172,305660963,'',,,-4.34,28.13,1.05,,0.0,0.0,0.0,1.0
1665761172405835494,,3070,,1665761172,405461072,'',,,-4.24,27.84,1.03,,0.0,0.0,0.0,1.0
1665761172506498333,,3071,,1665761172,505626916,'',,,-4.11,27.51,0.96,,0.0,0.0,0.0,1.0
1665761172605701912,,3072,,1665761172,605391025,'',,,-4.01,27.25,1.14,,0.0,0.0,0.0,1.0
1665761172705836258,,3073,,1665761172,705043077,'',,,-3.93,26.94,1.08,,0.0,0.0,0.0,1.0
1665761172805565611,,3074,,1665761172,805170059,'',,,-3.85,26.65,1.06,,0.0,0.0,0.0,1.0
1665761172906072631,,3075,,1665761172,905613899,'',,,-3.73,26.4,1.09,,0.0,0.0,0.0,1.0
1665761173006014295,,3076,,1665761173,5624055,'',,,-3.62,26.14,1.12,,0.0,0.0,0.0,1.0
1665761173105844533,,3077,,1665761173,105420112,'',,,-3.52,25.87,1.09,,0.0,0.0,0.0,1.0
1665761173205606983,,3078,,1665761173,205405950,'',,,-3.45,25.57,1.13,,0.0,0.0,0.0,1.0
1665761173305873748,,3079,,1665761173,305234909,'',,,-3.37,25.28,1.07,,0.0,0.0,0.0,1.0
1665761173406492869,,3080,,1665761173,405693054,'',,,-3.29,24.98,1.1,,0.0,0.0,0.0,1.0
1665761173505708348,,3081,,1665761173,505477905,'',,,-3.19,24.71,1.05,,0.0,0.0,0.0,1.0
1665761173606740942,,3082,,1665761173,605489969,'',,,-3.12,24.42,1.2,,0.0,0.0,0.0,1.0
1665761173705859310,,3083,,1665761173,705245971,'',,,-3.03,24.12,1.26,,0.0,0.0,0.0,1.0
1665761173805637098,,3084,,1665761173,805403947,'',,,-2.95,23.83,1.19,,0.0,0.0,0.0,1.0
1665761173904921250,,3085,,1665761173,904712915,'',,,-2.86,23.56,1.26,,0.0,0.0,0.0,1.0
1665761174005678692,,3086,,1665761174,5343914,'',,,-2.76,23.27,1.23,,0.0,0.0,0.0,1.0
1665761174106756520,,3087,,1665761174,106133937,'',,,-2.64,22.99,1.27,,0.0,0.0,0.0,1.0
1665761174205968564,,3088,,1665761174,205687046,'',,,-2.53,22.7,1.41,,0.0,0.0,0.0,1.0
1665761174305914661,,3089,,1665761174,305465936,'',,,-2.44,22.43,1.34,,0.0,0.0,0.0,1.0
1665761174405533365,,3090,,1665761174,405263900,'',,,-2.37,22.16,1.4,,0.0,0.0,0.0,1.0
1665761174505091223,,3091,,1665761174,504832029,'',,,-2.33,21.83,1.34,,0.0,0.0,0.0,1.0
1665761174605450557,,3092,,1665761174,605123043,'',,,-2.26,21.54,1.32,,0.0,0.0,0.0,1.0
1665761174706096698,,3093,,1665761174,705728054,'',,,-2.18,21.24,1.29,,0.0,0.0,0.0,1.0
1665761174805882654,,3094,,1665761174,805524110,'',,,-2.1,20.95,1.31,,0.0,0.0,0.0,1.0
1665761174905342283,,3095,,1665761174,905057907,'',,,-2.02,20.65,1.32,,0.0,0.0,0.0,1.0
1665761175005971454,,3096,,1665761175,5640983,'',,,-1.96,20.37,1.31,,0.0,0.0,0.0,1.0
1665761175105501067,,3097,,1665761175,105207920,'',,,-1.9,20.08,1.4,,0.0,0.0,0.0,1.0
1665761175206135732,,3098,,1665761175,205818891,'',,,-1.85,19.76,1.34,,0.0,0.0,0.0,1.0
1665761175305967284,,3099,,1665761175,305378913,'',,,-1.81,19.48,1.37,,0.0,0.0,0.0,1.0
1665761175405851800,,3100,,1665761175,405392885,'',,,-1.76,19.21,1.36,,0.0,0.0,0.0,1.0
1665761175505244268,,3101,,1665761175,504920959,'',,,-1.73,18.9,1.42,,0.0,0.0,0.0,1.0
1665761175605777305,,3102,,1665761175,605094909,'',,,-1.69,18.62,1.45,,0.0,0.0,0.0,1.0
1665761175705850036,,3103,,1665761175,705348014,'',,,-1.65,18.35,1.55,,0.0,0.0,0.0,1.0
1665761175805536232,,3104,,1665761175,805196046,'',,,-1.57,18.08,1.47,,0.0,0.0,0.0,1.0
1665761175898807293,,3105,,1665761175,898376941,'',,,-1.52,17.82,1.43,,0.0,0.0,0.0,1.0
1665761176004327580,,3106,,1665761176,4071950,'',,,-1.48,17.56,1.46,,0.0,0.0,0.0,1.0
1665761176104794274,,3107,,1665761176,104486942,'',,,-1.46,17.33,1.43,,0.0,0.0,0.0,1.0
1665761176205167208,,3108,,1665761176,204843997,'',,,-1.43,17.07,1.48,,0.0,0.0,0.0,1.0
1665761176304739463,,3109,,1665761176,304486989,'',,,-1.37,16.78,1.42,,0.0,0.0,0.0,1.0
1665761176405382802,,3110,,1665761176,404287099,'',,,-1.36,16.51,1.48,,0.0,0.0,0.0,1.0
1665761176506094041,,3111,,1665761176,505253076,'',,,-1.32,16.27,1.33,,0.0,0.0,0.0,1.0
1665761176605498817,,3112,,1665761176,605155944,'',,,-1.32,16.02,1.22,,0.0,0.0,0.0,1.0
1665761176704662986,,3113,,1665761176,704404115,'',,,-1.33,15.76,1.37,,0.0,0.0,0.0,1.0
1665761176805234760,,3114,,1665761176,804917097,'',,,-1.31,15.53,1.27,,0.0,0.0,0.0,1.0
1665761176905814383,,3115,,1665761176,905384063,'',,,-1.31,15.29,1.18,,0.0,0.0,0.0,1.0
1665761177004948581,,3116,,1665761177,4653930,'',,,-1.28,15.06,1.12,,0.0,0.0,0.0,1.0
1665761177105501568,,3117,,1665761177,105189085,'',,,-1.27,14.83,1.3,,0.0,0.0,0.0,1.0
1665761177204602952,,3118,,1665761177,204332113,'',,,-1.29,14.61,1.32,,0.0,0.0,0.0,1.0
1665761177304448035,,3119,,1665761177,304136037,'',,,-1.28,14.4,1.25,,0.0,0.0,0.0,1.0
1665761177404637023,,3120,,1665761177,404361009,'',,,-1.29,14.19,1.31,,0.0,0.0,0.0,1.0
1665761177504974577,,3121,,1665761177,504571914,'',,,-1.28,14.0,1.3,,0.0,0.0,0.0,1.0
1665761177604563407,,3122,,1665761177,604115009,'',,,-1.27,13.82,1.23,,0.0,0.0,0.0,1.0
1665761177705060308,,3123,,1665761177,704441070,'',,,-1.3,13.65,1.21,,0.0,0.0,0.0,1.0
1665761177804893979,,3124,,1665761177,804398059,'',,,-1.28,13.51,1.16,,0.0,0.0,0.0,1.0
1665761177904537408,,3125,,1665761177,904206037,'',,,-1.3,13.34,1.18,,0.0,0.0,0.0,1.0
1665761178004957144,,3126,,1665761178,4683971,'',,,-1.29,13.19,1.12,,0.0,0.0,0.0,1.0
1665761178104345490,,3127,,1665761178,104104042,'',,,-1.3,13.04,1.11,,0.0,0.0,0.0,1.0
1665761178204586893,,3128,,1665761178,204245090,'',,,-1.28,12.94,1.07,,0.0,0.0,0.0,1.0
1665761178304574273,,3129,,1665761178,304191112,'',,,-1.29,12.82,1.05,,0.0,0.0,0.0,1.0
1665761178404398718,,3130,,1665761178,404170989,'',,,-1.32,12.71,1.07,,0.0,0.0,0.0,1.0
1665761178504503340,,3131,,1665761178,504271984,'',,,-1.28,12.63,1.03,,0.0,0.0,0.0,1.0
1665761178605489517,,3132,,1665761178,605124950,'',,,-1.3,12.55,0.93,,0.0,0.0,0.0,1.0
1665761178704472798,,3133,,1665761178,704242944,'',,,-1.27,12.49,0.95,,0.0,0.0,0.0,1.0
1665761178804420328,,3134,,1665761178,804203033,'',,,-1.23,12.45,1.06,,0.0,0.0,0.0,1.0
1665761178904709917,,3135,,1665761178,904405117,'',,,-1.22,12.41,1.03,,0.0,0.0,0.0,1.0
1665761179006295608,,3136,,1665761179,4554986,'',,,-1.21,12.39,1.02,,0.0,0.0,0.0,1.0
1665761179105066298,,3137,,1665761179,104542970,'',,,-1.2,12.37,1.09,,0.0,0.0,0.0,1.0
1665761179204734840,,3138,,1665761179,204472064,'',,,-1.18,12.36,0.98,,0.0,0.0,0.0,1.0
1665761179305049873,,3139,,1665761179,304009914,'',,,-1.21,12.32,1.0,,0.0,0.0,0.0,1.0
1665761179404756585,,3140,,1665761179,404378890,'',,,-1.25,12.29,1.02,,0.0,0.0,0.0,1.0
1665761179505429999,,3141,,1665761179,504767894,'',,,-1.27,12.27,1.09,,0.0,0.0,0.0,1.0
1665761179604554568,,3142,,1665761179,604274988,'',,,-1.24,12.27,1.02,,0.0,0.0,0.0,1.0
1665761179698303589,,3143,,1665761179,697817087,'',,,-1.23,12.26,0.97,,0.0,0.0,0.0,1.0
