rosbagTimestamp,header,seq,stamp,secs,nsecs,frame_id,pose,position,x,y,z,orientation,x,y,z,w
1665761258608140712,,3931,,1665761258,607841968,'',,,-1.16,12.3,1.21,,0.0,0.0,0.0,1.0
1665761258708327066,,3932,,1665761258,708019971,'',,,-1.16,12.31,1.18,,0.0,0.0,0.0,1.0
1665761258808462585,,3933,,1665761258,808017969,'',,,-1.22,12.28,1.1,,0.0,0.0,0.0,1.0
1665761258908680304,,3934,,1665761258,907850027,'',,,-1.2,12.3,1.12,,0.0,0.0,0.0,1.0
1665761259008365731,,3935,,1665761259,8068084,'',,,-1.17,12.31,1.18,,0.0,0.0,0.0,1.0
1665761259108465827,,3936,,1665761259,107943058,'',,,-1.23,12.28,1.16,,0.0,0.0,0.0,1.0
1665761259208297741,,3937,,1665761259,207873106,'',,,-1.24,12.25,1.14,,0.0,0.0,0.0,1.0
1665761259308146368,,3938,,1665761259,307852029,'',,,-1.21,12.28,1.12,,0.0,0.0,0.0,1.0
1665761259408011259,,3939,,1665761259,407747983,'',,,-1.24,12.26,1.13,,0.0,0.0,0.0,1.0
1665761259508705373,,3940,,1665761259,508130073,'',,,-1.26,12.25,1.09,,0.0,0.0,0.0,1.0
1665761259607980354,,3941,,1665761259,607702970,'',,,-1.26,12.24,1.02,,0.0,0.0,0.0,1.0
1665761259707998149,,3942,,1665761259,707699060,'',,,-1.25,12.25,0.96,,0.0,0.0,0.0,1.0
1665761259808262158,,3943,,1665761259,807925939,'',,,-1.31,12.23,1.04,,0.0,0.0,0.0,1.0
1665761259908368136,,3944,,1665761259,908097982,'',,,-1.27,12.25,1.19,,0.0,0.0,0.0,1.0
1665761260008082205,,3945,,1665761260,7780075,'',,,-1.3,12.24,1.15,,0.0,0.0,0.0,1.0
1665761260108075761,,3946,,1665761260,107845067,'',,,-1.26,12.26,1.26,,0.0,0.0,0.0,1.0
1665761260209324290,,3947,,1665761260,208235979,'',,,-1.23,12.27,1.31,,0.0,0.0,0.0,1.0
1665761260308064015,,3948,,1665761260,307785987,'',,,-1.24,12.26,1.24,,0.0,0.0,0.0,1.0
1665761260408081134,,3949,,1665761260,407716989,'',,,-1.25,12.24,1.16,,0.0,0.0,0.0,1.0
1665761260508592183,,3950,,1665761260,508119106,'',,,-1.25,12.23,1.14,,0.0,0.0,0.0,1.0
1665761260608004674,,3951,,1665761260,607744932,'',,,-1.26,12.23,1.12,,0.0,0.0,0.0,1.0
1665761260708444998,,3952,,1665761260,708050966,'',,,-1.28,12.22,1.11,,0.0,0.0,0.0,1.0
1665761260808407363,,3953,,1665761260,808149099,'',,,-1.24,12.23,1.13,,0.0,0.0,0.0,1.0
1665761260908118607,,3954,,1665761260,907833099,'',,,-1.26,12.2,1.09,,0.0,0.0,0.0,1.0
1665761261008850808,,3955,,1665761261,7955074,'',,,-1.3,12.17,1.08,,0.0,0.0,0.0,1.0
1665761261108970754,,3956,,1665761261,108535051,'',,,-1.24,12.18,0.91,,0.0,0.0,0.0,1.0
1665761261208761846,,3957,,1665761261,208110094,'',,,-1.27,12.13,0.94,,0.0,0.0,0.0,1.0
1665761261308517662,,3958,,1665761261,308222055,'',,,-1.24,12.12,0.8,,0.0,0.0,0.0,1.0
1665761261408420219,,3959,,1665761261,408155918,'',,,-1.22,12.08,0.85,,0.0,0.0,0.0,1.0
1665761261508776883,,3960,,1665761261,508449077,'',,,-1.2,12.05,0.77,,0.0,0.0,0.0,1.0
1665761261608095438,,3961,,1665761261,607736110,'',,,-1.21,11.99,0.85,,0.0,0.0,0.0,1.0
1665761261708806685,,3962,,1665761261,708545923,'',,,-1.28,11.89,0.79,,0.0,0.0,0.0,1.0
1665761261808764307,,3963,,1665761261,808468103,'',,,-1.22,11.87,0.73,,0.0,0.0,0.0,1.0
1665761261909190848,,3964,,1665761261,908870935,'',,,-1.2,11.79,0.71,,0.0,0.0,0.0,1.0
1665761262001795315,,3965,,1665761262,1365900,'',,,-1.2,11.67,0.86,,0.0,0.0,0.0,1.0
1665761262108673334,,3966,,1665761262,108376026,'',,,-1.19,11.59,0.84,,0.0,0.0,0.0,1.0
1665761262209002512,,3967,,1665761262,208616018,'',,,-1.17,11.51,0.85,,0.0,0.0,0.0,1.0
1665761262308686727,,3968,,1665761262,308491945,'',,,-1.15,11.42,0.73,,0.0,0.0,0.0,1.0
1665761262408389207,,3969,,1665761262,408152103,'',,,-1.25,11.28,0.69,,0.0,0.0,0.0,1.0
1665761262509214004,,3970,,1665761262,508706092,'',,,-1.34,11.13,0.66,,0.0,0.0,0.0,1.0
1665761262608538140,,3971,,1665761262,608220100,'',,,-1.33,11.01,0.78,,0.0,0.0,0.0,1.0
1665761262708851442,,3972,,1665761262,708542108,'',,,-1.24,10.91,0.68,,0.0,0.0,0.0,1.0
1665761262808685953,,3973,,1665761262,808306932,'',,,-1.22,10.78,0.67,,0.0,0.0,0.0,1.0
1665761262909202209,,3974,,1665761262,908701896,'',,,-1.21,10.64,0.65,,0.0,0.0,0.0,1.0
1665761263008628763,,3975,,1665761263,8352994,'',,,-1.19,10.5,0.7,,0.0,0.0,0.0,1.0
1665761263109005724,,3976,,1665761263,108591079,'',,,-1.2,10.35,0.7,,0.0,0.0,0.0,1.0
1665761263208739783,,3977,,1665761263,208461999,'',,,-1.19,10.2,0.9,,0.0,0.0,0.0,1.0
1665761263308496518,,3978,,1665761263,308192014,'',,,-1.2,10.04,0.93,,0.0,0.0,0.0,1.0
1665761263402120799,,3979,,1665761263,401482105,'',,,-1.24,9.82,0.96,,0.0,0.0,0.0,1.0
1665761263508098423,,3980,,1665761263,507860898,'',,,-1.27,9.64,1.03,,0.0,0.0,0.0,1.0
1665761263608189928,,3981,,1665761263,607923030,'',,,-1.36,9.42,0.91,,0.0,0.0,0.0,1.0
1665761263708432465,,3982,,1665761263,708058118,'',,,-1.38,9.25,0.9,,0.0,0.0,0.0,1.0
1665761263808195936,,3983,,1665761263,807895898,'',,,-1.38,9.07,0.91,,0.0,0.0,0.0,1.0
1665761263907957312,,3984,,1665761263,907701015,'',,,-1.38,8.88,0.86,,0.0,0.0,0.0,1.0
1665761264008305437,,3985,,1665761264,7864952,'',,,-1.41,8.67,0.84,,0.0,0.0,0.0,1.0
1665761264108729993,,3986,,1665761264,108505010,'',,,-1.41,8.49,0.77,,0.0,0.0,0.0,1.0
1665761264208072716,,3987,,1665761264,207750082,'',,,-1.44,8.29,0.79,,0.0,0.0,0.0,1.0
1665761264308155460,,3988,,1665761264,307871103,'',,,-1.47,8.07,0.74,,0.0,0.0,0.0,1.0
1665761264408739510,,3989,,1665761264,408495903,'',,,-1.53,7.88,0.83,,0.0,0.0,0.0,1.0
1665761264508097226,,3990,,1665761264,507771015,'',,,-1.57,7.68,0.78,,0.0,0.0,0.0,1.0
1665761264608100004,,3991,,1665761264,607758998,'',,,-1.61,7.49,0.86,,0.0,0.0,0.0,1.0
1665761264708504043,,3992,,1665761264,708115100,'',,,-1.67,7.28,0.78,,0.0,0.0,0.0,1.0
1665761264807920591,,3993,,1665761264,807569980,'',,,-1.75,7.09,0.74,,0.0,0.0,0.0,1.0
1665761264907814103,,3994,,1665761264,907517910,'',,,-1.82,6.89,0.71,,0.0,0.0,0.0,1.0
1665761265008424122,,3995,,1665761265,8131027,'',,,-1.91,6.69,0.83,,0.0,0.0,0.0,1.0
1665761265102324282,,3996,,1665761265,101882934,'',,,-2.08,6.45,0.84,,0.0,0.0,0.0,1.0
1665761265208471589,,3997,,1665761265,208195924,'',,,-2.21,6.24,0.88,,0.0,0.0,0.0,1.0
1665761265309084012,,3998,,1665761265,308633089,'',,,-2.29,6.08,0.89,,0.0,0.0,0.0,1.0
1665761265408711714,,3999,,1665761265,408386945,'',,,-2.39,5.88,0.84,,0.0,0.0,0.0,1.0
1665761265508104776,,4000,,1665761265,507910013,'',,,-2.49,5.74,0.97,,0.0,0.0,0.0,1.0
1665761265608389967,,4001,,1665761265,608110904,'',,,-2.58,5.62,1.03,,0.0,0.0,0.0,1.0
1665761265708562988,,4002,,1665761265,708260059,'',,,-2.65,5.52,1.17,,0.0,0.0,0.0,1.0
1665761265808777700,,4003,,1665761265,808238029,'',,,-2.73,5.4,1.14,,0.0,0.0,0.0,1.0
1665761265908854775,,4004,,1665761265,908571004,'',,,-2.83,5.3,1.24,,0.0,0.0,0.0,1.0
1665761266008644911,,4005,,1665761266,8311986,'',,,-3.03,5.13,1.1,,0.0,0.0,0.0,1.0
1665761266108974906,,4006,,1665761266,108493089,'',,,-3.16,5.0,1.01,,0.0,0.0,0.0,1.0
1665761266208790911,,4007,,1665761266,208420991,'',,,-3.28,4.91,1.0,,0.0,0.0,0.0,1.0
1665761266308527629,,4008,,1665761266,308238029,'',,,-3.4,4.83,1.01,,0.0,0.0,0.0,1.0
1665761266408484372,,4009,,1665761266,408142089,'',,,-3.53,4.75,0.95,,0.0,0.0,0.0,1.0
1665761266507825199,,4010,,1665761266,507563114,'',,,-3.66,4.7,1.13,,0.0,0.0,0.0,1.0
1665761266608053676,,4011,,1665761266,607743024,'',,,-3.79,4.65,1.2,,0.0,0.0,0.0,1.0
1665761266708014957,,4012,,1665761266,707712888,'',,,-3.93,4.6,1.24,,0.0,0.0,0.0,1.0
1665761266808698276,,4013,,1665761266,808276891,'',,,-4.12,4.51,1.11,,0.0,0.0,0.0,1.0
1665761266908764798,,4014,,1665761266,908402919,'',,,-4.26,4.47,1.15,,0.0,0.0,0.0,1.0
1665761267009101911,,4015,,1665761267,7836103,'',,,-4.42,4.42,1.14,,0.0,0.0,0.0,1.0
1665761267108555985,,4016,,1665761267,107795000,'',,,-4.6,4.37,1.15,,0.0,0.0,0.0,1.0
1665761267208221005,,4017,,1665761267,207916975,'',,,-4.75,4.36,1.15,,0.0,0.0,0.0,1.0
1665761267309132315,,4018,,1665761267,308137893,'',,,-4.9,4.35,1.12,,0.0,0.0,0.0,1.0
1665761267401839653,,4019,,1665761267,401531934,'',,,-5.07,4.33,1.09,,0.0,0.0,0.0,1.0
1665761267507985135,,4020,,1665761267,507766008,'',,,-5.24,4.34,1.08,,0.0,0.0,0.0,1.0
1665761267608680247,,4021,,1665761267,608028888,'',,,-5.41,4.35,1.14,,0.0,0.0,0.0,1.0
1665761267708272826,,4022,,1665761267,707923889,'',,,-5.58,4.38,1.02,,0.0,0.0,0.0,1.0
1665761267802396433,,4023,,1665761267,801765918,'',,,-5.75,4.39,1.02,,0.0,0.0,0.0,1.0
1665761267902334534,,4024,,1665761267,901931047,'',,,-5.92,4.41,1.07,,0.0,0.0,0.0,1.0
1665761268008776511,,4025,,1665761268,8291959,'',,,-6.09,4.47,1.04,,0.0,0.0,0.0,1.0
1665761268108085327,,4026,,1665761268,107752084,'',,,-6.25,4.54,0.96,,0.0,0.0,0.0,1.0
1665761268207607376,,4027,,1665761268,207223892,'',,,-6.41,4.59,1.09,,0.0,0.0,0.0,1.0
1665761268308010974,,4028,,1665761268,307590007,'',,,-6.58,4.65,0.98,,0.0,0.0,0.0,1.0
1665761268407906315,,4029,,1665761268,407695055,'',,,-6.74,4.72,0.97,,0.0,0.0,0.0,1.0
1665761268508527866,,4030,,1665761268,507997035,'',,,-6.88,4.81,0.94,,0.0,0.0,0.0,1.0
1665761268609151437,,4031,,1665761268,608241081,'',,,-7.01,4.89,1.03,,0.0,0.0,0.0,1.0
1665761268708198208,,4032,,1665761268,707911968,'',,,-7.16,5.0,1.01,,0.0,0.0,0.0,1.0
1665761268808024284,,4033,,1665761268,807785987,'',,,-7.31,5.09,1.08,,0.0,0.0,0.0,1.0
1665761268908446805,,4034,,1665761268,908138036,'',,,-7.43,5.22,1.08,,0.0,0.0,0.0,1.0
1665761269008729310,,4035,,1665761269,8438110,'',,,-7.6,5.3,0.89,,0.0,0.0,0.0,1.0
1665761269108529011,,4036,,1665761269,108149051,'',,,-7.72,5.42,0.86,,0.0,0.0,0.0,1.0
1665761269208376878,,4037,,1665761269,208168983,'',,,-7.82,5.58,0.93,,0.0,0.0,0.0,1.0
1665761269308192395,,4038,,1665761269,308003902,'',,,-7.89,5.73,1.01,,0.0,0.0,0.0,1.0
1665761269408339774,,4039,,1665761269,408138990,'',,,-7.97,5.86,1.03,,0.0,0.0,0.0,1.0
1665761269508913588,,4040,,1665761269,508661031,'',,,-8.09,6.0,1.02,,0.0,0.0,0.0,1.0
1665761269608206153,,4041,,1665761269,607984066,'',,,-8.17,6.15,1.03,,0.0,0.0,0.0,1.0
1665761269708370843,,4042,,1665761269,708148002,'',,,-8.25,6.3,1.03,,0.0,0.0,0.0,1.0
1665761269808382905,,4043,,1665761269,808159112,'',,,-8.32,6.45,1.07,,0.0,0.0,0.0,1.0
1665761269907975102,,4044,,1665761269,907757043,'',,,-8.4,6.63,1.07,,0.0,0.0,0.0,1.0
1665761270008380454,,4045,,1665761270,8150100,'',,,-8.46,6.78,0.99,,0.0,0.0,0.0,1.0
1665761270108854343,,4046,,1665761270,108655929,'',,,-8.51,6.94,0.95,,0.0,0.0,0.0,1.0
1665761270208776690,,4047,,1665761270,208353996,'',,,-8.58,7.15,1.0,,0.0,0.0,0.0,1.0
1665761270309933620,,4048,,1665761270,309422016,'',,,-8.64,7.36,0.91,,0.0,0.0,0.0,1.0
1665761270408921082,,4049,,1665761270,408637046,'',,,-8.68,7.55,1.15,,0.0,0.0,0.0,1.0
1665761270508938642,,4050,,1665761270,508654117,'',,,-8.7,7.74,1.06,,0.0,0.0,0.0,1.0
1665761270609130490,,4051,,1665761270,608797073,'',,,-8.73,7.95,1.03,,0.0,0.0,0.0,1.0
1665761270709291906,,4052,,1665761270,709016084,'',,,-8.76,8.18,0.93,,0.0,0.0,0.0,1.0
1665761270808918368,,4053,,1665761270,808649063,'',,,-8.77,8.4,0.87,,0.0,0.0,0.0,1.0
1665761270909661425,,4054,,1665761270,909312963,'',,,-8.8,8.65,0.91,,0.0,0.0,0.0,1.0
1665761271009763007,,4055,,1665761271,9366989,'',,,-8.82,8.9,0.92,,0.0,0.0,0.0,1.0
1665761271109848342,,4056,,1665761271,109486103,'',,,-8.84,9.17,0.91,,0.0,0.0,0.0,1.0
1665761271209306781,,4057,,1665761271,209074974,'',,,-8.84,9.44,0.97,,0.0,0.0,0.0,1.0
1665761271309635416,,4058,,1665761271,309298038,'',,,-8.86,9.74,0.91,,0.0,0.0,0.0,1.0
1665761271409733027,,4059,,1665761271,409256935,'',,,-8.87,10.05,1.06,,0.0,0.0,0.0,1.0
1665761271509493580,,4060,,1665761271,509221076,'',,,-8.85,10.35,1.13,,0.0,0.0,0.0,1.0
1665761271610503750,,4061,,1665761271,609863996,'',,,-8.87,10.67,1.23,,0.0,0.0,0.0,1.0
1665761271709123843,,4062,,1665761271,708830118,'',,,-8.86,10.96,1.21,,0.0,0.0,0.0,1.0
1665761271810130585,,4063,,1665761271,809067964,'',,,-8.86,11.3,1.24,,0.0,0.0,0.0,1.0
1665761271909704032,,4064,,1665761271,909450054,'',,,-8.87,11.64,1.25,,0.0,0.0,0.0,1.0
1665761272009571383,,4065,,1665761272,9247064,'',,,-8.86,11.96,1.16,,0.0,0.0,0.0,1.0
1665761272109691781,,4066,,1665761272,109194993,'',,,-8.87,12.33,1.17,,0.0,0.0,0.0,1.0
1665761272209437924,,4067,,1665761272,209158897,'',,,-8.86,12.67,1.06,,0.0,0.0,0.0,1.0
1665761272308817215,,4068,,1665761272,308552980,'',,,-8.85,13.01,1.07,,0.0,0.0,0.0,1.0
1665761272409204170,,4069,,1665761272,408941984,'',,,-8.85,13.38,1.01,,0.0,0.0,0.0,1.0
1665761272509960716,,4070,,1665761272,509252071,'',,,-8.84,13.74,0.96,,0.0,0.0,0.0,1.0
1665761272608924495,,4071,,1665761272,608637094,'',,,-8.83,14.12,0.89,,0.0,0.0,0.0,1.0
1665761272709337400,,4072,,1665761272,709112882,'',,,-8.83,14.51,0.91,,0.0,0.0,0.0,1.0
1665761272810230687,,4073,,1665761272,809768915,'',,,-8.84,14.94,0.94,,0.0,0.0,0.0,1.0
1665761272910131221,,4074,,1665761272,909797906,'',,,-8.82,15.34,1.04,,0.0,0.0,0.0,1.0
1665761273010202701,,4075,,1665761273,9876966,'',,,-8.79,15.75,1.16,,0.0,0.0,0.0,1.0
1665761273109243513,,4076,,1665761273,109005928,'',,,-8.81,16.16,1.04,,0.0,0.0,0.0,1.0
1665761273210036055,,4077,,1665761273,209844112,'',,,-8.76,16.58,0.93,,0.0,0.0,0.0,1.0
1665761273310393103,,4078,,1665761273,310024023,'',,,-8.73,17.0,0.82,,0.0,0.0,0.0,1.0
1665761273410065298,,4079,,1665761273,409748077,'',,,-8.72,17.42,0.96,,0.0,0.0,0.0,1.0
1665761273509732119,,4080,,1665761273,509404897,'',,,-8.7,17.85,0.95,,0.0,0.0,0.0,1.0
1665761273610334548,,4081,,1665761273,609973907,'',,,-8.71,18.27,1.05,,0.0,0.0,0.0,1.0
1665761273711209275,,4082,,1665761273,710298061,'',,,-8.74,18.67,0.99,,0.0,0.0,0.0,1.0
1665761273810691784,,4083,,1665761273,809849023,'',,,-8.73,19.12,1.09,,0.0,0.0,0.0,1.0
1665761273909847257,,4084,,1665761273,909548997,'',,,-8.7,19.58,1.18,,0.0,0.0,0.0,1.0
1665761274010116049,,4085,,1665761274,9870052,'',,,-8.68,20.05,1.05,,0.0,0.0,0.0,1.0
1665761274109774515,,4086,,1665761274,109040975,'',,,-8.66,20.53,1.1,,0.0,0.0,0.0,1.0
1665761274210705125,,4087,,1665761274,210046052,'',,,-8.65,20.98,1.16,,0.0,0.0,0.0,1.0
1665761274310065520,,4088,,1665761274,309741020,'',,,-8.65,21.43,1.29,,0.0,0.0,0.0,1.0
1665761274410135635,,4089,,1665761274,409878015,'',,,-8.63,21.92,1.16,,0.0,0.0,0.0,1.0
1665761274509859984,,4090,,1665761274,509568929,'',,,-8.64,22.39,1.2,,0.0,0.0,0.0,1.0
1665761274610535694,,4091,,1665761274,610189914,'',,,-8.66,22.82,1.22,,0.0,0.0,0.0,1.0
1665761274709670881,,4092,,1665761274,709366083,'',,,-8.62,23.31,1.35,,0.0,0.0,0.0,1.0
1665761274810070409,,4093,,1665761274,809835910,'',,,-8.6,23.82,1.24,,0.0,0.0,0.0,1.0
1665761274910298214,,4094,,1665761274,909985065,'',,,-8.62,24.26,1.26,,0.0,0.0,0.0,1.0
1665761275010125812,,4095,,1665761275,9738922,'',,,-8.62,24.71,1.31,,0.0,0.0,0.0,1.0
1665761275110617914,,4096,,1665761275,109823942,'',,,-8.61,25.2,1.39,,0.0,0.0,0.0,1.0
1665761275210345609,,4097,,1665761275,209965944,'',,,-8.57,25.73,1.28,,0.0,0.0,0.0,1.0
1665761275309556536,,4098,,1665761275,309259891,'',,,-8.54,26.22,1.35,,0.0,0.0,0.0,1.0
1665761275410194503,,4099,,1665761275,409926891,'',,,-8.51,26.7,1.38,,0.0,0.0,0.0,1.0
1665761275510693776,,4100,,1665761275,510356903,'',,,-8.49,27.22,1.33,,0.0,0.0,0.0,1.0
1665761275610329352,,4101,,1665761275,610024929,'',,,-8.48,27.68,1.32,,0.0,0.0,0.0,1.0
1665761275710168834,,4102,,1665761275,709759950,'',,,-8.45,28.09,1.18,,0.0,0.0,0.0,1.0
1665761275810887181,,4103,,1665761275,810224056,'',,,-8.42,28.53,1.24,,0.0,0.0,0.0,1.0
1665761275909594608,,4104,,1665761275,909281015,'',,,-8.45,29.03,1.1,,0.0,0.0,0.0,1.0
1665761276009613729,,4105,,1665761276,9397983,'',,,-8.46,29.53,1.01,,0.0,0.0,0.0,1.0
1665761276109859992,,4106,,1665761276,109631061,'',,,-8.43,29.98,1.07,,0.0,0.0,0.0,1.0
1665761276209409531,,4107,,1665761276,209194898,'',,,-8.44,30.48,1.04,,0.0,0.0,0.0,1.0
1665761276309077250,,4108,,1665761276,308831930,'',,,-8.48,31.01,0.96,,0.0,0.0,0.0,1.0
1665761276409839957,,4109,,1665761276,409660100,'',,,-8.49,31.51,0.93,,0.0,0.0,0.0,1.0
1665761276509717240,,4110,,1665761276,509406089,'',,,-8.48,32.0,0.92,,0.0,0.0,0.0,1.0
1665761276610603545,,4111,,1665761276,610277891,'',,,-8.44,32.43,0.91,,0.0,0.0,0.0,1.0
1665761276710560873,,4112,,1665761276,710231065,'',,,-8.4,32.87,0.86,,0.0,0.0,0.0,1.0
1665761276808911197,,4113,,1665761276,808665037,'',,,-8.45,33.4,0.78,,0.0,0.0,0.0,1.0
1665761276910065243,,4114,,1665761276,909215927,'',,,-8.39,33.82,0.83,,0.0,0.0,0.0,1.0
1665761277009270772,,4115,,1665761277,8907079,'',,,-8.36,34.26,0.78,,0.0,0.0,0.0,1.0
1665761277109209806,,4116,,1665761277,108815908,'',,,-8.33,34.72,0.78,,0.0,0.0,0.0,1.0
1665761277202772812,,4117,,1665761277,202445030,'',,,-8.32,35.2,0.75,,0.0,0.0,0.0,1.0
1665761277310461956,,4118,,1665761277,310178041,'',,,-8.28,35.66,0.88,,0.0,0.0,0.0,1.0
1665761277410239757,,4119,,1665761277,409954071,'',,,-8.26,36.1,0.86,,0.0,0.0,0.0,1.0
1665761277509550675,,4120,,1665761277,509154081,'',,,-8.26,36.55,0.81,,0.0,0.0,0.0,1.0
1665761277608974030,,4121,,1665761277,608645915,'',,,-8.26,37.01,0.92,,0.0,0.0,0.0,1.0
1665761277708886834,,4122,,1665761277,708697080,'',,,-8.24,37.46,0.83,,0.0,0.0,0.0,1.0
1665761277809415084,,4123,,1665761277,809158086,'',,,-8.25,37.91,1.07,,0.0,0.0,0.0,1.0
1665761277909106875,,4124,,1665761277,908876895,'',,,-8.26,38.35,1.11,,0.0,0.0,0.0,1.0
1665761278008993259,,4125,,1665761278,8757114,'',,,-8.27,38.81,1.14,,0.0,0.0,0.0,1.0
1665761278109708587,,4126,,1665761278,109352111,'',,,-8.29,39.26,1.12,,0.0,0.0,0.0,1.0
1665761278210569892,,4127,,1665761278,210261106,'',,,-8.27,39.7,1.19,,0.0,0.0,0.0,1.0
1665761278309317056,,4128,,1665761278,308859109,'',,,-8.31,40.11,1.17,,0.0,0.0,0.0,1.0
1665761278409773765,,4129,,1665761278,409509897,'',,,-8.31,40.57,1.01,,0.0,0.0,0.0,1.0
1665761278510049254,,4130,,1665761278,509342908,'',,,-8.35,41.0,1.17,,0.0,0.0,0.0,1.0
1665761278609275185,,4131,,1665761278,608995914,'',,,-8.41,41.44,1.17,,0.0,0.0,0.0,1.0
1665761278709425925,,4132,,1665761278,709146022,'',,,-8.47,41.88,1.17,,0.0,0.0,0.0,1.0
1665761278809188260,,4133,,1665761278,808897972,'',,,-8.53,42.34,1.13,,0.0,0.0,0.0,1.0
1665761278909421429,,4134,,1665761278,909145116,'',,,-8.6,42.78,1.23,,0.0,0.0,0.0,1.0
1665761279009533103,,4135,,1665761279,9272098,'',,,-8.69,43.21,1.25,,0.0,0.0,0.0,1.0
1665761279109183301,,4136,,1665761279,108932018,'',,,-8.79,43.62,1.22,,0.0,0.0,0.0,1.0
1665761279209151803,,4137,,1665761279,208852052,'',,,-8.89,44.04,1.18,,0.0,0.0,0.0,1.0
1665761279309582868,,4138,,1665761279,308952093,'',,,-9.01,44.47,1.22,,0.0,0.0,0.0,1.0
1665761279410784228,,4139,,1665761279,410084962,'',,,-9.12,44.89,1.31,,0.0,0.0,0.0,1.0
1665761279510072019,,4140,,1665761279,509787082,'',,,-9.25,45.29,1.21,,0.0,0.0,0.0,1.0
1665761279609802567,,4141,,1665761279,609283924,'',,,-9.39,45.73,1.18,,0.0,0.0,0.0,1.0
1665761279709650751,,4142,,1665761279,709341049,'',,,-9.53,46.12,1.22,,0.0,0.0,0.0,1.0
1665761279809528589,,4143,,1665761279,809201002,'',,,-9.67,46.5,1.27,,0.0,0.0,0.0,1.0
1665761279909356393,,4144,,1665761279,909043073,'',,,-9.81,46.88,1.32,,0.0,0.0,0.0,1.0
1665761280010960835,,4145,,1665761280,9994983,'',,,-9.95,47.27,1.48,,0.0,0.0,0.0,1.0
1665761280110162207,,4146,,1665761280,109751939,'',,,-10.11,47.64,1.46,,0.0,0.0,0.0,1.0
1665761280209986888,,4147,,1665761280,209683895,'',,,-10.29,48.03,1.28,,0.0,0.0,0.0,1.0
1665761280310461516,,4148,,1665761280,309633016,'',,,-10.48,48.42,1.2,,0.0,0.0,0.0,1.0
1665761280409718151,,4149,,1665761280,409430980,'',,,-10.65,48.79,1.12,,0.0,0.0,0.0,1.0
1665761280509895629,,4150,,1665761280,509648084,'',,,-10.83,49.14,1.07,,0.0,0.0,0.0,1.0
1665761280609728678,,4151,,1665761280,609428882,'',,,-10.97,49.47,1.01,,0.0,0.0,0.0,1.0
1665761280710195160,,4152,,1665761280,709902048,'',,,-11.14,49.85,1.07,,0.0,0.0,0.0,1.0
1665761280810498200,,4153,,1665761280,810262918,'',,,-11.29,50.2,1.07,,0.0,0.0,0.0,1.0
1665761280910685966,,4154,,1665761280,910340070,'',,,-11.42,50.51,1.02,,0.0,0.0,0.0,1.0
1665761281010543147,,4155,,1665761281,10194063,'',,,-11.6,50.89,1.0,,0.0,0.0,0.0,1.0
1665761281109825880,,4156,,1665761281,109594106,'',,,-11.72,51.2,0.96,,0.0,0.0,0.0,1.0
1665761281210541111,,4157,,1665761281,210283994,'',,,-11.84,51.54,1.02,,0.0,0.0,0.0,1.0
1665761281309891525,,4158,,1665761281,309597015,'',,,-11.95,51.86,0.96,,0.0,0.0,0.0,1.0
1665761281410118446,,4159,,1665761281,409837007,'',,,-12.07,52.18,0.88,,0.0,0.0,0.0,1.0
1665761281509660224,,4160,,1665761281,509274959,'',,,-12.24,52.51,0.94,,0.0,0.0,0.0,1.0
1665761281609998048,,4161,,1665761281,609721899,'',,,-12.4,52.84,0.86,,0.0,0.0,0.0,1.0
1665761281710743243,,4162,,1665761281,710278034,'',,,-12.44,53.17,0.93,,0.0,0.0,0.0,1.0
1665761281811414722,,4163,,1665761281,811054944,'',,,-12.47,53.49,0.84,,0.0,0.0,0.0,1.0
1665761281910118411,,4164,,1665761281,909885883,'',,,-12.6,53.85,0.95,,0.0,0.0,0.0,1.0
1665761282010974349,,4165,,1665761282,10756969,'',,,-12.59,54.16,0.93,,0.0,0.0,0.0,1.0
1665761282110470288,,4166,,1665761282,110275983,'',,,-12.6,54.47,0.84,,0.0,0.0,0.0,1.0
1665761282210202974,,4167,,1665761282,209974050,'',,,-12.64,54.79,0.89,,0.0,0.0,0.0,1.0
1665761282310469343,,4168,,1665761282,310204982,'',,,-12.65,55.11,0.88,,0.0,0.0,0.0,1.0
1665761282410775997,,4169,,1665761282,410388946,'',,,-12.69,55.42,1.01,,0.0,0.0,0.0,1.0
1665761282510888262,,4170,,1665761282,510567903,'',,,-12.73,55.73,0.98,,0.0,0.0,0.0,1.0
1665761282610412111,,4171,,1665761282,610200881,'',,,-12.76,56.04,0.96,,0.0,0.0,0.0,1.0
1665761282710968653,,4172,,1665761282,710726022,'',,,-12.75,56.32,0.99,,0.0,0.0,0.0,1.0
1665761282809071519,,4173,,1665761282,808896064,'',,,-12.7,56.64,1.08,,0.0,0.0,0.0,1.0
1665761282909664732,,4174,,1665761282,909348964,'',,,-12.61,56.97,1.13,,0.0,0.0,0.0,1.0
1665761283009554027,,4175,,1665761283,9264945,'',,,-12.54,57.25,1.22,,0.0,0.0,0.0,1.0
1665761283110418869,,4176,,1665761283,109973907,'',,,-12.46,57.51,1.25,,0.0,0.0,0.0,1.0
1665761283210107281,,4177,,1665761283,209804058,'',,,-12.35,57.75,1.17,,0.0,0.0,0.0,1.0
1665761283310493535,,4178,,1665761283,310086011,'',,,-12.24,57.99,1.07,,0.0,0.0,0.0,1.0
1665761283409286145,,4179,,1665761283,408986091,'',,,-12.11,58.23,1.24,,0.0,0.0,0.0,1.0
1665761283509979425,,4180,,1665761283,509654045,'',,,-11.99,58.46,1.13,,0.0,0.0,0.0,1.0
1665761283610467161,,4181,,1665761283,610161066,'',,,-11.85,58.68,1.27,,0.0,0.0,0.0,1.0
1665761283710537565,,4182,,1665761283,710249900,'',,,-11.71,58.9,1.12,,0.0,0.0,0.0,1.0
1665761283809651567,,4183,,1665761283,809257984,'',,,-11.64,59.09,1.0,,0.0,0.0,0.0,1.0
1665761283909390079,,4184,,1665761283,909025907,'',,,-11.54,59.27,0.9,,0.0,0.0,0.0,1.0
1665761284008452014,,4185,,1665761284,8177042,'',,,-11.39,59.47,1.04,,0.0,0.0,0.0,1.0
1665761284108510235,,4186,,1665761284,108275890,'',,,-11.21,59.66,1.22,,0.0,0.0,0.0,1.0
1665761284209019086,,4187,,1665761284,208633899,'',,,-11.02,59.84,1.35,,0.0,0.0,0.0,1.0
1665761284309483126,,4188,,1665761284,309185028,'',,,-10.83,60.0,1.21,,0.0,0.0,0.0,1.0
1665761284410985251,,4189,,1665761284,409929990,'',,,-10.63,60.15,1.23,,0.0,0.0,0.0,1.0
1665761284510699938,,4190,,1665761284,510282039,'',,,-10.42,60.25,1.26,,0.0,0.0,0.0,1.0
1665761284610272441,,4191,,1665761284,609916925,'',,,-10.2,60.37,1.32,,0.0,0.0,0.0,1.0
1665761284710766193,,4192,,1665761284,710298061,'',,,-9.98,60.48,1.44,,0.0,0.0,0.0,1.0
1665761284811108812,,4193,,1665761284,810704946,'',,,-9.74,60.58,1.3,,0.0,0.0,0.0,1.0
1665761284910144948,,4194,,1665761284,909921884,'',,,-9.54,60.65,1.41,,0.0,0.0,0.0,1.0
1665761285011222985,,4195,,1665761285,10860919,'',,,-9.32,60.72,1.28,,0.0,0.0,0.0,1.0
1665761285110991888,,4196,,1665761285,110795021,'',,,-9.08,60.79,1.17,,0.0,0.0,0.0,1.0
1665761285211049378,,4197,,1665761285,210681915,'',,,-8.85,60.84,1.06,,0.0,0.0,0.0,1.0
1665761285310913951,,4198,,1665761285,310559034,'',,,-8.62,60.88,0.97,,0.0,0.0,0.0,1.0
1665761285410823985,,4199,,1665761285,410509109,'',,,-8.39,60.91,0.93,,0.0,0.0,0.0,1.0
1665761285510605528,,4200,,1665761285,510277032,'',,,-8.12,60.96,0.92,,0.0,0.0,0.0,1.0
1665761285609748875,,4201,,1665761285,609394073,'',,,-7.91,60.98,0.88,,0.0,0.0,0.0,1.0
1665761285711181238,,4202,,1665761285,710835933,'',,,-7.65,60.97,0.87,,0.0,0.0,0.0,1.0
1665761285809692841,,4203,,1665761285,809452056,'',,,-7.43,60.93,0.89,,0.0,0.0,0.0,1.0
1665761285909895298,,4204,,1665761285,909241914,'',,,-7.24,60.87,0.85,,0.0,0.0,0.0,1.0
1665761286010416346,,4205,,1665761286,9984970,'',,,-6.99,60.83,0.81,,0.0,0.0,0.0,1.0
1665761286109921253,,4206,,1665761286,109591007,'',,,-6.74,60.77,0.89,,0.0,0.0,0.0,1.0
1665761286209709546,,4207,,1665761286,209336042,'',,,-6.52,60.7,0.98,,0.0,0.0,0.0,1.0
1665761286310599960,,4208,,1665761286,310297012,'',,,-6.27,60.61,1.01,,0.0,0.0,0.0,1.0
1665761286410393850,,4209,,1665761286,410043954,'',,,-6.01,60.54,1.18,,0.0,0.0,0.0,1.0
1665761286510463122,,4210,,1665761286,510094881,'',,,-5.76,60.46,1.17,,0.0,0.0,0.0,1.0
1665761286611011373,,4211,,1665761286,610503911,'',,,-5.52,60.35,1.18,,0.0,0.0,0.0,1.0
1665761286710429002,,4212,,1665761286,710086107,'',,,-5.29,60.21,1.19,,0.0,0.0,0.0,1.0
1665761286810452913,,4213,,1665761286,810095071,'',,,-5.08,60.07,1.32,,0.0,0.0,0.0,1.0
1665761286911194559,,4214,,1665761286,910845041,'',,,-4.86,59.92,1.36,,0.0,0.0,0.0,1.0
1665761287010062927,,4215,,1665761287,9778976,'',,,-4.65,59.77,1.47,,0.0,0.0,0.0,1.0
1665761287110199991,,4216,,1665761287,109914064,'',,,-4.46,59.6,1.52,,0.0,0.0,0.0,1.0
1665761287210535059,,4217,,1665761287,210192918,'',,,-4.26,59.41,1.39,,0.0,0.0,0.0,1.0
1665761287309894747,,4218,,1665761287,309583902,'',,,-4.07,59.27,1.35,,0.0,0.0,0.0,1.0
1665761287410013999,,4219,,1665761287,409710884,'',,,-3.91,59.05,1.39,,0.0,0.0,0.0,1.0
1665761287510638898,,4220,,1665761287,510173082,'',,,-3.76,58.83,1.48,,0.0,0.0,0.0,1.0
1665761287610226649,,4221,,1665761287,609560012,'',,,-3.61,58.59,1.38,,0.0,0.0,0.0,1.0
1665761287709226669,,4222,,1665761287,709021091,'',,,-3.48,58.34,1.29,,0.0,0.0,0.0,1.0
1665761287810457510,,4223,,1665761287,809741973,'',,,-3.37,58.1,1.3,,0.0,0.0,0.0,1.0
1665761287909862693,,4224,,1665761287,909219026,'',,,-3.26,57.83,1.26,,0.0,0.0,0.0,1.0
1665761288009686269,,4225,,1665761288,9434938,'',,,-3.17,57.63,1.22,,0.0,0.0,0.0,1.0
1665761288110025677,,4226,,1665761288,109591960,'',,,-3.09,57.33,1.29,,0.0,0.0,0.0,1.0
1665761288209574595,,4227,,1665761288,209187030,'',,,-3.0,57.06,1.29,,0.0,0.0,0.0,1.0
1665761288309657471,,4228,,1665761288,309277057,'',,,-2.93,56.77,1.27,,0.0,0.0,0.0,1.0
1665761288410157056,,4229,,1665761288,409811973,'',,,-2.86,56.45,1.17,,0.0,0.0,0.0,1.0
1665761288508892987,,4230,,1665761288,508547067,'',,,-2.8,56.13,1.28,,0.0,0.0,0.0,1.0
1665761288609508039,,4231,,1665761288,609251022,'',,,-2.75,55.82,1.19,,0.0,0.0,0.0,1.0
1665761288710470743,,4232,,1665761288,709839105,'',,,-2.73,55.53,1.11,,0.0,0.0,0.0,1.0
1665761288809545759,,4233,,1665761288,809267997,'',,,-2.75,55.24,1.15,,0.0,0.0,0.0,1.0
1665761288910011910,,4234,,1665761288,909755945,'',,,-2.8,54.98,1.06,,0.0,0.0,0.0,1.0
1665761289009784600,,4235,,1665761289,9356021,'',,,-2.83,54.69,1.09,,0.0,0.0,0.0,1.0
1665761289109448888,,4236,,1665761289,109158992,'',,,-2.87,54.39,1.11,,0.0,0.0,0.0,1.0
1665761289210298019,,4237,,1665761289,209798097,'',,,-2.89,54.06,1.15,,0.0,0.0,0.0,1.0
1665761289309972514,,4238,,1665761289,309458971,'',,,-2.94,53.75,1.17,,0.0,0.0,0.0,1.0
1665761289409990598,,4239,,1665761289,409607887,'',,,-3.01,53.44,1.24,,0.0,0.0,0.0,1.0
1665761289510564656,,4240,,1665761289,510251045,'',,,-3.07,53.12,1.1,,0.0,0.0,0.0,1.0
1665761289609334954,,4241,,1665761289,609057903,'',,,-3.14,52.8,1.08,,0.0,0.0,0.0,1.0
1665761289709820088,,4242,,1665761289,709364891,'',,,-3.22,52.46,1.14,,0.0,0.0,0.0,1.0
1665761289809922425,,4243,,1665761289,809514999,'',,,-3.3,52.13,1.12,,0.0,0.0,0.0,1.0
1665761289909477234,,4244,,1665761289,909152030,'',,,-3.4,51.79,1.06,,0.0,0.0,0.0,1.0
1665761290009670273,,4245,,1665761290,9320974,'',,,-3.49,51.44,1.09,,0.0,0.0,0.0,1.0
1665761290109450169,,4246,,1665761290,109138011,'',,,-3.59,51.09,1.07,,0.0,0.0,0.0,1.0
1665761290210461609,,4247,,1665761290,209719896,'',,,-3.68,50.72,0.99,,0.0,0.0,0.0,1.0
1665761290310763892,,4248,,1665761290,309864044,'',,,-3.78,50.37,0.92,,0.0,0.0,0.0,1.0
1665761290409756824,,4249,,1665761290,409486055,'',,,-3.88,50.02,0.94,,0.0,0.0,0.0,1.0
1665761290510126106,,4250,,1665761290,509798049,'',,,-3.98,49.65,0.92,,0.0,0.0,0.0,1.0
1665761290610130014,,4251,,1665761290,609752893,'',,,-4.06,49.27,0.92,,0.0,0.0,0.0,1.0
1665761290710614047,,4252,,1665761290,709976911,'',,,-4.14,48.91,0.93,,0.0,0.0,0.0,1.0
1665761290809642211,,4253,,1665761290,809423923,'',,,-4.22,48.57,0.97,,0.0,0.0,0.0,1.0
1665761290910065139,,4254,,1665761290,909684896,'',,,-4.28,48.18,0.93,,0.0,0.0,0.0,1.0
1665761291009804973,,4255,,1665761291,9484052,'',,,-4.35,47.83,1.07,,0.0,0.0,0.0,1.0
1665761291109743594,,4256,,1665761291,109471082,'',,,-4.43,47.47,1.05,,0.0,0.0,0.0,1.0
1665761291209106841,,4257,,1665761291,208832025,'',,,-4.49,47.09,1.07,,0.0,0.0,0.0,1.0
1665761291309775705,,4258,,1665761291,309510946,'',,,-4.56,46.72,1.05,,0.0,0.0,0.0,1.0
1665761291409986120,,4259,,1665761291,409661054,'',,,-4.62,46.39,1.04,,0.0,0.0,0.0,1.0
1665761291510121835,,4260,,1665761291,509875059,'',,,-4.7,46.01,1.08,,0.0,0.0,0.0,1.0
1665761291610906464,,4261,,1665761291,610527038,'',,,-4.76,45.61,1.06,,0.0,0.0,0.0,1.0
1665761291710723743,,4262,,1665761291,710468053,'',,,-4.82,45.2,1.01,,0.0,0.0,0.0,1.0
1665761291809674216,,4263,,1665761291,809403896,'',,,-4.88,44.8,1.03,,0.0,0.0,0.0,1.0
1665761291910211974,,4264,,1665761291,909919977,'',,,-4.94,44.38,1.09,,0.0,0.0,0.0,1.0
1665761292010278290,,4265,,1665761292,9531974,'',,,-4.99,43.98,1.15,,0.0,0.0,0.0,1.0
1665761292109775638,,4266,,1665761292,109461069,'',,,-5.04,43.56,1.22,,0.0,0.0,0.0,1.0
1665761292209918929,,4267,,1665761292,209597110,'',,,-5.08,43.14,1.2,,0.0,0.0,0.0,1.0
1665761292310253378,,4268,,1665761292,309927940,'',,,-5.11,42.73,1.21,,0.0,0.0,0.0,1.0
1665761292410120574,,4269,,1665761292,409753084,'',,,-5.16,42.35,1.13,,0.0,0.0,0.0,1.0
1665761292509745337,,4270,,1665761292,509378910,'',,,-5.18,41.9,1.14,,0.0,0.0,0.0,1.0
1665761292609939845,,4271,,1665761292,609591007,'',,,-5.18,41.47,1.15,,0.0,0.0,0.0,1.0
1665761292703628514,,4272,,1665761292,703146934,'',,,-5.18,41.04,1.17,,0.0,0.0,0.0,1.0
1665761292810740669,,4273,,1665761292,810329914,'',,,-5.2,40.61,1.08,,0.0,0.0,0.0,1.0
1665761292910582247,,4274,,1665761292,910218954,'',,,-5.19,40.16,0.97,,0.0,0.0,0.0,1.0
1665761293010141928,,4275,,1665761293,9819030,'',,,-5.19,39.69,1.03,,0.0,0.0,0.0,1.0
1665761293111277912,,4276,,1665761293,110754013,'',,,-5.21,39.27,1.07,,0.0,0.0,0.0,1.0
1665761293210949674,,4277,,1665761293,210699081,'',,,-5.21,38.82,1.02,,0.0,0.0,0.0,1.0
1665761293310870331,,4278,,1665761293,310585021,'',,,-5.23,38.38,0.95,,0.0,0.0,0.0,1.0
1665761293411123396,,4279,,1665761293,410758972,'',,,-5.21,37.92,1.03,,0.0,0.0,0.0,1.0
1665761293510854405,,4280,,1665761293,510600090,'',,,-5.23,37.48,0.93,,0.0,0.0,0.0,1.0
1665761293610665258,,4281,,1665761293,610340118,'',,,-5.22,37.01,1.08,,0.0,0.0,0.0,1.0
1665761293710878269,,4282,,1665761293,710490942,'',,,-5.22,36.53,1.23,,0.0,0.0,0.0,1.0
1665761293811882204,,4283,,1665761293,811196088,'',,,-5.23,36.09,1.19,,0.0,0.0,0.0,1.0
1665761293911206544,,4284,,1665761293,910789012,'',,,-5.23,35.63,1.14,,0.0,0.0,0.0,1.0
1665761294011035279,,4285,,1665761294,10767936,'',,,-5.2,35.16,1.08,,0.0,0.0,0.0,1.0
1665761294103908410,,4286,,1665761294,103537082,'',,,-5.19,34.7,1.0,,0.0,0.0,0.0,1.0
1665761294211777199,,4287,,1665761294,211463928,'',,,-5.18,34.26,0.89,,0.0,0.0,0.0,1.0
1665761294311427888,,4288,,1665761294,310991048,'',,,-5.13,33.78,1.01,,0.0,0.0,0.0,1.0
1665761294410769919,,4289,,1665761294,410537004,'',,,-5.11,33.31,0.96,,0.0,0.0,0.0,1.0
1665761294511108375,,4290,,1665761294,510571002,'',,,-5.09,32.85,1.04,,0.0,0.0,0.0,1.0
1665761294612168140,,4291,,1665761294,611797094,'',,,-5.01,32.34,1.18,,0.0,0.0,0.0,1.0
1665761294711339005,,4292,,1665761294,711126089,'',,,-4.93,31.83,1.21,,0.0,0.0,0.0,1.0
1665761294811624886,,4293,,1665761294,811028957,'',,,-4.89,31.38,1.33,,0.0,0.0,0.0,1.0
1665761294912332300,,4294,,1665761294,911588907,'',,,-4.88,30.91,1.15,,0.0,0.0,0.0,1.0
1665761295012696371,,4295,,1665761295,12048006,'',,,-4.77,30.39,1.04,,0.0,0.0,0.0,1.0
1665761295112115298,,4296,,1665761295,111665010,'',,,-4.72,29.95,0.91,,0.0,0.0,0.0,1.0
1665761295212077075,,4297,,1665761295,211457014,'',,,-4.63,29.5,0.96,,0.0,0.0,0.0,1.0
1665761295311771802,,4298,,1665761295,311484098,'',,,-4.52,29.05,1.04,,0.0,0.0,0.0,1.0
1665761295411763355,,4299,,1665761295,411488056,'',,,-4.4,28.6,0.89,,0.0,0.0,0.0,1.0
1665761295511666756,,4300,,1665761295,511406898,'',,,-4.28,28.15,1.08,,0.0,0.0,0.0,1.0
1665761295612488625,,4301,,1665761295,611834049,'',,,-4.09,27.66,0.99,,0.0,0.0,0.0,1.0
1665761295711311034,,4302,,1665761295,710867881,'',,,-3.98,27.22,1.07,,0.0,0.0,0.0,1.0
1665761295810903420,,4303,,1665761295,810509920,'',,,-3.82,26.8,1.21,,0.0,0.0,0.0,1.0
1665761295911448218,,4304,,1665761295,911020994,'',,,-3.68,26.37,1.29,,0.0,0.0,0.0,1.0
1665761296011134494,,4305,,1665761296,10554075,'',,,-3.53,25.94,1.27,,0.0,0.0,0.0,1.0
1665761296111612143,,4306,,1665761296,111032962,'',,,-3.37,25.52,1.2,,0.0,0.0,0.0,1.0
1665761296211293861,,4307,,1665761296,210925102,'',,,-3.23,25.1,1.16,,0.0,0.0,0.0,1.0
1665761296311129102,,4308,,1665761296,310761928,'',,,-3.11,24.64,1.15,,0.0,0.0,0.0,1.0
1665761296411143738,,4309,,1665761296,410638093,'',,,-2.99,24.2,1.17,,0.0,0.0,0.0,1.0
1665761296510870809,,4310,,1665761296,510591030,'',,,-2.86,23.74,1.18,,0.0,0.0,0.0,1.0
1665761296611336129,,4311,,1665761296,611129999,'',,,-2.68,23.32,1.13,,0.0,0.0,0.0,1.0
1665761296710696480,,4312,,1665761296,710467100,'',,,-2.59,22.86,1.24,,0.0,0.0,0.0,1.0
1665761296811121726,,4313,,1665761296,810760974,'',,,-2.53,22.39,1.3,,0.0,0.0,0.0,1.0
1665761296911853421,,4314,,1665761296,911537885,'',,,-2.4,21.96,1.38,,0.0,0.0,0.0,1.0
1665761297012154696,,4315,,1665761297,10658979,'',,,-2.31,21.49,1.32,,0.0,0.0,0.0,1.0
1665761297111709652,,4316,,1665761297,110979080,'',,,-2.22,21.04,1.38,,0.0,0.0,0.0,1.0
1665761297210478231,,4317,,1665761297,210262060,'',,,-2.13,20.57,1.36,,0.0,0.0,0.0,1.0
1665761297310832112,,4318,,1665761297,310499906,'',,,-2.05,20.12,1.43,,0.0,0.0,0.0,1.0
1665761297410776603,,4319,,1665761297,410487890,'',,,-2.0,19.66,1.43,,0.0,0.0,0.0,1.0
1665761297509551180,,4320,,1665761297,509275913,'',,,-1.97,19.24,1.46,,0.0,0.0,0.0,1.0
1665761297611575961,,4321,,1665761297,611051082,'',,,-1.9,18.82,1.52,,0.0,0.0,0.0,1.0
1665761297710513969,,4322,,1665761297,710129976,'',,,-1.85,18.4,1.63,,0.0,0.0,0.0,1.0
1665761297804102008,,4323,,1665761297,803620100,'',,,-1.78,17.97,1.55,,0.0,0.0,0.0,1.0
1665761297910000531,,4324,,1665761297,909709930,'',,,-1.76,17.58,1.52,,0.0,0.0,0.0,1.0
1665761298009536206,,4325,,1665761298,9229898,'',,,-1.71,17.18,1.54,,0.0,0.0,0.0,1.0
1665761298109944675,,4326,,1665761298,109504938,'',,,-1.66,16.77,1.64,,0.0,0.0,0.0,1.0
1665761298210160315,,4327,,1665761298,209948062,'',,,-1.64,16.38,1.47,,0.0,0.0,0.0,1.0
1665761298310695740,,4328,,1665761298,310305118,'',,,-1.59,16.0,1.39,,0.0,0.0,0.0,1.0
1665761298410725586,,4329,,1665761298,410403013,'',,,-1.55,15.61,1.27,,0.0,0.0,0.0,1.0
1665761298510601265,,4330,,1665761298,510313034,'',,,-1.54,15.25,1.17,,0.0,0.0,0.0,1.0
1665761298610467981,,4331,,1665761298,610131978,'',,,-1.52,14.88,1.3,,0.0,0.0,0.0,1.0
1665761298710247112,,4332,,1665761298,709949016,'',,,-1.51,14.55,1.23,,0.0,0.0,0.0,1.0
1665761298810490318,,4333,,1665761298,810029029,'',,,-1.52,14.23,1.28,,0.0,0.0,0.0,1.0
1665761298910562909,,4334,,1665761298,910099983,'',,,-1.48,13.93,1.38,,0.0,0.0,0.0,1.0
1665761299010533653,,4335,,1665761299,9958028,'',,,-1.46,13.65,1.35,,0.0,0.0,0.0,1.0
1665761299109813149,,4336,,1665761299,109524011,'',,,-1.46,13.36,1.29,,0.0,0.0,0.0,1.0
1665761299210305166,,4337,,1665761299,209472894,'',,,-1.48,13.09,1.28,,0.0,0.0,0.0,1.0
1665761299310451726,,4338,,1665761299,309710025,'',,,-1.45,12.88,1.26,,0.0,0.0,0.0,1.0
1665761299409916338,,4339,,1665761299,409665107,'',,,-1.41,12.68,1.05,,0.0,0.0,0.0,1.0
1665761299509766952,,4340,,1665761299,509468078,'',,,-1.42,12.47,1.05,,0.0,0.0,0.0,1.0
1665761299609767324,,4341,,1665761299,609466075,'',,,-1.43,12.3,1.03,,0.0,0.0,0.0,1.0
1665761299709791317,,4342,,1665761299,709526062,'',,,-1.48,12.14,1.08,,0.0,0.0,0.0,1.0
1665761299809846589,,4343,,1665761299,809642076,'',,,-1.44,12.04,0.97,,0.0,0.0,0.0,1.0
1665761299909529925,,4344,,1665761299,909312009,'',,,-1.43,11.93,0.94,,0.0,0.0,0.0,1.0
1665761300010359514,,4345,,1665761300,10027885,'',,,-1.51,11.82,0.84,,0.0,0.0,0.0,1.0
1665761300109897399,,4346,,1665761300,109532117,'',,,-1.48,11.76,0.85,,0.0,0.0,0.0,1.0
1665761300209516372,,4347,,1665761300,209292888,'',,,-1.42,11.73,0.8,,0.0,0.0,0.0,1.0
1665761300310825898,,4348,,1665761300,310043096,'',,,-1.39,11.71,0.72,,0.0,0.0,0.0,1.0
1665761300409944448,,4349,,1665761300,409629106,'',,,-1.47,11.65,0.83,,0.0,0.0,0.0,1.0
1665761300510287394,,4350,,1665761300,509843111,'',,,-1.43,11.64,0.71,,0.0,0.0,0.0,1.0
1665761300610068016,,4351,,1665761300,609649896,'',,,-1.43,11.63,0.72,,0.0,0.0,0.0,1.0
1665761300711094914,,4352,,1665761300,709975957,'',,,-1.39,11.65,0.78,,0.0,0.0,0.0,1.0
1665761300809869739,,4353,,1665761300,809650897,'',,,-1.37,11.66,0.8,,0.0,0.0,0.0,1.0
1665761300909746734,,4354,,1665761300,909533023,'',,,-1.38,11.64,0.85,,0.0,0.0,0.0,1.0
1665761301009923671,,4355,,1665761301,9721040,'',,,-1.36,11.64,0.72,,0.0,0.0,0.0,1.0
1665761301110741919,,4356,,1665761301,109749078,'',,,-1.35,11.64,0.65,,0.0,0.0,0.0,1.0
1665761301209909715,,4357,,1665761301,209697961,'',,,-1.32,11.66,0.76,,0.0,0.0,0.0,1.0
