rosbagTimestamp,header,seq,stamp,secs,nsecs,frame_id,pose,position,x,y,z,orientation,x,y,z,w
1665761316411462469,,4509,,1665761316,410923004,'',,,-1.42,11.28,0.68,,0.0,0.0,0.0,1.0
1665761316512124362,,4510,,1665761316,511042118,'',,,-1.39,11.22,0.71,,0.0,0.0,0.0,1.0
1665761316610515064,,4511,,1665761316,610249042,'',,,-1.37,11.16,0.68,,0.0,0.0,0.0,1.0
1665761316703909306,,4512,,1665761316,703543901,'',,,-1.38,11.02,0.78,,0.0,0.0,0.0,1.0
1665761316810825843,,4513,,1665761316,810540914,'',,,-1.5,10.89,0.73,,0.0,0.0,0.0,1.0
1665761316911424732,,4514,,1665761316,910924911,'',,,-1.44,10.81,0.67,,0.0,0.0,0.0,1.0
1665761317011288678,,4515,,1665761317,10664939,'',,,-1.52,10.67,0.69,,0.0,0.0,0.0,1.0
1665761317110975031,,4516,,1665761317,110577106,'',,,-1.45,10.57,0.75,,0.0,0.0,0.0,1.0
1665761317210217481,,4517,,1665761317,210000991,'',,,-1.43,10.43,0.69,,0.0,0.0,0.0,1.0
1665761317310532992,,4518,,1665761317,310241937,'',,,-1.42,10.26,0.81,,0.0,0.0,0.0,1.0
1665761317410465146,,4519,,1665761317,410188913,'',,,-1.4,10.1,0.86,,0.0,0.0,0.0,1.0
1665761317510551629,,4520,,1665761317,510334968,'',,,-1.4,9.95,1.06,,0.0,0.0,0.0,1.0
1665761317604153454,,4521,,1665761317,603579044,'',,,-1.4,9.78,1.12,,0.0,0.0,0.0,1.0
1665761317710650071,,4522,,1665761317,710314035,'',,,-1.4,9.61,1.04,,0.0,0.0,0.0,1.0
1665761317810539561,,4523,,1665761317,810220956,'',,,-1.4,9.44,0.98,,0.0,0.0,0.0,1.0
1665761317910919659,,4524,,1665761317,910442113,'',,,-1.38,9.25,0.98,,0.0,0.0,0.0,1.0
1665761318004202039,,4525,,1665761318,3545999,'',,,-1.33,9.07,0.94,,0.0,0.0,0.0,1.0
1665761318103995133,,4526,,1665761318,103584051,'',,,-1.35,8.9,0.98,,0.0,0.0,0.0,1.0
1665761318203706280,,4527,,1665761318,203408002,'',,,-1.37,8.71,0.98,,0.0,0.0,0.0,1.0
1665761318304327843,,4528,,1665761318,303720951,'',,,-1.31,8.53,0.91,,0.0,0.0,0.0,1.0
1665761318510343641,,4529,,1665761318,510003089,'',,,-1.35,8.28,0.97,,0.0,0.0,0.0,1.0
1665761318610683083,,4530,,1665761318,610135078,'',,,-1.38,8.05,1.05,,0.0,0.0,0.0,1.0
1665761318710499768,,4531,,1665761318,710156917,'',,,-1.41,7.85,1.04,,0.0,0.0,0.0,1.0
1665761318803930803,,4532,,1665761318,803608894,'',,,-1.45,7.62,1.04,,0.0,0.0,0.0,1.0
1665761318910748383,,4533,,1665761318,910305023,'',,,-1.46,7.41,0.96,,0.0,0.0,0.0,1.0
1665761319010208356,,4534,,1665761319,9835004,'',,,-1.47,7.22,0.97,,0.0,0.0,0.0,1.0
1665761319110113422,,4535,,1665761319,109841108,'',,,-1.53,7.02,1.11,,0.0,0.0,0.0,1.0
1665761319209956137,,4536,,1665761319,209646940,'',,,-1.58,6.84,1.12,,0.0,0.0,0.0,1.0
1665761319310145516,,4537,,1665761319,309811115,'',,,-1.66,6.64,1.15,,0.0,0.0,0.0,1.0
1665761319410777873,,4538,,1665761319,410373926,'',,,-1.71,6.46,1.1,,0.0,0.0,0.0,1.0
1665761319510776073,,4539,,1665761319,510322093,'',,,-1.78,6.27,1.02,,0.0,0.0,0.0,1.0
1665761319604186267,,4540,,1665761319,603852987,'',,,-1.93,6.05,1.01,,0.0,0.0,0.0,1.0
1665761319711449639,,4541,,1665761319,710233926,'',,,-1.95,5.89,1.13,,0.0,0.0,0.0,1.0
1665761319810455875,,4542,,1665761319,810156106,'',,,-2.03,5.73,1.24,,0.0,0.0,0.0,1.0
1665761319911053016,,4543,,1665761319,910449028,'',,,-2.13,5.54,1.15,,0.0,0.0,0.0,1.0
1665761320011074453,,4544,,1665761320,10514974,'',,,-2.26,5.34,1.07,,0.0,0.0,0.0,1.0
1665761320110580224,,4545,,1665761320,110261917,'',,,-2.36,5.2,1.13,,0.0,0.0,0.0,1.0
1665761320210744237,,4546,,1665761320,210439920,'',,,-2.51,5.03,1.08,,0.0,0.0,0.0,1.0
1665761320310409806,,4547,,1665761320,310120105,'',,,-2.6,4.89,1.01,,0.0,0.0,0.0,1.0
1665761320410768375,,4548,,1665761320,410324096,'',,,-2.7,4.77,0.97,,0.0,0.0,0.0,1.0
1665761320511019424,,4549,,1665761320,510605096,'',,,-2.81,4.69,1.16,,0.0,0.0,0.0,1.0
1665761320610415392,,4550,,1665761320,610085010,'',,,-2.97,4.55,1.09,,0.0,0.0,0.0,1.0
1665761320710815335,,4551,,1665761320,710562944,'',,,-3.1,4.47,1.14,,0.0,0.0,0.0,1.0
1665761320811187340,,4552,,1665761320,810652971,'',,,-3.24,4.4,1.11,,0.0,0.0,0.0,1.0
1665761320904361479,,4553,,1665761320,903768062,'',,,-3.42,4.26,1.07,,0.0,0.0,0.0,1.0
1665761321010958318,,4554,,1665761321,10340929,'',,,-3.59,4.21,1.15,,0.0,0.0,0.0,1.0
1665761321110931946,,4555,,1665761321,110008001,'',,,-3.76,4.15,1.22,,0.0,0.0,0.0,1.0
1665761321211011695,,4556,,1665761321,210405111,'',,,-3.96,4.06,1.14,,0.0,0.0,0.0,1.0
1665761321310668241,,4557,,1665761321,310333967,'',,,-4.17,3.98,1.08,,0.0,0.0,0.0,1.0
1665761321410618814,,4558,,1665761321,410249948,'',,,-4.34,3.94,1.07,,0.0,0.0,0.0,1.0
1665761321510556884,,4559,,1665761321,510096073,'',,,-4.55,3.87,0.98,,0.0,0.0,0.0,1.0
1665761321610168905,,4560,,1665761321,609783887,'',,,-4.69,3.86,0.93,,0.0,0.0,0.0,1.0
1665761321710505540,,4561,,1665761321,710156917,'',,,-4.87,3.87,0.99,,0.0,0.0,0.0,1.0
1665761321810631653,,4562,,1665761321,809995889,'',,,-5.05,3.86,0.93,,0.0,0.0,0.0,1.0
1665761321904398626,,4563,,1665761321,904068946,'',,,-5.23,3.87,0.9,,0.0,0.0,0.0,1.0
1665761322010735443,,4564,,1665761322,10401964,'',,,-5.4,3.93,0.99,,0.0,0.0,0.0,1.0
1665761322111028005,,4565,,1665761322,110174894,'',,,-5.58,3.97,1.0,,0.0,0.0,0.0,1.0
1665761322211121476,,4566,,1665761322,210625886,'',,,-5.75,4.04,1.01,,0.0,0.0,0.0,1.0
1665761322310136337,,4567,,1665761322,309698104,'',,,-5.95,4.05,0.94,,0.0,0.0,0.0,1.0
1665761322409971320,,4568,,1665761322,409735918,'',,,-6.12,4.1,0.89,,0.0,0.0,0.0,1.0
1665761322510404522,,4569,,1665761322,510026931,'',,,-6.3,4.14,0.86,,0.0,0.0,0.0,1.0
1665761322610657192,,4570,,1665761322,610117912,'',,,-6.47,4.21,0.83,,0.0,0.0,0.0,1.0
1665761322710308180,,4571,,1665761322,709940910,'',,,-6.64,4.29,0.8,,0.0,0.0,0.0,1.0
1665761322810623691,,4572,,1665761322,810236930,'',,,-6.8,4.39,0.8,,0.0,0.0,0.0,1.0
1665761322909777852,,4573,,1665761322,909425973,'',,,-6.96,4.5,1.01,,0.0,0.0,0.0,1.0
1665761323010443341,,4574,,1665761323,9994983,'',,,-7.11,4.61,0.96,,0.0,0.0,0.0,1.0
1665761323110771736,,4575,,1665761323,110232114,'',,,-7.25,4.74,0.93,,0.0,0.0,0.0,1.0
1665761323210477899,,4576,,1665761323,210187911,'',,,-7.42,4.85,0.92,,0.0,0.0,0.0,1.0
1665761323310430476,,4577,,1665761323,310137033,'',,,-7.54,5.0,0.98,,0.0,0.0,0.0,1.0
1665761323410817394,,4578,,1665761323,410351037,'',,,-7.65,5.19,1.08,,0.0,0.0,0.0,1.0
1665761323510796041,,4579,,1665761323,510368108,'',,,-7.8,5.32,0.97,,0.0,0.0,0.0,1.0
1665761323610459828,,4580,,1665761323,610179901,'',,,-7.9,5.48,1.0,,0.0,0.0,0.0,1.0
1665761323711555969,,4581,,1665761323,710469007,'',,,-7.99,5.66,0.98,,0.0,0.0,0.0,1.0
1665761323811400700,,4582,,1665761323,810694932,'',,,-8.08,5.82,1.0,,0.0,0.0,0.0,1.0
1665761323911067637,,4583,,1665761323,910507917,'',,,-8.17,6.02,1.04,,0.0,0.0,0.0,1.0
1665761324010434309,,4584,,1665761324,10093927,'',,,-8.25,6.23,1.06,,0.0,0.0,0.0,1.0
1665761324111625419,,4585,,1665761324,111244916,'',,,-8.3,6.41,1.02,,0.0,0.0,0.0,1.0
1665761324211095031,,4586,,1665761324,210705995,'',,,-8.36,6.64,1.18,,0.0,0.0,0.0,1.0
1665761324310735105,,4587,,1665761324,310369014,'',,,-8.41,6.86,1.28,,0.0,0.0,0.0,1.0
1665761324405014290,,4588,,1665761324,404563903,'',,,-8.43,7.04,1.24,,0.0,0.0,0.0,1.0
1665761324511493451,,4589,,1665761324,511101961,'',,,-8.5,7.29,1.09,,0.0,0.0,0.0,1.0
1665761324612030875,,4590,,1665761324,611660003,'',,,-8.57,7.53,1.07,,0.0,0.0,0.0,1.0
1665761324711863562,,4591,,1665761324,711570978,'',,,-8.6,7.77,1.05,,0.0,0.0,0.0,1.0
1665761324812468484,,4592,,1665761324,811422109,'',,,-8.63,8.03,1.01,,0.0,0.0,0.0,1.0
1665761324911450048,,4593,,1665761324,911150932,'',,,-8.65,8.28,1.0,,0.0,0.0,0.0,1.0
1665761325012328953,,4594,,1665761325,11779069,'',,,-8.67,8.57,0.93,,0.0,0.0,0.0,1.0
1665761325111424668,,4595,,1665761325,111181974,'',,,-8.69,8.84,0.94,,0.0,0.0,0.0,1.0
1665761325211654489,,4596,,1665761325,211445093,'',,,-8.69,9.13,0.95,,0.0,0.0,0.0,1.0
1665761325312018547,,4597,,1665761325,311649084,'',,,-8.71,9.45,0.99,,0.0,0.0,0.0,1.0
1665761325411176578,,4598,,1665761325,410857915,'',,,-8.74,9.79,1.02,,0.0,0.0,0.0,1.0
1665761325512311059,,4599,,1665761325,512006998,'',,,-8.75,10.12,1.02,,0.0,0.0,0.0,1.0
1665761325612367164,,4600,,1665761325,612071037,'',,,-8.77,10.46,0.92,,0.0,0.0,0.0,1.0
1665761325712351418,,4601,,1665761325,711812973,'',,,-8.79,10.82,1.07,,0.0,0.0,0.0,1.0
1665761325811308644,,4602,,1665761325,810930967,'',,,-8.77,11.14,1.09,,0.0,0.0,0.0,1.0
1665761325911487841,,4603,,1665761325,911128044,'',,,-8.76,11.51,1.13,,0.0,0.0,0.0,1.0
1665761326012189315,,4604,,1665761326,11552095,'',,,-8.76,11.86,1.13,,0.0,0.0,0.0,1.0
1665761326111985689,,4605,,1665761326,111610889,'',,,-8.76,12.23,1.11,,0.0,0.0,0.0,1.0
1665761326211482373,,4606,,1665761326,211267948,'',,,-8.76,12.61,1.07,,0.0,0.0,0.0,1.0
1665761326311020140,,4607,,1665761326,310655117,'',,,-8.75,13.01,0.99,,0.0,0.0,0.0,1.0
1665761326411602811,,4608,,1665761326,411267995,'',,,-8.76,13.42,1.0,,0.0,0.0,0.0,1.0
1665761326511131536,,4609,,1665761326,510782003,'',,,-8.75,13.83,0.9,,0.0,0.0,0.0,1.0
1665761326611709061,,4610,,1665761326,611423015,'',,,-8.74,14.24,0.99,,0.0,0.0,0.0,1.0
1665761326712443181,,4611,,1665761326,711503028,'',,,-8.72,14.66,1.02,,0.0,0.0,0.0,1.0
1665761326812314788,,4612,,1665761326,812066078,'',,,-8.73,15.14,0.97,,0.0,0.0,0.0,1.0
1665761326912399138,,4613,,1665761326,912151098,'',,,-8.7,15.57,1.12,,0.0,0.0,0.0,1.0
1665761327012203529,,4614,,1665761327,11961936,'',,,-8.68,16.02,1.02,,0.0,0.0,0.0,1.0
1665761327110868232,,4615,,1665761327,110510110,'',,,-8.76,16.46,0.98,,0.0,0.0,0.0,1.0
1665761327211975821,,4616,,1665761327,211575031,'',,,-8.71,16.92,1.08,,0.0,0.0,0.0,1.0
1665761327312214870,,4617,,1665761327,311882019,'',,,-8.69,17.4,1.02,,0.0,0.0,0.0,1.0
1665761327411970348,,4618,,1665761327,411680936,'',,,-8.68,17.89,1.17,,0.0,0.0,0.0,1.0
1665761327512992002,,4619,,1665761327,512427091,'',,,-8.69,18.32,1.12,,0.0,0.0,0.0,1.0
1665761327612115452,,4620,,1665761327,611820936,'',,,-8.7,18.76,1.07,,0.0,0.0,0.0,1.0
1665761327711960468,,4621,,1665761327,711731910,'',,,-8.68,19.27,1.27,,0.0,0.0,0.0,1.0
1665761327811916810,,4622,,1665761327,811589002,'',,,-8.68,19.72,1.15,,0.0,0.0,0.0,1.0
1665761327912598025,,4623,,1665761327,912276029,'',,,-8.69,20.2,1.05,,0.0,0.0,0.0,1.0
1665761328012653645,,4624,,1665761328,12337923,'',,,-8.69,20.67,0.98,,0.0,0.0,0.0,1.0
1665761328112011663,,4625,,1665761328,111696004,'',,,-8.68,21.18,1.04,,0.0,0.0,0.0,1.0
1665761328212349134,,4626,,1665761328,212136030,'',,,-8.69,21.67,0.95,,0.0,0.0,0.0,1.0
1665761328313248137,,4627,,1665761328,312690973,'',,,-8.65,22.23,0.89,,0.0,0.0,0.0,1.0
1665761328412894694,,4628,,1665761328,412111997,'',,,-8.62,22.78,0.87,,0.0,0.0,0.0,1.0
1665761328512387500,,4629,,1665761328,512084960,'',,,-8.63,23.27,0.82,,0.0,0.0,0.0,1.0
1665761328612663375,,4630,,1665761328,612332105,'',,,-8.6,23.83,0.87,,0.0,0.0,0.0,1.0
1665761328712813549,,4631,,1665761328,712112903,'',,,-8.58,24.39,0.91,,0.0,0.0,0.0,1.0
1665761328812715549,,4632,,1665761328,812318086,'',,,-8.56,24.92,0.95,,0.0,0.0,0.0,1.0
1665761328912471402,,4633,,1665761328,912028074,'',,,-8.55,25.46,1.04,,0.0,0.0,0.0,1.0
1665761329011808197,,4634,,1665761329,11612892,'',,,-8.54,25.98,1.24,,0.0,0.0,0.0,1.0
1665761329112171402,,4635,,1665761329,111946105,'',,,-8.54,26.46,1.24,,0.0,0.0,0.0,1.0
1665761329212479832,,4636,,1665761329,212229967,'',,,-8.54,26.95,1.19,,0.0,0.0,0.0,1.0
1665761329312245375,,4637,,1665761329,311872005,'',,,-8.51,27.51,1.25,,0.0,0.0,0.0,1.0
1665761329413222670,,4638,,1665761329,412703037,'',,,-8.51,28.0,1.25,,0.0,0.0,0.0,1.0
1665761329513899050,,4639,,1665761329,513509035,'',,,-8.48,28.46,1.3,,0.0,0.0,0.0,1.0
1665761329610900197,,4640,,1665761329,610447883,'',,,-8.54,29.02,1.2,,0.0,0.0,0.0,1.0
1665761329711942324,,4641,,1665761329,711672067,'',,,-8.55,29.54,1.07,,0.0,0.0,0.0,1.0
1665761329812400355,,4642,,1665761329,812103986,'',,,-8.51,30.01,1.13,,0.0,0.0,0.0,1.0
1665761329911976684,,4643,,1665761329,911676883,'',,,-8.53,30.54,1.11,,0.0,0.0,0.0,1.0
1665761330011331171,,4644,,1665761330,11010885,'',,,-8.56,31.08,1.02,,0.0,0.0,0.0,1.0
1665761330112139270,,4645,,1665761330,111726999,'',,,-8.52,31.54,1.01,,0.0,0.0,0.0,1.0
1665761330211674865,,4646,,1665761330,211435079,'',,,-8.5,32.02,0.98,,0.0,0.0,0.0,1.0
1665761330312350367,,4647,,1665761330,311582088,'',,,-8.48,32.49,0.96,,0.0,0.0,0.0,1.0
1665761330411911373,,4648,,1665761330,411617994,'',,,-8.46,32.97,0.98,,0.0,0.0,0.0,1.0
1665761330511752605,,4649,,1665761330,511181116,'',,,-8.45,33.47,0.89,,0.0,0.0,0.0,1.0
1665761330611816874,,4650,,1665761330,611490964,'',,,-8.45,33.96,0.85,,0.0,0.0,0.0,1.0
1665761330711657226,,4651,,1665761330,711193084,'',,,-8.44,34.45,0.8,,0.0,0.0,0.0,1.0
1665761330811881828,,4652,,1665761330,811157941,'',,,-8.43,34.94,0.75,,0.0,0.0,0.0,1.0
1665761330912313192,,4653,,1665761330,912128925,'',,,-8.43,35.44,0.73,,0.0,0.0,0.0,1.0
1665761331012851189,,4654,,1665761331,12362957,'',,,-8.41,35.95,0.72,,0.0,0.0,0.0,1.0
1665761331111696765,,4655,,1665761331,111287117,'',,,-8.4,36.44,0.67,,0.0,0.0,0.0,1.0
1665761331211179791,,4656,,1665761331,210870027,'',,,-8.4,36.92,0.64,,0.0,0.0,0.0,1.0
1665761331311314820,,4657,,1665761331,310930013,'',,,-8.41,37.41,0.8,,0.0,0.0,0.0,1.0
1665761331410997219,,4658,,1665761331,410641908,'',,,-8.41,37.9,0.89,,0.0,0.0,0.0,1.0
1665761331511827993,,4659,,1665761331,511313915,'',,,-8.42,38.38,0.96,,0.0,0.0,0.0,1.0
1665761331611566018,,4660,,1665761331,611114025,'',,,-8.44,38.86,1.03,,0.0,0.0,0.0,1.0
1665761331711116921,,4661,,1665761331,710860013,'',,,-8.48,39.31,1.17,,0.0,0.0,0.0,1.0
1665761331811866588,,4662,,1665761331,811171054,'',,,-8.49,39.75,1.38,,0.0,0.0,0.0,1.0
1665761331912596529,,4663,,1665761331,911931991,'',,,-8.52,40.19,1.23,,0.0,0.0,0.0,1.0
1665761332011842747,,4664,,1665761332,11419057,'',,,-8.53,40.68,1.25,,0.0,0.0,0.0,1.0
1665761332111302126,,4665,,1665761332,111006975,'',,,-8.58,41.13,1.33,,0.0,0.0,0.0,1.0
1665761332211744254,,4666,,1665761332,211412906,'',,,-8.63,41.66,1.27,,0.0,0.0,0.0,1.0
1665761332311151796,,4667,,1665761332,310874938,'',,,-8.68,42.11,1.26,,0.0,0.0,0.0,1.0
1665761332411171910,,4668,,1665761332,410823106,'',,,-8.73,42.56,1.17,,0.0,0.0,0.0,1.0
1665761332511892083,,4669,,1665761332,511564970,'',,,-8.8,43.05,1.27,,0.0,0.0,0.0,1.0
1665761332612095642,,4670,,1665761332,611223936,'',,,-8.87,43.48,1.23,,0.0,0.0,0.0,1.0
1665761332711134283,,4671,,1665761332,710890054,'',,,-8.96,43.9,1.22,,0.0,0.0,0.0,1.0
1665761332811639941,,4672,,1665761332,811384916,'',,,-9.03,44.32,1.37,,0.0,0.0,0.0,1.0
1665761332911395218,,4673,,1665761332,911183118,'',,,-9.14,44.76,1.36,,0.0,0.0,0.0,1.0
1665761333012417587,,4674,,1665761333,11295080,'',,,-9.24,45.2,1.43,,0.0,0.0,0.0,1.0
1665761333112356401,,4675,,1665761333,112025976,'',,,-9.35,45.66,1.33,,0.0,0.0,0.0,1.0
1665761333211839689,,4676,,1665761333,211605072,'',,,-9.48,46.06,1.19,,0.0,0.0,0.0,1.0
1665761333305237168,,4677,,1665761333,304717063,'',,,-9.59,46.47,1.26,,0.0,0.0,0.0,1.0
1665761333411215559,,4678,,1665761333,410973072,'',,,-9.71,46.88,1.27,,0.0,0.0,0.0,1.0
1665761333511981303,,4679,,1665761333,511488914,'',,,-9.85,47.29,1.4,,0.0,0.0,0.0,1.0
1665761333612722232,,4680,,1665761333,612337112,'',,,-10.0,47.7,1.23,,0.0,0.0,0.0,1.0
1665761333711238338,,4681,,1665761333,711004018,'',,,-10.14,48.09,1.34,,0.0,0.0,0.0,1.0
1665761333812138385,,4682,,1665761333,811520099,'',,,-10.3,48.47,1.36,,0.0,0.0,0.0,1.0
1665761333911649781,,4683,,1665761333,911427021,'',,,-10.46,48.84,1.39,,0.0,0.0,0.0,1.0
1665761334012159339,,4684,,1665761334,11868953,'',,,-10.65,49.18,1.41,,0.0,0.0,0.0,1.0
1665761334112001342,,4685,,1665761334,111443996,'',,,-10.8,49.55,1.35,,0.0,0.0,0.0,1.0
1665761334212221446,,4686,,1665761334,212002992,'',,,-10.98,49.95,1.3,,0.0,0.0,0.0,1.0
1665761334313301585,,4687,,1665761334,311989068,'',,,-11.13,50.33,1.29,,0.0,0.0,0.0,1.0
1665761334412153808,,4688,,1665761334,411916971,'',,,-11.25,50.66,1.18,,0.0,0.0,0.0,1.0
1665761334512953958,,4689,,1665761334,512557983,'',,,-11.44,51.07,1.16,,0.0,0.0,0.0,1.0
1665761334612279855,,4690,,1665761334,611897945,'',,,-11.56,51.41,1.14,,0.0,0.0,0.0,1.0
1665761334712182184,,4691,,1665761334,711869001,'',,,-11.68,51.74,1.04,,0.0,0.0,0.0,1.0
1665761334806013511,,4692,,1665761334,805677890,'',,,-11.87,52.14,0.98,,0.0,0.0,0.0,1.0
1665761334905695552,,4693,,1665761334,905385971,'',,,-12.03,52.51,0.94,,0.0,0.0,0.0,1.0
1665761335012752578,,4694,,1665761335,12140989,'',,,-12.11,52.83,1.03,,0.0,0.0,0.0,1.0
1665761335112485292,,4695,,1665761335,112289905,'',,,-12.2,53.16,1.0,,0.0,0.0,0.0,1.0
1665761335205627230,,4696,,1665761335,205300092,'',,,-12.37,53.53,0.96,,0.0,0.0,0.0,1.0
1665761335306987496,,4697,,1665761335,305367946,'',,,-12.5,53.9,0.98,,0.0,0.0,0.0,1.0
1665761335708623936,,4698,,1665761335,708010911,'',,,-12.6,54.46,0.96,,0.0,0.0,0.0,1.0
1665761335816374623,,4699,,1665761335,816093921,'',,,-12.61,54.98,1.05,,0.0,0.0,0.0,1.0
1665761335915187754,,4700,,1665761335,914736032,'',,,-12.64,55.46,1.02,,0.0,0.0,0.0,1.0
1665761336015996774,,4701,,1665761336,15626907,'',,,-12.65,55.91,1.03,,0.0,0.0,0.0,1.0
1665761336117214268,,4702,,1665761336,115798950,'',,,-12.62,56.29,0.99,,0.0,0.0,0.0,1.0
1665761336214480976,,4703,,1665761336,213886022,'',,,-12.53,56.69,1.0,,0.0,0.0,0.0,1.0
1665761336314767999,,4704,,1665761336,314165115,'',,,-12.45,57.05,1.03,,0.0,0.0,0.0,1.0
1665761336415989515,,4705,,1665761336,415395975,'',,,-12.37,57.36,1.12,,0.0,0.0,0.0,1.0
1665761336513481788,,4706,,1665761336,513159990,'',,,-12.26,57.66,1.28,,0.0,0.0,0.0,1.0
1665761336614244274,,4707,,1665761336,613982915,'',,,-12.15,57.96,1.14,,0.0,0.0,0.0,1.0
1665761336714117423,,4708,,1665761336,713900089,'',,,-12.0,58.24,1.25,,0.0,0.0,0.0,1.0
1665761336813731985,,4709,,1665761336,813452959,'',,,-11.82,58.55,1.19,,0.0,0.0,0.0,1.0
1665761336915911378,,4710,,1665761336,915419101,'',,,-11.69,58.77,1.22,,0.0,0.0,0.0,1.0
1665761337015794913,,4711,,1665761337,15484094,'',,,-11.53,59.01,1.07,,0.0,0.0,0.0,1.0
1665761337114208245,,4712,,1665761337,113945960,'',,,-11.39,59.22,1.11,,0.0,0.0,0.0,1.0
1665761337214327944,,4713,,1665761337,213862895,'',,,-11.23,59.47,1.01,,0.0,0.0,0.0,1.0
1665761337313582262,,4714,,1665761337,313303947,'',,,-11.04,59.68,1.1,,0.0,0.0,0.0,1.0
1665761337414528338,,4715,,1665761337,414222955,'',,,-10.85,59.89,1.06,,0.0,0.0,0.0,1.0
1665761337515249905,,4716,,1665761337,514916896,'',,,-10.65,60.04,1.14,,0.0,0.0,0.0,1.0
1665761337615376862,,4717,,1665761337,615044116,'',,,-10.43,60.19,1.12,,0.0,0.0,0.0,1.0
1665761337715630723,,4718,,1665761337,715153932,'',,,-10.2,60.32,1.24,,0.0,0.0,0.0,1.0
1665761337816045185,,4719,,1665761337,815658092,'',,,-9.95,60.45,1.13,,0.0,0.0,0.0,1.0
1665761337915927950,,4720,,1665761337,915333032,'',,,-9.72,60.54,1.28,,0.0,0.0,0.0,1.0
1665761338015760797,,4721,,1665761338,15486001,'',,,-9.49,60.63,1.19,,0.0,0.0,0.0,1.0
1665761338115857671,,4722,,1665761338,115531921,'',,,-9.23,60.71,1.1,,0.0,0.0,0.0,1.0
1665761338216507930,,4723,,1665761338,216089963,'',,,-8.99,60.76,1.01,,0.0,0.0,0.0,1.0
1665761338315896529,,4724,,1665761338,315598964,'',,,-8.73,60.81,0.94,,0.0,0.0,0.0,1.0
1665761338415950108,,4725,,1665761338,415669918,'',,,-8.46,60.85,0.93,,0.0,0.0,0.0,1.0
1665761338515663445,,4726,,1665761338,515403985,'',,,-8.21,60.85,1.11,,0.0,0.0,0.0,1.0
1665761338616824765,,4727,,1665761338,616326093,'',,,-7.92,60.85,1.09,,0.0,0.0,0.0,1.0
1665761338707669916,,4728,,1665761338,707366943,'',,,-7.72,60.8,1.02,,0.0,0.0,0.0,1.0
1665761338815410784,,4729,,1665761338,815124988,'',,,-7.43,60.79,0.94,,0.0,0.0,0.0,1.0
1665761338917599558,,4730,,1665761338,916208982,'',,,-7.14,60.73,0.96,,0.0,0.0,0.0,1.0
1665761339016296154,,4731,,1665761339,16010999,'',,,-6.87,60.65,0.94,,0.0,0.0,0.0,1.0
1665761339115281217,,4732,,1665761339,115000009,'',,,-6.61,60.57,1.13,,0.0,0.0,0.0,1.0
1665761339215800480,,4733,,1665761339,215569019,'',,,-6.34,60.48,1.06,,0.0,0.0,0.0,1.0
1665761339314998608,,4734,,1665761339,314719915,'',,,-6.1,60.37,1.07,,0.0,0.0,0.0,1.0
1665761339415262259,,4735,,1665761339,415025949,'',,,-5.86,60.23,1.16,,0.0,0.0,0.0,1.0
1665761339515077903,,4736,,1665761339,514811992,'',,,-5.63,60.08,1.31,,0.0,0.0,0.0,1.0
1665761339615679743,,4737,,1665761339,615467071,'',,,-5.4,59.94,1.44,,0.0,0.0,0.0,1.0
1665761339716066507,,4738,,1665761339,715534925,'',,,-5.16,59.78,1.29,,0.0,0.0,0.0,1.0
1665761339815514450,,4739,,1665761339,815161943,'',,,-4.95,59.6,1.29,,0.0,0.0,0.0,1.0
1665761339915558012,,4740,,1665761339,915007114,'',,,-4.76,59.42,1.29,,0.0,0.0,0.0,1.0
1665761340015047012,,4741,,1665761340,14770984,'',,,-4.57,59.25,1.26,,0.0,0.0,0.0,1.0
1665761340114531302,,4742,,1665761340,114289999,'',,,-4.4,58.99,1.28,,0.0,0.0,0.0,1.0
1665761340214822955,,4743,,1665761340,214546918,'',,,-4.25,58.74,1.32,,0.0,0.0,0.0,1.0
1665761340315758557,,4744,,1665761340,314469099,'',,,-4.09,58.48,1.24,,0.0,0.0,0.0,1.0
1665761340415035706,,4745,,1665761340,414567947,'',,,-3.97,58.23,1.27,,0.0,0.0,0.0,1.0
1665761340514539248,,4746,,1665761340,514276981,'',,,-3.84,57.96,1.28,,0.0,0.0,0.0,1.0
1665761340615012893,,4747,,1665761340,614728927,'',,,-3.74,57.68,1.35,,0.0,0.0,0.0,1.0
1665761340714556359,,4748,,1665761340,714262962,'',,,-3.64,57.4,1.35,,0.0,0.0,0.0,1.0
1665761340814550557,,4749,,1665761340,814295053,'',,,-3.56,57.13,1.42,,0.0,0.0,0.0,1.0
1665761340915626423,,4750,,1665761340,914899110,'',,,-3.48,56.83,1.45,,0.0,0.0,0.0,1.0
1665761341014973918,,4751,,1665761341,14606952,'',,,-3.41,56.51,1.51,,0.0,0.0,0.0,1.0
1665761341115193896,,4752,,1665761341,114690065,'',,,-3.34,56.18,1.37,,0.0,0.0,0.0,1.0
1665761341214467389,,4753,,1665761341,214071035,'',,,-3.29,55.85,1.42,,0.0,0.0,0.0,1.0
1665761341314389177,,4754,,1665761341,313806056,'',,,-3.24,55.51,1.47,,0.0,0.0,0.0,1.0
1665761341415159989,,4755,,1665761341,414753913,'',,,-3.25,55.25,1.34,,0.0,0.0,0.0,1.0
1665761341514999034,,4756,,1665761341,514672994,'',,,-3.28,54.97,1.2,,0.0,0.0,0.0,1.0
1665761341614768767,,4757,,1665761341,614522933,'',,,-3.25,54.63,1.11,,0.0,0.0,0.0,1.0
1665761341714700628,,4758,,1665761341,714391946,'',,,-3.29,54.31,1.17,,0.0,0.0,0.0,1.0
1665761341814806087,,4759,,1665761341,814497947,'',,,-3.29,53.95,1.1,,0.0,0.0,0.0,1.0
1665761341915450434,,4760,,1665761341,914928913,'',,,-3.33,53.62,1.27,,0.0,0.0,0.0,1.0
1665761342014855414,,4761,,1665761342,14561891,'',,,-3.39,53.29,1.32,,0.0,0.0,0.0,1.0
1665761342115151905,,4762,,1665761342,114739894,'',,,-3.44,52.94,1.43,,0.0,0.0,0.0,1.0
1665761342214886867,,4763,,1665761342,214425086,'',,,-3.49,52.61,1.36,,0.0,0.0,0.0,1.0
1665761342314452596,,4764,,1665761342,314237117,'',,,-3.55,52.27,1.27,,0.0,0.0,0.0,1.0
1665761342414779227,,4765,,1665761342,414582014,'',,,-3.63,51.92,1.35,,0.0,0.0,0.0,1.0
1665761342514462483,,4766,,1665761342,514245033,'',,,-3.71,51.57,1.31,,0.0,0.0,0.0,1.0
1665761342615125373,,4767,,1665761342,614774942,'',,,-3.78,51.22,1.11,,0.0,0.0,0.0,1.0
1665761342714781340,,4768,,1665761342,714478969,'',,,-3.86,50.86,1.08,,0.0,0.0,0.0,1.0
1665761342814638661,,4769,,1665761342,814321041,'',,,-3.95,50.49,1.16,,0.0,0.0,0.0,1.0
1665761342914944371,,4770,,1665761342,914573907,'',,,-4.03,50.14,1.11,,0.0,0.0,0.0,1.0
1665761343015173599,,4771,,1665761343,14810085,'',,,-4.11,49.78,1.2,,0.0,0.0,0.0,1.0
1665761343114671929,,4772,,1665761343,114327907,'',,,-4.18,49.4,1.19,,0.0,0.0,0.0,1.0
1665761343215266400,,4773,,1665761343,214679956,'',,,-4.22,49.02,1.23,,0.0,0.0,0.0,1.0
1665761343314519117,,4774,,1665761343,314209938,'',,,-4.29,48.66,1.14,,0.0,0.0,0.0,1.0
1665761343415091825,,4775,,1665761343,414504051,'',,,-4.33,48.27,1.15,,0.0,0.0,0.0,1.0
1665761343514314024,,4776,,1665761343,513959884,'',,,-4.38,47.88,1.17,,0.0,0.0,0.0,1.0
1665761343615480932,,4777,,1665761343,614917993,'',,,-4.43,47.53,1.14,,0.0,0.0,0.0,1.0
1665761343715128084,,4778,,1665761343,714255094,'',,,-4.49,47.14,1.11,,0.0,0.0,0.0,1.0
1665761343814434108,,4779,,1665761343,814171075,'',,,-4.55,46.8,1.07,,0.0,0.0,0.0,1.0
1665761343914888398,,4780,,1665761343,914644002,'',,,-4.63,46.39,1.02,,0.0,0.0,0.0,1.0
1665761344015406175,,4781,,1665761344,15131950,'',,,-4.69,46.02,1.04,,0.0,0.0,0.0,1.0
1665761344115867250,,4782,,1665761344,115436077,'',,,-4.72,45.63,1.05,,0.0,0.0,0.0,1.0
1665761344215361482,,4783,,1665761344,215003967,'',,,-4.76,45.23,1.05,,0.0,0.0,0.0,1.0
1665761344314933167,,4784,,1665761344,314686059,'',,,-4.79,44.83,1.05,,0.0,0.0,0.0,1.0
1665761344414821667,,4785,,1665761344,414520025,'',,,-4.83,44.46,1.09,,0.0,0.0,0.0,1.0
1665761344515246954,,4786,,1665761344,514827966,'',,,-4.87,44.04,1.1,,0.0,0.0,0.0,1.0
1665761344614784307,,4787,,1665761344,614449977,'',,,-4.9,43.66,1.07,,0.0,0.0,0.0,1.0
1665761344714644593,,4788,,1665761344,714389085,'',,,-4.92,43.27,1.03,,0.0,0.0,0.0,1.0
1665761344814821214,,4789,,1665761344,814590930,'',,,-4.96,42.84,1.07,,0.0,0.0,0.0,1.0
1665761344915332478,,4790,,1665761344,914649009,'',,,-4.97,42.41,1.15,,0.0,0.0,0.0,1.0
1665761345015238602,,4791,,1665761345,14738082,'',,,-5.01,42.04,1.06,,0.0,0.0,0.0,1.0
1665761345115002776,,4792,,1665761345,114665985,'',,,-5.01,41.62,1.07,,0.0,0.0,0.0,1.0
1665761345215744982,,4793,,1665761345,215048074,'',,,-5.05,41.24,1.0,,0.0,0.0,0.0,1.0
1665761345315324522,,4794,,1665761345,314956903,'',,,-5.05,40.8,1.13,,0.0,0.0,0.0,1.0
1665761345416042049,,4795,,1665761345,415195941,'',,,-5.03,40.4,1.07,,0.0,0.0,0.0,1.0
1665761345515527386,,4796,,1665761345,515187025,'',,,-5.06,39.99,1.01,,0.0,0.0,0.0,1.0
1665761345615946254,,4797,,1665761345,615573883,'',,,-5.08,39.57,1.01,,0.0,0.0,0.0,1.0
1665761345715714123,,4798,,1665761345,715365886,'',,,-5.1,39.16,0.91,,0.0,0.0,0.0,1.0
1665761345816115817,,4799,,1665761345,815426111,'',,,-5.1,38.74,0.92,,0.0,0.0,0.0,1.0
1665761345915840790,,4800,,1665761345,915534973,'',,,-5.1,38.3,0.95,,0.0,0.0,0.0,1.0
1665761346015935763,,4801,,1665761346,15661001,'',,,-5.1,37.87,0.96,,0.0,0.0,0.0,1.0
1665761346116307020,,4802,,1665761346,115482091,'',,,-5.12,37.44,0.89,,0.0,0.0,0.0,1.0
1665761346216041498,,4803,,1665761346,215626955,'',,,-5.15,37.01,0.84,,0.0,0.0,0.0,1.0
1665761346315910975,,4804,,1665761346,315718889,'',,,-5.15,36.58,0.85,,0.0,0.0,0.0,1.0
1665761346416352905,,4805,,1665761346,416140079,'',,,-5.14,36.12,0.81,,0.0,0.0,0.0,1.0
1665761346515751370,,4806,,1665761346,515551090,'',,,-5.15,35.7,0.82,,0.0,0.0,0.0,1.0
1665761346616491105,,4807,,1665761346,615967035,'',,,-5.15,35.26,0.99,,0.0,0.0,0.0,1.0
1665761346716601296,,4808,,1665761346,716042041,'',,,-5.15,34.82,0.96,,0.0,0.0,0.0,1.0
1665761346815869889,,4809,,1665761346,815629005,'',,,-5.13,34.4,0.97,,0.0,0.0,0.0,1.0
1665761346917485695,,4810,,1665761346,916831016,'',,,-5.12,33.98,1.11,,0.0,0.0,0.0,1.0
1665761347016401184,,4811,,1665761347,16021966,'',,,-5.09,33.53,0.99,,0.0,0.0,0.0,1.0
1665761347116330469,,4812,,1665761347,115763902,'',,,-5.08,33.12,0.96,,0.0,0.0,0.0,1.0
1665761347216169377,,4813,,1665761347,215879917,'',,,-5.07,32.71,1.04,,0.0,0.0,0.0,1.0
1665761347316258491,,4814,,1665761347,315886020,'',,,-5.03,32.29,1.2,,0.0,0.0,0.0,1.0
1665761347416446498,,4815,,1665761347,416076898,'',,,-4.97,31.85,1.06,,0.0,0.0,0.0,1.0
1665761347516281851,,4816,,1665761347,515921115,'',,,-4.93,31.44,0.97,,0.0,0.0,0.0,1.0
1665761347615867212,,4817,,1665761347,615530014,'',,,-4.84,31.02,0.85,,0.0,0.0,0.0,1.0
1665761347709201813,,4818,,1665761347,708568096,'',,,-4.75,30.61,0.78,,0.0,0.0,0.0,1.0
1665761347817075894,,4819,,1665761347,816673994,'',,,-4.7,30.2,0.77,,0.0,0.0,0.0,1.0
1665761347916785137,,4820,,1665761347,916466951,'',,,-4.67,29.79,0.7,,0.0,0.0,0.0,1.0
1665761348016395708,,4821,,1665761348,16026020,'',,,-4.6,29.39,0.92,,0.0,0.0,0.0,1.0
1665761348117138192,,4822,,1665761348,116661071,'',,,-4.53,29.0,1.04,,0.0,0.0,0.0,1.0
1665761348217375757,,4823,,1665761348,216969013,'',,,-4.46,28.59,0.91,,0.0,0.0,0.0,1.0
1665761348316462830,,4824,,1665761348,315944910,'',,,-4.32,28.21,0.94,,0.0,0.0,0.0,1.0
1665761348416792631,,4825,,1665761348,416132926,'',,,-4.13,27.76,0.89,,0.0,0.0,0.0,1.0
1665761348516161780,,4826,,1665761348,515765905,'',,,-3.99,27.37,1.16,,0.0,0.0,0.0,1.0
1665761348616676365,,4827,,1665761348,616209983,'',,,-3.84,27.04,1.2,,0.0,0.0,0.0,1.0
1665761348716048146,,4828,,1665761348,715770006,'',,,-3.74,26.66,1.27,,0.0,0.0,0.0,1.0
1665761348815914965,,4829,,1665761348,815612077,'',,,-3.59,26.3,1.18,,0.0,0.0,0.0,1.0
1665761348916392741,,4830,,1665761348,915859937,'',,,-3.46,25.91,1.2,,0.0,0.0,0.0,1.0
1665761349016211158,,4831,,1665761349,15841007,'',,,-3.35,25.52,1.28,,0.0,0.0,0.0,1.0
1665761349116492355,,4832,,1665761349,115547895,'',,,-3.25,25.16,1.34,,0.0,0.0,0.0,1.0
1665761349216341825,,4833,,1665761349,215835094,'',,,-3.13,24.77,1.3,,0.0,0.0,0.0,1.0
1665761349316825787,,4834,,1665761349,315872907,'',,,-2.99,24.43,1.23,,0.0,0.0,0.0,1.0
1665761349416359850,,4835,,1665761349,415755987,'',,,-2.88,24.03,1.11,,0.0,0.0,0.0,1.0
1665761349516106176,,4836,,1665761349,515738964,'',,,-2.77,23.63,1.14,,0.0,0.0,0.0,1.0
1665761349616628139,,4837,,1665761349,616106986,'',,,-2.63,23.26,1.15,,0.0,0.0,0.0,1.0
1665761349716826230,,4838,,1665761349,716372013,'',,,-2.48,22.89,1.13,,0.0,0.0,0.0,1.0
1665761349815733391,,4839,,1665761349,815500974,'',,,-2.42,22.48,1.08,,0.0,0.0,0.0,1.0
1665761349916559554,,4840,,1665761349,915958881,'',,,-2.32,22.09,1.14,,0.0,0.0,0.0,1.0
1665761350016021223,,4841,,1665761350,15625953,'',,,-2.24,21.72,1.21,,0.0,0.0,0.0,1.0
1665761350115695758,,4842,,1665761350,115406990,'',,,-2.15,21.32,1.26,,0.0,0.0,0.0,1.0
1665761350216030425,,4843,,1665761350,215625047,'',,,-2.07,20.92,1.26,,0.0,0.0,0.0,1.0
1665761350315538606,,4844,,1665761350,315191030,'',,,-2.02,20.52,1.33,,0.0,0.0,0.0,1.0
1665761350415845715,,4845,,1665761350,415462970,'',,,-1.94,20.14,1.38,,0.0,0.0,0.0,1.0
1665761350516352128,,4846,,1665761350,516110897,'',,,-1.88,19.71,1.34,,0.0,0.0,0.0,1.0
1665761350615743745,,4847,,1665761350,615458011,'',,,-1.83,19.33,1.4,,0.0,0.0,0.0,1.0
1665761350716046230,,4848,,1665761350,715682983,'',,,-1.77,18.96,1.41,,0.0,0.0,0.0,1.0
1665761350816274557,,4849,,1665761350,815743923,'',,,-1.71,18.59,1.43,,0.0,0.0,0.0,1.0
1665761350915621463,,4850,,1665761350,915333986,'',,,-1.68,18.23,1.44,,0.0,0.0,0.0,1.0
1665761351008868822,,4851,,1665761351,8393049,'',,,-1.64,17.88,1.46,,0.0,0.0,0.0,1.0
1665761351114905930,,4852,,1665761351,114620923,'',,,-1.61,17.53,1.46,,0.0,0.0,0.0,1.0
1665761351215029278,,4853,,1665761351,214696884,'',,,-1.59,17.16,1.57,,0.0,0.0,0.0,1.0
1665761351315909427,,4854,,1665761351,315517902,'',,,-1.54,16.81,1.44,,0.0,0.0,0.0,1.0
1665761351415077546,,4855,,1665761351,414773941,'',,,-1.53,16.43,1.53,,0.0,0.0,0.0,1.0
1665761351515406200,,4856,,1665761351,515012025,'',,,-1.54,16.07,1.54,,0.0,0.0,0.0,1.0
1665761351616168912,,4857,,1665761351,615073919,'',,,-1.53,15.73,1.42,,0.0,0.0,0.0,1.0
1665761351715426908,,4858,,1665761351,714884042,'',,,-1.52,15.37,1.52,,0.0,0.0,0.0,1.0
1665761351815474618,,4859,,1665761351,815011978,'',,,-1.5,15.04,1.32,,0.0,0.0,0.0,1.0
1665761351915770776,,4860,,1665761351,915503978,'',,,-1.48,14.71,1.29,,0.0,0.0,0.0,1.0
1665761352014887289,,4861,,1665761352,14596939,'',,,-1.49,14.39,1.26,,0.0,0.0,0.0,1.0
1665761352115035179,,4862,,1665761352,114674091,'',,,-1.49,14.07,1.3,,0.0,0.0,0.0,1.0
1665761352214830756,,4863,,1665761352,214481115,'',,,-1.47,13.79,1.24,,0.0,0.0,0.0,1.0
1665761352315262509,,4864,,1665761352,314863920,'',,,-1.51,13.5,1.31,,0.0,0.0,0.0,1.0
1665761352414938203,,4865,,1665761352,414575099,'',,,-1.51,13.23,1.34,,0.0,0.0,0.0,1.0
1665761352514645020,,4866,,1665761352,514333963,'',,,-1.5,12.99,1.28,,0.0,0.0,0.0,1.0
1665761352616468870,,4867,,1665761352,615037918,'',,,-1.45,12.8,1.06,,0.0,0.0,0.0,1.0
1665761352714506746,,4868,,1665761352,714302062,'',,,-1.42,12.61,1.01,,0.0,0.0,0.0,1.0
1665761352814674784,,4869,,1665761352,814273118,'',,,-1.42,12.42,0.96,,0.0,0.0,0.0,1.0
1665761352915265300,,4870,,1665761352,914544105,'',,,-1.41,12.27,0.94,,0.0,0.0,0.0,1.0
1665761353014642048,,4871,,1665761353,14357089,'',,,-1.39,12.14,0.92,,0.0,0.0,0.0,1.0
1665761353114601281,,4872,,1665761353,114372014,'',,,-1.4,12.03,0.91,,0.0,0.0,0.0,1.0
1665761353216208579,,4873,,1665761353,215080976,'',,,-1.37,11.95,0.79,,0.0,0.0,0.0,1.0
1665761353314708432,,4874,,1665761353,314397096,'',,,-1.36,11.87,0.94,,0.0,0.0,0.0,1.0
1665761353414771712,,4875,,1665761353,414450883,'',,,-1.37,11.8,0.87,,0.0,0.0,0.0,1.0
1665761353514972392,,4876,,1665761353,514743089,'',,,-1.34,11.77,0.73,,0.0,0.0,0.0,1.0
1665761353614788383,,4877,,1665761353,614552021,'',,,-1.33,11.75,0.86,,0.0,0.0,0.0,1.0
1665761353715008280,,4878,,1665761353,714710950,'',,,-1.32,11.73,0.73,,0.0,0.0,0.0,1.0
1665761353815071104,,4879,,1665761353,814742088,'',,,-1.33,11.73,0.78,,0.0,0.0,0.0,1.0
1665761353915110052,,4880,,1665761353,914834976,'',,,-1.41,11.68,0.74,,0.0,0.0,0.0,1.0
1665761354015415208,,4881,,1665761354,14628887,'',,,-1.36,11.69,0.78,,0.0,0.0,0.0,1.0
1665761354114966671,,4882,,1665761354,114674091,'',,,-1.34,11.69,0.9,,0.0,0.0,0.0,1.0
1665761354215440322,,4883,,1665761354,214972972,'',,,-1.32,11.71,0.85,,0.0,0.0,0.0,1.0
1665761354315472197,,4884,,1665761354,315093994,'',,,-1.29,11.71,0.83,,0.0,0.0,0.0,1.0
1665761354415073075,,4885,,1665761354,414789915,'',,,-1.27,11.73,0.84,,0.0,0.0,0.0,1.0
1665761354515425288,,4886,,1665761354,514858961,'',,,-1.27,11.72,0.73,,0.0,0.0,0.0,1.0
1665761354615067108,,4887,,1665761354,614701986,'',,,-1.28,11.7,0.75,,0.0,0.0,0.0,1.0
1665761354715365578,,4888,,1665761354,715023994,'',,,-1.39,11.67,0.72,,0.0,0.0,0.0,1.0
1665761354814850925,,4889,,1665761354,814498901,'',,,-1.39,11.66,0.81,,0.0,0.0,0.0,1.0
