rosbagTimestamp,header,seq,stamp,secs,nsecs,frame_id,pose,position,x,y,z,orientation,x,y,z,w
1665479978144145325,,2864,,1665479978,142792940,'',,,6.9,-2.54,1.93,,0.0,0.0,0.0,1.0
1665479978244115854,,2865,,1665479978,243496894,'',,,6.9,-2.46,2.18,,0.0,0.0,0.0,1.0
1665479978339923893,,2866,,1665479978,338354110,'',,,6.9,-2.44,2.03,,0.0,0.0,0.0,1.0
1665479978444190642,,2867,,1665479978,443773031,'',,,6.91,-2.44,2.19,,0.0,0.0,0.0,1.0
1665479978543965309,,2868,,1665479978,543056964,'',,,6.91,-2.38,1.93,,0.0,0.0,0.0,1.0
1665479978644013712,,2869,,1665479978,643104076,'',,,6.91,-2.28,2.08,,0.0,0.0,0.0,1.0
1665479978744310602,,2870,,1665479978,744052886,'',,,6.92,-2.22,2.26,,0.0,0.0,0.0,1.0
1665479978843794005,,2871,,1665479978,843592882,'',,,6.96,-2.2,2.44,,0.0,0.0,0.0,1.0
1665479978945376638,,2872,,1665479978,944442987,'',,,6.93,-2.07,2.5,,0.0,0.0,0.0,1.0
1665479979044402825,,2873,,1665479979,43291091,'',,,6.93,-1.97,2.17,,0.0,0.0,0.0,1.0
1665479979143523972,,2874,,1665479979,143054962,'',,,6.92,-1.85,2.37,,0.0,0.0,0.0,1.0
1665479979244005554,,2875,,1665479979,243699073,'',,,6.94,-1.79,2.59,,0.0,0.0,0.0,1.0
1665479979345115945,,2876,,1665479979,344826936,'',,,6.93,-1.71,2.57,,0.0,0.0,0.0,1.0
1665479979445458021,,2877,,1665479979,444822072,'',,,6.93,-1.58,2.64,,0.0,0.0,0.0,1.0
1665479979543530394,,2878,,1665479979,543167114,'',,,6.93,-1.49,2.59,,0.0,0.0,0.0,1.0
1665479979644959771,,2879,,1665479979,644088983,'',,,6.92,-1.36,2.53,,0.0,0.0,0.0,1.0
1665479979743775211,,2880,,1665479979,743439912,'',,,6.93,-1.25,2.51,,0.0,0.0,0.0,1.0
1665479979844763380,,2881,,1665479979,844532012,'',,,6.93,-1.17,2.23,,0.0,0.0,0.0,1.0
1665479979939455224,,2882,,1665479979,938278913,'',,,6.94,-1.06,2.22,,0.0,0.0,0.0,1.0
1665479980044425531,,2883,,1665479980,44111967,'',,,6.94,-0.95,2.05,,0.0,0.0,0.0,1.0
1665479980145517231,,2884,,1665479980,144990921,'',,,6.92,-0.86,2.02,,0.0,0.0,0.0,1.0
1665479980244954237,,2885,,1665479980,244148015,'',,,6.94,-0.71,1.85,,0.0,0.0,0.0,1.0
1665479980344523082,,2886,,1665479980,344203948,'',,,6.96,-0.54,2.09,,0.0,0.0,0.0,1.0
1665479980445128926,,2887,,1665479980,444724082,'',,,6.96,-0.38,1.91,,0.0,0.0,0.0,1.0
1665479980546536285,,2888,,1665479980,545593023,'',,,6.96,-0.24,1.77,,0.0,0.0,0.0,1.0
1665479980645021526,,2889,,1665479980,644718885,'',,,6.98,-0.07,1.65,,0.0,0.0,0.0,1.0
1665479980745088568,,2890,,1665479980,744761943,'',,,6.99,0.1,1.71,,0.0,0.0,0.0,1.0
1665479980845008238,,2891,,1665479980,844717025,'',,,7.01,0.28,1.67,,0.0,0.0,0.0,1.0
1665479980944811938,,2892,,1665479980,944359064,'',,,7.02,0.48,1.88,,0.0,0.0,0.0,1.0
1665479981044487086,,2893,,1665479981,44264078,'',,,7.03,0.68,2.04,,0.0,0.0,0.0,1.0
1665479981144883336,,2894,,1665479981,144646883,'',,,7.07,0.88,2.06,,0.0,0.0,0.0,1.0
1665479981246219791,,2895,,1665479981,245181083,'',,,7.1,1.08,2.28,,0.0,0.0,0.0,1.0
1665479981346153980,,2896,,1665479981,345110893,'',,,7.11,1.27,2.2,,0.0,0.0,0.0,1.0
1665479981444900588,,2897,,1665479981,444519996,'',,,7.13,1.48,2.08,,0.0,0.0,0.0,1.0
1665479981545846739,,2898,,1665479981,545550107,'',,,7.15,1.69,1.77,,0.0,0.0,0.0,1.0
1665479981645478861,,2899,,1665479981,645096063,'',,,7.15,1.9,1.92,,0.0,0.0,0.0,1.0
1665479981747415587,,2900,,1665479981,746718883,'',,,7.14,2.09,1.99,,0.0,0.0,0.0,1.0
1665479981846187740,,2901,,1665479981,845689058,'',,,7.17,2.3,1.71,,0.0,0.0,0.0,1.0
1665479981946143408,,2902,,1665479981,945399999,'',,,7.18,2.52,1.47,,0.0,0.0,0.0,1.0
1665479982046674373,,2903,,1665479982,45814037,'',,,7.16,2.74,1.68,,0.0,0.0,0.0,1.0
1665479982145814184,,2904,,1665479982,145060062,'',,,7.17,2.98,1.66,,0.0,0.0,0.0,1.0
1665479982246294333,,2905,,1665479982,245814085,'',,,7.2,3.21,1.46,,0.0,0.0,0.0,1.0
1665479982346927018,,2906,,1665479982,346645116,'',,,7.17,3.45,1.68,,0.0,0.0,0.0,1.0
1665479982445706410,,2907,,1665479982,445369958,'',,,7.2,3.69,1.44,,0.0,0.0,0.0,1.0
1665479982546327742,,2908,,1665479982,545994997,'',,,7.22,3.95,1.28,,0.0,0.0,0.0,1.0
1665479982646278518,,2909,,1665479982,645812034,'',,,7.2,4.2,1.56,,0.0,0.0,0.0,1.0
1665479982746661804,,2910,,1665479982,746330976,'',,,7.24,4.45,1.61,,0.0,0.0,0.0,1.0
1665479982847806294,,2911,,1665479982,847321033,'',,,7.24,4.71,1.85,,0.0,0.0,0.0,1.0
1665479982946269735,,2912,,1665479982,945913076,'',,,7.27,4.96,1.79,,0.0,0.0,0.0,1.0
1665479983048346121,,2913,,1665479983,47955989,'',,,7.33,5.2,1.7,,0.0,0.0,0.0,1.0
1665479983146978288,,2914,,1665479983,146214008,'',,,7.3,5.49,1.88,,0.0,0.0,0.0,1.0
1665479983248060791,,2915,,1665479983,246994972,'',,,7.3,5.77,1.67,,0.0,0.0,0.0,1.0
1665479983347219324,,2916,,1665479983,346785068,'',,,7.31,6.06,1.63,,0.0,0.0,0.0,1.0
1665479983447711166,,2917,,1665479983,447263956,'',,,7.29,6.33,1.54,,0.0,0.0,0.0,1.0
1665479983548192658,,2918,,1665479983,547554969,'',,,7.3,6.61,1.76,,0.0,0.0,0.0,1.0
1665479983648015900,,2919,,1665479983,647502899,'',,,7.35,6.87,1.64,,0.0,0.0,0.0,1.0
1665479983747912286,,2920,,1665479983,747010946,'',,,7.32,7.16,1.81,,0.0,0.0,0.0,1.0
1665479983847947391,,2921,,1665479983,847673892,'',,,7.31,7.45,1.85,,0.0,0.0,0.0,1.0
1665479983947024269,,2922,,1665479983,946765899,'',,,7.29,7.74,1.96,,0.0,0.0,0.0,1.0
1665479984047593536,,2923,,1665479984,47177076,'',,,7.23,8.02,2.14,,0.0,0.0,0.0,1.0
1665479984147058084,,2924,,1665479984,146785974,'',,,7.26,8.31,1.83,,0.0,0.0,0.0,1.0
1665479984248589162,,2925,,1665479984,248136043,'',,,7.26,8.61,1.92,,0.0,0.0,0.0,1.0
1665479984349279950,,2926,,1665479984,349030017,'',,,7.27,8.89,1.62,,0.0,0.0,0.0,1.0
1665479984447432384,,2927,,1665479984,447102069,'',,,7.27,9.17,1.74,,0.0,0.0,0.0,1.0
1665479984549505714,,2928,,1665479984,548968076,'',,,7.34,9.44,1.64,,0.0,0.0,0.0,1.0
1665479984649646353,,2929,,1665479984,648891925,'',,,7.32,9.75,1.38,,0.0,0.0,0.0,1.0
1665479984748057377,,2930,,1665479984,747505903,'',,,7.31,10.05,1.19,,0.0,0.0,0.0,1.0
1665479984849702205,,2931,,1665479984,849100112,'',,,7.31,10.35,1.07,,0.0,0.0,0.0,1.0
1665479984948424281,,2932,,1665479984,948035955,'',,,7.32,10.65,0.96,,0.0,0.0,0.0,1.0
1665479985047927867,,2933,,1665479985,47646045,'',,,7.34,10.94,0.88,,0.0,0.0,0.0,1.0
1665479985147685164,,2934,,1665479985,147397041,'',,,7.33,11.23,1.33,,0.0,0.0,0.0,1.0
1665479985248699542,,2935,,1665479985,248348951,'',,,7.38,11.52,1.15,,0.0,0.0,0.0,1.0
1665479985348940245,,2936,,1665479985,348578929,'',,,7.43,11.82,1.0,,0.0,0.0,0.0,1.0
1665479985449697347,,2937,,1665479985,449408054,'',,,7.44,12.11,1.03,,0.0,0.0,0.0,1.0
1665479985550856390,,2938,,1665479985,549786090,'',,,7.46,12.4,0.96,,0.0,0.0,0.0,1.0
1665479985648801448,,2939,,1665479985,647945880,'',,,7.48,12.7,0.9,,0.0,0.0,0.0,1.0
1665479985747763627,,2940,,1665479985,747509956,'',,,7.55,12.96,0.93,,0.0,0.0,0.0,1.0
1665479985849085476,,2941,,1665479985,848395109,'',,,7.64,13.22,0.85,,0.0,0.0,0.0,1.0
1665479985948015948,,2942,,1665479985,947036027,'',,,7.64,13.53,0.99,,0.0,0.0,0.0,1.0
1665479986048471929,,2943,,1665479986,48108100,'',,,7.64,13.85,0.94,,0.0,0.0,0.0,1.0
1665479986148380251,,2944,,1665479986,147958993,'',,,7.65,14.16,0.91,,0.0,0.0,0.0,1.0
1665479986247232155,,2945,,1665479986,246995925,'',,,7.65,14.44,1.06,,0.0,0.0,0.0,1.0
1665479986347690324,,2946,,1665479986,346909999,'',,,7.67,14.73,1.13,,0.0,0.0,0.0,1.0
1665479986448496822,,2947,,1665479986,447554111,'',,,7.74,14.98,1.23,,0.0,0.0,0.0,1.0
1665479986548406343,,2948,,1665479986,547530889,'',,,7.83,15.25,1.05,,0.0,0.0,0.0,1.0
1665479986648042253,,2949,,1665479986,647494077,'',,,7.84,15.54,1.16,,0.0,0.0,0.0,1.0
1665479986748651581,,2950,,1665479986,747711896,'',,,7.89,15.83,1.1,,0.0,0.0,0.0,1.0
1665479986848745866,,2951,,1665479986,848407030,'',,,7.95,16.11,0.96,,0.0,0.0,0.0,1.0
1665479986948211789,,2952,,1665479986,947783946,'',,,7.95,16.39,1.07,,0.0,0.0,0.0,1.0
1665479987049000531,,2953,,1665479987,47822952,'',,,7.96,16.67,1.1,,0.0,0.0,0.0,1.0
1665479987148067093,,2954,,1665479987,147454023,'',,,7.99,16.94,1.12,,0.0,0.0,0.0,1.0
1665479987247985859,,2955,,1665479987,247025012,'',,,8.0,17.21,1.14,,0.0,0.0,0.0,1.0
1665479987349027422,,2956,,1665479987,347836971,'',,,7.98,17.51,1.26,,0.0,0.0,0.0,1.0
1665479987448214638,,2957,,1665479987,447036981,'',,,7.96,17.79,1.49,,0.0,0.0,0.0,1.0
1665479987549301693,,2958,,1665479987,548724889,'',,,7.97,18.06,1.4,,0.0,0.0,0.0,1.0
1665479987647600264,,2959,,1665479987,647222042,'',,,7.97,18.35,1.26,,0.0,0.0,0.0,1.0
1665479987747087580,,2960,,1665479987,746658086,'',,,7.94,18.66,1.25,,0.0,0.0,0.0,1.0
1665479987849448931,,2961,,1665479987,848840951,'',,,7.88,18.97,1.25,,0.0,0.0,0.0,1.0
1665479987947094120,,2962,,1665479987,946511030,'',,,7.89,19.19,1.19,,0.0,0.0,0.0,1.0
1665479988048070371,,2963,,1665479988,47533035,'',,,7.91,19.42,1.03,,0.0,0.0,0.0,1.0
1665479988147794156,,2964,,1665479988,147305965,'',,,7.86,19.67,1.24,,0.0,0.0,0.0,1.0
1665479988248561368,,2965,,1665479988,248114109,'',,,7.85,19.91,1.02,,0.0,0.0,0.0,1.0
1665479988347971011,,2966,,1665479988,347021102,'',,,7.81,20.14,0.96,,0.0,0.0,0.0,1.0
1665479988446929925,,2967,,1665479988,446688890,'',,,7.75,20.36,1.0,,0.0,0.0,0.0,1.0
1665479988547182430,,2968,,1665479988,546889066,'',,,7.64,20.6,1.19,,0.0,0.0,0.0,1.0
1665479988650581484,,2969,,1665479988,648818016,'',,,7.6,20.8,1.14,,0.0,0.0,0.0,1.0
1665479988746654104,,2970,,1665479988,746395111,'',,,7.52,21.02,1.13,,0.0,0.0,0.0,1.0
1665479988847867604,,2971,,1665479988,847404003,'',,,7.43,21.25,1.04,,0.0,0.0,0.0,1.0
1665479988946912140,,2972,,1665479988,946671962,'',,,7.27,21.46,1.35,,0.0,0.0,0.0,1.0
1665479989047188971,,2973,,1665479989,46720981,'',,,7.15,21.68,1.38,,0.0,0.0,0.0,1.0
1665479989146839488,,2974,,1665479989,146430969,'',,,7.01,21.89,1.59,,0.0,0.0,0.0,1.0
1665479989247955817,,2975,,1665479989,246934890,'',,,6.88,22.08,1.45,,0.0,0.0,0.0,1.0
1665479989347189071,,2976,,1665479989,346702098,'',,,6.77,22.27,1.31,,0.0,0.0,0.0,1.0
1665479989447170196,,2977,,1665479989,446866989,'',,,6.66,22.42,1.33,,0.0,0.0,0.0,1.0
1665479989540899940,,2978,,1665479989,540349006,'',,,6.53,22.59,1.25,,0.0,0.0,0.0,1.0
1665479989639604504,,2979,,1665479989,639355897,'',,,6.39,22.75,1.09,,0.0,0.0,0.0,1.0
1665479989740103451,,2980,,1665479989,739834070,'',,,6.25,22.9,0.84,,0.0,0.0,0.0,1.0
1665479989840326665,,2981,,1665479989,839680910,'',,,6.1,23.03,0.64,,0.0,0.0,0.0,1.0
1665479989947069664,,2982,,1665479989,946768999,'',,,5.93,23.15,0.49,,0.0,0.0,0.0,1.0
1665479990047432551,,2983,,1665479990,46807050,'',,,5.74,23.22,0.7,,0.0,0.0,0.0,1.0
1665479990146052101,,2984,,1665479990,145922899,'',,,5.48,23.31,0.97,,0.0,0.0,0.0,1.0
1665479990249050827,,2985,,1665479990,247467994,'',,,5.25,23.41,1.11,,0.0,0.0,0.0,1.0
1665479990346694256,,2986,,1665479990,346406936,'',,,5.07,23.45,1.11,,0.0,0.0,0.0,1.0
1665479990446591141,,2987,,1665479990,446338891,'',,,4.88,23.47,1.19,,0.0,0.0,0.0,1.0
1665479990547635581,,2988,,1665479990,546792984,'',,,4.72,23.54,0.89,,0.0,0.0,0.0,1.0
1665479990647822876,,2989,,1665479990,646819114,'',,,4.52,23.57,0.87,,0.0,0.0,0.0,1.0
1665479990747198093,,2990,,1665479990,746835947,'',,,4.33,23.58,0.87,,0.0,0.0,0.0,1.0
1665479990847440906,,2991,,1665479990,846946954,'',,,4.12,23.6,1.09,,0.0,0.0,0.0,1.0
1665479990946891490,,2992,,1665479990,946556091,'',,,4.03,23.65,0.76,,0.0,0.0,0.0,1.0
1665479991046584438,,2993,,1665479991,46133995,'',,,3.87,23.66,0.81,,0.0,0.0,0.0,1.0
1665479991145732134,,2994,,1665479991,145515918,'',,,3.72,23.66,0.9,,0.0,0.0,0.0,1.0
1665479991240885304,,2995,,1665479991,240350008,'',,,3.59,23.67,0.93,,0.0,0.0,0.0,1.0
1665479991347594082,,2996,,1665479991,347038030,'',,,3.44,23.68,1.0,,0.0,0.0,0.0,1.0
1665479991446706979,,2997,,1665479991,446316957,'',,,3.33,23.69,0.96,,0.0,0.0,0.0,1.0
1665479991548073987,,2998,,1665479991,547327995,'',,,3.24,23.72,0.78,,0.0,0.0,0.0,1.0
1665479991647826519,,2999,,1665479991,647248983,'',,,3.15,23.73,0.55,,0.0,0.0,0.0,1.0
1665479991747302958,,3000,,1665479991,746851921,'',,,3.06,23.7,0.69,,0.0,0.0,0.0,1.0
1665479991847975072,,3001,,1665479991,847112894,'',,,2.94,23.7,0.77,,0.0,0.0,0.0,1.0
1665479991948531127,,3002,,1665479991,948018074,'',,,2.83,23.68,0.93,,0.0,0.0,0.0,1.0
1665479992047827390,,3003,,1665479992,47405004,'',,,2.72,23.64,0.96,,0.0,0.0,0.0,1.0
1665479992141256950,,3004,,1665479992,140418052,'',,,2.58,23.59,1.04,,0.0,0.0,0.0,1.0
1665479992239635391,,3005,,1665479992,239300966,'',,,2.52,23.59,1.15,,0.0,0.0,0.0,1.0
1665479992347217723,,3006,,1665479992,346857070,'',,,2.46,23.59,1.07,,0.0,0.0,0.0,1.0
1665479992440090738,,3007,,1665479992,439784049,'',,,2.41,23.6,1.13,,0.0,0.0,0.0,1.0
1665479992539797807,,3008,,1665479992,539488077,'',,,2.39,23.6,1.23,,0.0,0.0,0.0,1.0
1665479992646974523,,3009,,1665479992,646467924,'',,,2.38,23.61,1.26,,0.0,0.0,0.0,1.0
1665479992747191945,,3010,,1665479992,746853113,'',,,2.38,23.6,1.24,,0.0,0.0,0.0,1.0
1665479992847303822,,3011,,1665479992,846865892,'',,,2.44,23.65,0.83,,0.0,0.0,0.0,1.0
1665479992940311798,,3012,,1665479992,939239025,'',,,2.45,23.64,0.81,,0.0,0.0,0.0,1.0
1665479993040017633,,3013,,1665479993,39773941,'',,,2.42,23.63,0.97,,0.0,0.0,0.0,1.0
1665479993139757969,,3014,,1665479993,139008045,'',,,2.4,23.63,1.08,,0.0,0.0,0.0,1.0
1665479993246692925,,3015,,1665479993,246299982,'',,,2.52,23.59,0.73,,0.0,0.0,0.0,1.0
1665479993339763715,,3016,,1665479993,338892936,'',,,2.51,23.58,0.76,,0.0,0.0,0.0,1.0
1665479993447245411,,3017,,1665479993,446069955,'',,,2.52,23.63,0.64,,0.0,0.0,0.0,1.0
1665479993545541310,,3018,,1665479993,545329093,'',,,2.53,23.65,0.45,,0.0,0.0,0.0,1.0
1665479993646225600,,3019,,1665479993,645948886,'',,,2.54,23.68,0.35,,0.0,0.0,0.0,1.0
1665479993739706220,,3020,,1665479993,739074945,'',,,2.5,23.68,0.57,,0.0,0.0,0.0,1.0
1665479993847883138,,3021,,1665479993,846971988,'',,,2.53,23.71,0.34,,0.0,0.0,0.0,1.0
1665479993946937630,,3022,,1665479993,946480989,'',,,2.49,23.68,0.6,,0.0,0.0,0.0,1.0
1665479994046263576,,3023,,1665479994,45984029,'',,,2.45,23.68,0.74,,0.0,0.0,0.0,1.0
1665479994147987018,,3024,,1665479994,147295951,'',,,2.42,23.67,0.92,,0.0,0.0,0.0,1.0
1665479994246355539,,3025,,1665479994,245992898,'',,,2.46,23.65,0.88,,0.0,0.0,0.0,1.0
1665479994339677340,,3026,,1665479994,339432001,'',,,2.42,23.64,1.03,,0.0,0.0,0.0,1.0
1665479994447354293,,3027,,1665479994,446621894,'',,,2.4,23.65,1.09,,0.0,0.0,0.0,1.0
1665479994545832859,,3028,,1665479994,545595884,'',,,2.41,23.63,1.17,,0.0,0.0,0.0,1.0
1665479994646241301,,3029,,1665479994,645896911,'',,,2.44,23.66,0.84,,0.0,0.0,0.0,1.0
1665479994746025154,,3030,,1665479994,745681047,'',,,2.46,23.69,0.65,,0.0,0.0,0.0,1.0
1665479994846749359,,3031,,1665479994,845951080,'',,,2.47,23.66,0.82,,0.0,0.0,0.0,1.0
1665479994940062237,,3032,,1665479994,939312934,'',,,2.44,23.66,0.96,,0.0,0.0,0.0,1.0
1665479995048605701,,3033,,1665479995,47141075,'',,,2.45,23.67,0.83,,0.0,0.0,0.0,1.0
1665479995139181613,,3034,,1665479995,138861894,'',,,2.42,23.66,0.97,,0.0,0.0,0.0,1.0
1665479995246589455,,3035,,1665479995,246315956,'',,,2.44,23.7,0.79,,0.0,0.0,0.0,1.0
1665479995339958308,,3036,,1665479995,339317083,'',,,2.46,23.66,0.79,,0.0,0.0,0.0,1.0
1665479995439886095,,3037,,1665479995,439491033,'',,,2.43,23.65,0.9,,0.0,0.0,0.0,1.0
1665479995548117992,,3038,,1665479995,546714067,'',,,2.43,23.63,0.99,,0.0,0.0,0.0,1.0
1665479995641908062,,3039,,1665479995,639879941,'',,,2.4,23.64,1.1,,0.0,0.0,0.0,1.0
1665479995739162515,,3040,,1665479995,738831043,'',,,2.39,23.62,1.19,,0.0,0.0,0.0,1.0
1665479995847467290,,3041,,1665479995,846041917,'',,,2.41,23.61,1.19,,0.0,0.0,0.0,1.0
1665479995945614112,,3042,,1665479995,945344924,'',,,2.45,23.64,0.91,,0.0,0.0,0.0,1.0
1665479996038398255,,3043,,1665479996,38137912,'',,,2.46,23.64,0.91,,0.0,0.0,0.0,1.0
1665479996146141634,,3044,,1665479996,145703077,'',,,2.49,23.66,0.71,,0.0,0.0,0.0,1.0
1665479996245375273,,3045,,1665479996,245124101,'',,,2.51,23.67,0.48,,0.0,0.0,0.0,1.0
1665479996347154459,,3046,,1665479996,346272945,'',,,2.52,23.67,0.42,,0.0,0.0,0.0,1.0
1665479996447269373,,3047,,1665479996,446914911,'',,,2.46,23.65,0.54,,0.0,0.0,0.0,1.0
1665479996539047241,,3048,,1665479996,538729906,'',,,2.46,23.63,0.64,,0.0,0.0,0.0,1.0
1665479996646512188,,3049,,1665479996,646142959,'',,,2.44,23.62,0.84,,0.0,0.0,0.0,1.0
1665479996745792969,,3050,,1665479996,745583057,'',,,2.41,23.62,0.97,,0.0,0.0,0.0,1.0
1665479996839974995,,3051,,1665479996,839325904,'',,,2.39,23.6,1.11,,0.0,0.0,0.0,1.0
1665479996945955394,,3052,,1665479996,945611000,'',,,2.43,23.64,0.8,,0.0,0.0,0.0,1.0
1665479997040117727,,3053,,1665479997,39290904,'',,,2.4,23.64,0.96,,0.0,0.0,0.0,1.0
1665479997146538970,,3054,,1665479997,146249055,'',,,2.36,23.61,0.99,,0.0,0.0,0.0,1.0
1665479997238745726,,3055,,1665479997,238478899,'',,,2.39,23.61,0.99,,0.0,0.0,0.0,1.0
