rosbagTimestamp,header,seq,stamp,secs,nsecs,frame_id,pose,position,x,y,z,orientation,x,y,z,w
1665761820314381720,,3854,,1665761820,313179016,'',,,-5.43,59.23,0.96,,0.0,0.0,0.0,1.0
1665761820414412630,,3855,,1665761820,413969039,'',,,-5.43,59.23,0.93,,0.0,0.0,0.0,1.0
1665761820513485644,,3856,,1665761820,512995958,'',,,-5.44,59.21,1.14,,0.0,0.0,0.0,1.0
1665761820613489830,,3857,,1665761820,612983942,'',,,-5.45,59.21,1.3,,0.0,0.0,0.0,1.0
1665761820714262378,,3858,,1665761820,713772058,'',,,-5.45,59.23,1.17,,0.0,0.0,0.0,1.0
1665761820813809042,,3859,,1665761820,813354969,'',,,-5.44,59.22,1.08,,0.0,0.0,0.0,1.0
1665761820914022319,,3860,,1665761820,912945985,'',,,-5.45,59.22,1.21,,0.0,0.0,0.0,1.0
1665761821014564052,,3861,,1665761821,13700008,'',,,-5.44,59.23,1.11,,0.0,0.0,0.0,1.0
1665761821114287697,,3862,,1665761821,113472938,'',,,-5.44,59.23,1.03,,0.0,0.0,0.0,1.0
1665761821213420599,,3863,,1665761821,212915897,'',,,-5.45,59.22,1.18,,0.0,0.0,0.0,1.0
1665761821314091643,,3864,,1665761821,313659906,'',,,-5.44,59.23,1.06,,0.0,0.0,0.0,1.0
1665761821414176465,,3865,,1665761821,413081884,'',,,-5.45,59.23,1.28,,0.0,0.0,0.0,1.0
1665761821513523344,,3866,,1665761821,512994050,'',,,-5.45,59.23,1.3,,0.0,0.0,0.0,1.0
1665761821614205119,,3867,,1665761821,613635063,'',,,-5.45,59.23,1.18,,0.0,0.0,0.0,1.0
1665761821714074517,,3868,,1665761821,713510036,'',,,-5.45,59.23,1.08,,0.0,0.0,0.0,1.0
1665761821813822516,,3869,,1665761821,813119888,'',,,-5.44,59.23,1.01,,0.0,0.0,0.0,1.0
1665761821913772927,,3870,,1665761821,913413047,'',,,-5.43,59.23,0.95,,0.0,0.0,0.0,1.0
1665761822014280392,,3871,,1665761822,13565063,'',,,-5.43,59.23,0.9,,0.0,0.0,0.0,1.0
1665761822113750216,,3872,,1665761822,112911939,'',,,-5.44,59.22,1.08,,0.0,0.0,0.0,1.0
1665761822214264453,,3873,,1665761822,213634014,'',,,-5.43,59.22,1.0,,0.0,0.0,0.0,1.0
1665761822313730055,,3874,,1665761822,313077926,'',,,-5.45,59.22,1.22,,0.0,0.0,0.0,1.0
1665761822414524883,,3875,,1665761822,413261890,'',,,-5.44,59.21,1.11,,0.0,0.0,0.0,1.0
1665761822514092488,,3876,,1665761822,513488054,'',,,-5.44,59.21,1.02,,0.0,0.0,0.0,1.0
1665761822613896461,,3877,,1665761822,613218069,'',,,-5.44,59.22,1.17,,0.0,0.0,0.0,1.0
1665761822713906588,,3878,,1665761822,713268041,'',,,-5.45,59.22,1.32,,0.0,0.0,0.0,1.0
1665761822813820281,,3879,,1665761822,813332080,'',,,-5.46,59.2,1.34,,0.0,0.0,0.0,1.0
1665761822914018593,,3880,,1665761822,913471937,'',,,-5.46,59.2,1.2,,0.0,0.0,0.0,1.0
1665761823013604975,,3881,,1665761823,12790918,'',,,-5.46,59.19,1.25,,0.0,0.0,0.0,1.0
1665761823114319728,,3882,,1665761823,113581895,'',,,-5.45,59.19,1.14,,0.0,0.0,0.0,1.0
1665761823213998726,,3883,,1665761823,213526964,'',,,-5.45,59.21,1.06,,0.0,0.0,0.0,1.0
1665761823313912172,,3884,,1665761823,312724113,'',,,-5.45,59.2,1.1,,0.0,0.0,0.0,1.0
1665761823413566998,,3885,,1665761823,413067102,'',,,-5.45,59.2,1.23,,0.0,0.0,0.0,1.0
1665761823514087247,,3886,,1665761823,513401985,'',,,-5.45,59.22,1.14,,0.0,0.0,0.0,1.0
1665761823613516804,,3887,,1665761823,613039970,'',,,-5.45,59.22,1.07,,0.0,0.0,0.0,1.0
1665761823713998470,,3888,,1665761823,713316917,'',,,-5.44,59.23,1.0,,0.0,0.0,0.0,1.0
1665761823813676929,,3889,,1665761823,813163995,'',,,-5.45,59.21,1.13,,0.0,0.0,0.0,1.0
1665761823913929102,,3890,,1665761823,913353919,'',,,-5.48,59.27,1.12,,0.0,0.0,0.0,1.0
1665761824013571624,,3891,,1665761824,13072967,'',,,-5.48,59.25,1.25,,0.0,0.0,0.0,1.0
1665761824113979128,,3892,,1665761824,113401889,'',,,-5.47,59.25,1.13,,0.0,0.0,0.0,1.0
1665761824213545789,,3893,,1665761824,213042974,'',,,-5.46,59.26,1.06,,0.0,0.0,0.0,1.0
1665761824314314324,,3894,,1665761824,313760042,'',,,-5.45,59.25,1.0,,0.0,0.0,0.0,1.0
1665761824413404687,,3895,,1665761824,412756919,'',,,-5.45,59.22,1.07,,0.0,0.0,0.0,1.0
1665761824513391337,,3896,,1665761824,512854099,'',,,-5.45,59.22,1.25,,0.0,0.0,0.0,1.0
1665761824613986818,,3897,,1665761824,613416910,'',,,-5.45,59.21,1.31,,0.0,0.0,0.0,1.0
1665761824714049647,,3898,,1665761824,713432073,'',,,-5.45,59.21,1.43,,0.0,0.0,0.0,1.0
1665761824813313226,,3899,,1665761824,812618017,'',,,-5.45,59.22,1.4,,0.0,0.0,0.0,1.0
1665761824914000164,,3900,,1665761824,913496017,'',,,-5.44,59.22,1.23,,0.0,0.0,0.0,1.0
1665761825013854131,,3901,,1665761825,13328075,'',,,-5.44,59.21,1.09,,0.0,0.0,0.0,1.0
1665761825113931635,,3902,,1665761825,113218069,'',,,-5.44,59.21,1.02,,0.0,0.0,0.0,1.0
1665761825213844736,,3903,,1665761825,213491916,'',,,-5.44,59.22,0.97,,0.0,0.0,0.0,1.0
1665761825315126522,,3904,,1665761825,313800096,'',,,-5.45,59.22,0.95,,0.0,0.0,0.0,1.0
1665761825413327060,,3905,,1665761825,413070917,'',,,-5.44,59.23,0.95,,0.0,0.0,0.0,1.0
1665761825513932205,,3906,,1665761825,513253927,'',,,-5.45,59.21,1.09,,0.0,0.0,0.0,1.0
1665761825613936584,,3907,,1665761825,613370895,'',,,-5.44,59.22,0.99,,0.0,0.0,0.0,1.0
1665761825713816680,,3908,,1665761825,713131904,'',,,-5.44,59.22,0.96,,0.0,0.0,0.0,1.0
1665761825813886693,,3909,,1665761825,813328981,'',,,-5.44,59.22,0.91,,0.0,0.0,0.0,1.0
1665761825913803277,,3910,,1665761825,913368940,'',,,-5.43,59.22,0.87,,0.0,0.0,0.0,1.0
1665761826013476719,,3911,,1665761826,13098955,'',,,-5.44,59.22,0.84,,0.0,0.0,0.0,1.0
1665761826113763578,,3912,,1665761826,113388061,'',,,-5.43,59.23,0.8,,0.0,0.0,0.0,1.0
1665761826214969666,,3913,,1665761826,213658094,'',,,-5.44,59.22,0.81,,0.0,0.0,0.0,1.0
1665761826313546578,,3914,,1665761826,313201904,'',,,-5.44,59.23,0.81,,0.0,0.0,0.0,1.0
1665761826414255792,,3915,,1665761826,413594961,'',,,-5.43,59.24,0.79,,0.0,0.0,0.0,1.0
1665761826514061373,,3916,,1665761826,513544082,'',,,-5.43,59.24,0.8,,0.0,0.0,0.0,1.0
1665761826613174600,,3917,,1665761826,612673997,'',,,-5.42,59.25,0.99,,0.0,0.0,0.0,1.0
1665761826714017189,,3918,,1665761826,713557958,'',,,-5.42,59.25,0.95,,0.0,0.0,0.0,1.0
1665761826813872053,,3919,,1665761826,813365936,'',,,-5.43,59.24,0.95,,0.0,0.0,0.0,1.0
1665761826913657170,,3920,,1665761826,913080930,'',,,-5.43,59.24,0.89,,0.0,0.0,0.0,1.0
1665761827013878310,,3921,,1665761827,13485908,'',,,-5.44,59.23,0.84,,0.0,0.0,0.0,1.0
1665761827113807602,,3922,,1665761827,113322973,'',,,-5.44,59.22,0.81,,0.0,0.0,0.0,1.0
1665761827213208752,,3923,,1665761827,212723016,'',,,-5.44,59.23,0.98,,0.0,0.0,0.0,1.0
1665761827314349439,,3924,,1665761827,313626050,'',,,-5.44,59.22,0.96,,0.0,0.0,0.0,1.0
1665761827414047736,,3925,,1665761827,413630962,'',,,-5.44,59.22,0.93,,0.0,0.0,0.0,1.0
1665761827513220501,,3926,,1665761827,512921094,'',,,-5.44,59.22,0.87,,0.0,0.0,0.0,1.0
1665761827613410781,,3927,,1665761827,613147974,'',,,-5.44,59.22,0.83,,0.0,0.0,0.0,1.0
1665761827713985962,,3928,,1665761827,713361024,'',,,-5.44,59.22,0.81,,0.0,0.0,0.0,1.0
1665761827813433884,,3929,,1665761827,812999010,'',,,-5.44,59.22,0.83,,0.0,0.0,0.0,1.0
1665761827914998975,,3930,,1665761827,913527965,'',,,-5.44,59.23,0.82,,0.0,0.0,0.0,1.0
1665761828014135740,,3931,,1665761828,13576030,'',,,-5.44,59.23,0.81,,0.0,0.0,0.0,1.0
1665761828113997038,,3932,,1665761828,113276958,'',,,-5.44,59.23,0.81,,0.0,0.0,0.0,1.0
1665761828213705273,,3933,,1665761828,213213920,'',,,-5.45,59.22,1.0,,0.0,0.0,0.0,1.0
1665761828313945979,,3934,,1665761828,313394069,'',,,-5.45,59.23,0.97,,0.0,0.0,0.0,1.0
1665761828413377648,,3935,,1665761828,412965059,'',,,-5.45,59.2,1.12,,0.0,0.0,0.0,1.0
1665761828514739450,,3936,,1665761828,514050960,'',,,-5.45,59.22,1.08,,0.0,0.0,0.0,1.0
1665761828613596969,,3937,,1665761828,613084077,'',,,-5.45,59.22,1.24,,0.0,0.0,0.0,1.0
1665761828713097309,,3938,,1665761828,712686061,'',,,-5.45,59.21,1.28,,0.0,0.0,0.0,1.0
1665761828813819822,,3939,,1665761828,813281059,'',,,-5.45,59.22,1.45,,0.0,0.0,0.0,1.0
1665761828913613454,,3940,,1665761828,913297891,'',,,-5.45,59.21,1.31,,0.0,0.0,0.0,1.0
1665761829013568374,,3941,,1665761829,13082027,'',,,-5.45,59.2,1.16,,0.0,0.0,0.0,1.0
1665761829113675765,,3942,,1665761829,113348007,'',,,-5.45,59.22,1.04,,0.0,0.0,0.0,1.0
1665761829213524828,,3943,,1665761829,213150024,'',,,-5.44,59.23,0.97,,0.0,0.0,0.0,1.0
1665761829313610355,,3944,,1665761829,313143014,'',,,-5.44,59.23,0.93,,0.0,0.0,0.0,1.0
1665761829413793367,,3945,,1665761829,413228034,'',,,-5.45,59.22,1.13,,0.0,0.0,0.0,1.0
1665761829513240732,,3946,,1665761829,512860059,'',,,-5.45,59.21,1.24,,0.0,0.0,0.0,1.0
1665761829613126442,,3947,,1665761829,612761020,'',,,-5.44,59.22,1.11,,0.0,0.0,0.0,1.0
1665761829714133475,,3948,,1665761829,713764905,'',,,-5.44,59.22,1.03,,0.0,0.0,0.0,1.0
1665761829813896170,,3949,,1665761829,813500881,'',,,-5.43,59.25,0.98,,0.0,0.0,0.0,1.0
1665761829913625039,,3950,,1665761829,913274049,'',,,-5.43,59.23,0.97,,0.0,0.0,0.0,1.0
1665761830014058799,,3951,,1665761830,13425111,'',,,-5.43,59.24,0.92,,0.0,0.0,0.0,1.0
1665761830113387280,,3952,,1665761830,112818002,'',,,-5.44,59.23,1.04,,0.0,0.0,0.0,1.0
1665761830213249497,,3953,,1665761830,212822914,'',,,-5.43,59.25,0.97,,0.0,0.0,0.0,1.0
1665761830314045834,,3954,,1665761830,313541889,'',,,-5.44,59.24,0.93,,0.0,0.0,0.0,1.0
1665761830413633650,,3955,,1665761830,413026094,'',,,-5.45,59.22,1.06,,0.0,0.0,0.0,1.0
1665761830513466258,,3956,,1665761830,513108968,'',,,-5.44,59.21,0.99,,0.0,0.0,0.0,1.0
1665761830614489486,,3957,,1665761830,613432884,'',,,-5.45,59.19,1.2,,0.0,0.0,0.0,1.0
1665761830713923499,,3958,,1665761830,713452100,'',,,-5.44,59.21,1.1,,0.0,0.0,0.0,1.0
1665761830813802453,,3959,,1665761830,813127040,'',,,-5.44,59.22,1.0,,0.0,0.0,0.0,1.0
1665761830913347809,,3960,,1665761830,912919044,'',,,-5.44,59.22,1.11,,0.0,0.0,0.0,1.0
1665761831013905066,,3961,,1665761831,13319969,'',,,-5.44,59.23,1.01,,0.0,0.0,0.0,1.0
1665761831113729408,,3962,,1665761831,113379955,'',,,-5.45,59.22,0.96,,0.0,0.0,0.0,1.0
1665761831214076057,,3963,,1665761831,213278055,'',,,-5.45,59.22,1.15,,0.0,0.0,0.0,1.0
1665761831314211908,,3964,,1665761831,313534021,'',,,-5.45,59.22,1.08,,0.0,0.0,0.0,1.0
1665761831414217750,,3965,,1665761831,412877082,'',,,-5.46,59.21,1.22,,0.0,0.0,0.0,1.0
1665761831513933209,,3966,,1665761831,513348102,'',,,-5.45,59.21,1.13,,0.0,0.0,0.0,1.0
1665761831613399246,,3967,,1665761831,612932920,'',,,-5.46,59.2,1.27,,0.0,0.0,0.0,1.0
1665761831706127346,,3968,,1665761831,705662012,'',,,-5.43,59.24,1.25,,0.0,0.0,0.0,1.0
1665761831813942217,,3969,,1665761831,813323974,'',,,-5.44,59.22,1.32,,0.0,0.0,0.0,1.0
1665761831914554244,,3970,,1665761831,913362979,'',,,-5.45,59.22,1.18,,0.0,0.0,0.0,1.0
1665761832013361200,,3971,,1665761832,12919902,'',,,-5.45,59.22,1.07,,0.0,0.0,0.0,1.0
1665761832114038578,,3972,,1665761832,113358020,'',,,-5.45,59.23,1.23,,0.0,0.0,0.0,1.0
1665761832214087242,,3973,,1665761832,213351964,'',,,-5.45,59.23,1.12,,0.0,0.0,0.0,1.0
1665761832313857383,,3974,,1665761832,313242912,'',,,-5.44,59.22,1.02,,0.0,0.0,0.0,1.0
1665761832413564542,,3975,,1665761832,413088083,'',,,-5.44,59.22,1.13,,0.0,0.0,0.0,1.0
1665761832513400771,,3976,,1665761832,512887001,'',,,-5.45,59.21,1.3,,0.0,0.0,0.0,1.0
1665761832613802833,,3977,,1665761832,613116025,'',,,-5.45,59.22,1.19,,0.0,0.0,0.0,1.0
1665761832713821322,,3978,,1665761832,713396072,'',,,-5.45,59.2,1.07,,0.0,0.0,0.0,1.0
1665761832813150930,,3979,,1665761832,812879085,'',,,-5.45,59.19,1.17,,0.0,0.0,0.0,1.0
1665761832914066011,,3980,,1665761832,912914037,'',,,-5.45,59.2,1.26,,0.0,0.0,0.0,1.0
1665761833013738111,,3981,,1665761833,13370990,'',,,-5.44,59.2,1.15,,0.0,0.0,0.0,1.0
1665761833113820476,,3982,,1665761833,113291025,'',,,-5.45,59.19,1.04,,0.0,0.0,0.0,1.0
1665761833213582562,,3983,,1665761833,213109970,'',,,-5.44,59.21,0.96,,0.0,0.0,0.0,1.0
1665761833313963731,,3984,,1665761833,313479900,'',,,-5.44,59.21,0.95,,0.0,0.0,0.0,1.0
1665761833414029069,,3985,,1665761833,413438081,'',,,-5.44,59.2,0.9,,0.0,0.0,0.0,1.0
1665761833513176560,,3986,,1665761833,512820959,'',,,-5.45,59.2,1.14,,0.0,0.0,0.0,1.0
1665761833614870551,,3987,,1665761833,613562107,'',,,-5.45,59.2,1.05,,0.0,0.0,0.0,1.0
1665761833713909634,,3988,,1665761833,713180065,'',,,-5.46,59.2,1.27,,0.0,0.0,0.0,1.0
1665761833813630674,,3989,,1665761833,813101053,'',,,-5.45,59.22,1.15,,0.0,0.0,0.0,1.0
1665761833915100397,,3990,,1665761833,913849115,'',,,-5.45,59.22,1.09,,0.0,0.0,0.0,1.0
1665761834013615366,,3991,,1665761834,13187885,'',,,-5.45,59.23,1.02,,0.0,0.0,0.0,1.0
1665761834113136554,,3992,,1665761834,112642049,'',,,-5.45,59.21,1.19,,0.0,0.0,0.0,1.0
1665761834213968372,,3993,,1665761834,213311910,'',,,-5.44,59.23,1.34,,0.0,0.0,0.0,1.0
1665761834314512965,,3994,,1665761834,313271045,'',,,-5.44,59.23,1.18,,0.0,0.0,0.0,1.0
1665761834413490497,,3995,,1665761834,413065910,'',,,-5.45,59.24,1.07,,0.0,0.0,0.0,1.0
1665761834514425159,,3996,,1665761834,513653039,'',,,-5.45,59.23,0.99,,0.0,0.0,0.0,1.0
1665761834613968581,,3997,,1665761834,613300085,'',,,-5.44,59.22,0.94,,0.0,0.0,0.0,1.0
1665761834714693146,,3998,,1665761834,713727951,'',,,-5.44,59.23,0.88,,0.0,0.0,0.0,1.0
1665761834813494300,,3999,,1665761834,813113927,'',,,-5.44,59.23,1.07,,0.0,0.0,0.0,1.0
1665761834913768907,,4000,,1665761834,913371086,'',,,-5.44,59.23,1.01,,0.0,0.0,0.0,1.0
1665761835013971004,,4001,,1665761835,12868881,'',,,-5.45,59.22,1.22,,0.0,0.0,0.0,1.0
1665761835114071195,,4002,,1665761835,113622903,'',,,-5.44,59.22,1.1,,0.0,0.0,0.0,1.0
1665761835213474465,,4003,,1665761835,213040113,'',,,-5.45,59.22,1.21,,0.0,0.0,0.0,1.0
1665761835313497830,,4004,,1665761835,313047885,'',,,-5.45,59.22,1.11,,0.0,0.0,0.0,1.0
1665761835413694013,,4005,,1665761835,413238048,'',,,-5.45,59.2,1.24,,0.0,0.0,0.0,1.0
1665761835513696678,,4006,,1665761835,513077974,'',,,-5.44,59.22,1.11,,0.0,0.0,0.0,1.0
1665761835613616679,,4007,,1665761835,612560033,'',,,-5.45,59.22,1.28,,0.0,0.0,0.0,1.0
1665761835714209042,,4008,,1665761835,713535070,'',,,-5.45,59.22,1.16,,0.0,0.0,0.0,1.0
1665761835813911240,,4009,,1665761835,813304901,'',,,-5.44,59.21,1.07,,0.0,0.0,0.0,1.0
1665761835913169677,,4010,,1665761835,912642002,'',,,-5.45,59.26,1.17,,0.0,0.0,0.0,1.0
1665761836013618209,,4011,,1665761836,13212919,'',,,-5.45,59.25,1.31,,0.0,0.0,0.0,1.0
1665761836113466641,,4012,,1665761836,113109111,'',,,-5.45,59.25,1.16,,0.0,0.0,0.0,1.0
1665761836213512573,,4013,,1665761836,212939023,'',,,-5.43,59.24,1.05,,0.0,0.0,0.0,1.0
1665761836313768587,,4014,,1665761836,313246011,'',,,-5.44,59.23,1.24,,0.0,0.0,0.0,1.0
1665761836413881447,,4015,,1665761836,413367033,'',,,-5.44,59.22,1.13,,0.0,0.0,0.0,1.0
1665761836513835978,,4016,,1665761836,512944936,'',,,-5.45,59.22,1.2,,0.0,0.0,0.0,1.0
1665761836614348173,,4017,,1665761836,613683938,'',,,-5.45,59.22,1.1,,0.0,0.0,0.0,1.0
1665761836713515622,,4018,,1665761836,713032007,'',,,-5.45,59.23,1.28,,0.0,0.0,0.0,1.0
1665761836813485971,,4019,,1665761836,813026905,'',,,-5.44,59.23,1.15,,0.0,0.0,0.0,1.0
1665761836913626571,,4020,,1665761836,913297891,'',,,-5.44,59.24,1.06,,0.0,0.0,0.0,1.0
1665761837014357429,,4021,,1665761837,13035058,'',,,-5.44,59.23,1.27,,0.0,0.0,0.0,1.0
1665761837113814720,,4022,,1665761837,113122940,'',,,-5.43,59.23,1.14,,0.0,0.0,0.0,1.0
1665761837214098009,,4023,,1665761837,213351964,'',,,-5.45,59.2,1.26,,0.0,0.0,0.0,1.0
1665761837313671055,,4024,,1665761837,313246965,'',,,-5.45,59.19,1.13,,0.0,0.0,0.0,1.0
1665761837413302160,,4025,,1665761837,412862062,'',,,-5.46,59.2,1.27,,0.0,0.0,0.0,1.0
1665761837514154350,,4026,,1665761837,513701915,'',,,-5.46,59.2,1.13,,0.0,0.0,0.0,1.0
1665761837614097230,,4027,,1665761837,613550901,'',,,-5.45,59.22,1.07,,0.0,0.0,0.0,1.0
1665761837713307104,,4028,,1665761837,712821960,'',,,-5.46,59.22,1.19,,0.0,0.0,0.0,1.0
1665761837813928528,,4029,,1665761837,813270092,'',,,-5.46,59.21,1.28,,0.0,0.0,0.0,1.0
1665761837913434564,,4030,,1665761837,913096904,'',,,-5.46,59.21,1.15,,0.0,0.0,0.0,1.0
1665761838013163720,,4031,,1665761838,12595891,'',,,-5.45,59.22,1.19,,0.0,0.0,0.0,1.0
1665761838114496516,,4032,,1665761838,113372087,'',,,-5.46,59.22,1.29,,0.0,0.0,0.0,1.0
1665761838213929478,,4033,,1665761838,213258981,'',,,-5.46,59.21,1.16,,0.0,0.0,0.0,1.0
1665761838313205041,,4034,,1665761838,312818050,'',,,-5.45,59.2,1.22,,0.0,0.0,0.0,1.0
1665761838414170025,,4035,,1665761838,413645982,'',,,-5.44,59.21,1.11,,0.0,0.0,0.0,1.0
1665761838514473928,,4036,,1665761838,513962030,'',,,-5.45,59.22,1.06,,0.0,0.0,0.0,1.0
1665761838614384222,,4037,,1665761838,613389968,'',,,-5.44,59.23,1.0,,0.0,0.0,0.0,1.0
1665761838714117632,,4038,,1665761838,713474035,'',,,-5.44,59.22,0.93,,0.0,0.0,0.0,1.0
1665761838813287505,,4039,,1665761838,812926054,'',,,-5.45,59.22,1.16,,0.0,0.0,0.0,1.0
1665761838913727492,,4040,,1665761838,913197994,'',,,-5.44,59.22,1.1,,0.0,0.0,0.0,1.0
1665761839014030446,,4041,,1665761839,13500928,'',,,-5.45,59.21,1.02,,0.0,0.0,0.0,1.0
1665761839113756360,,4042,,1665761839,113310098,'',,,-5.44,59.22,0.97,,0.0,0.0,0.0,1.0
1665761839214885148,,4043,,1665761839,213502883,'',,,-5.43,59.23,0.95,,0.0,0.0,0.0,1.0
1665761839314184518,,4044,,1665761839,313312053,'',,,-5.43,59.23,0.89,,0.0,0.0,0.0,1.0
1665761839413518352,,4045,,1665761839,413042068,'',,,-5.44,59.24,1.08,,0.0,0.0,0.0,1.0
1665761839513611714,,4046,,1665761839,512989044,'',,,-5.45,59.22,1.18,,0.0,0.0,0.0,1.0
1665761839614075793,,4047,,1665761839,613461971,'',,,-5.45,59.22,1.08,,0.0,0.0,0.0,1.0
1665761839714010578,,4048,,1665761839,713496923,'',,,-5.44,59.21,1.02,,0.0,0.0,0.0,1.0
1665761839813770144,,4049,,1665761839,813219070,'',,,-5.44,59.21,0.94,,0.0,0.0,0.0,1.0
1665761839913930465,,4050,,1665761839,913470029,'',,,-5.44,59.21,0.89,,0.0,0.0,0.0,1.0
1665761840014005351,,4051,,1665761840,13442993,'',,,-5.44,59.2,0.84,,0.0,0.0,0.0,1.0
1665761840114316573,,4052,,1665761840,113492965,'',,,-5.43,59.21,0.83,,0.0,0.0,0.0,1.0
1665761840213510966,,4053,,1665761840,212979078,'',,,-5.45,59.2,1.03,,0.0,0.0,0.0,1.0
1665761840313358221,,4054,,1665761840,313116073,'',,,-5.45,59.22,0.96,,0.0,0.0,0.0,1.0
1665761840413720467,,4055,,1665761840,412975072,'',,,-5.46,59.21,1.12,,0.0,0.0,0.0,1.0
1665761840513887407,,4056,,1665761840,513158082,'',,,-5.46,59.22,1.22,,0.0,0.0,0.0,1.0
1665761840614331587,,4057,,1665761840,612945079,'',,,-5.46,59.21,1.26,,0.0,0.0,0.0,1.0
1665761840713817181,,4058,,1665761840,713352918,'',,,-5.45,59.21,1.13,,0.0,0.0,0.0,1.0
1665761840813771094,,4059,,1665761840,813232898,'',,,-5.46,59.2,1.03,,0.0,0.0,0.0,1.0
1665761840913791523,,4060,,1665761840,913073062,'',,,-5.46,59.21,0.95,,0.0,0.0,0.0,1.0
1665761841014149044,,4061,,1665761841,13510942,'',,,-5.45,59.23,0.96,,0.0,0.0,0.0,1.0
1665761841113675116,,4062,,1665761841,113029956,'',,,-5.45,59.22,1.07,,0.0,0.0,0.0,1.0
1665761841213390762,,4063,,1665761841,212826013,'',,,-5.45,59.21,1.18,,0.0,0.0,0.0,1.0
1665761841314341928,,4064,,1665761841,313270092,'',,,-5.45,59.22,1.07,,0.0,0.0,0.0,1.0
1665761841413704964,,4065,,1665761841,413161039,'',,,-5.45,59.22,1.21,,0.0,0.0,0.0,1.0
1665761841513582862,,4066,,1665761841,513021945,'',,,-5.45,59.22,1.29,,0.0,0.0,0.0,1.0
1665761841614437895,,4067,,1665761841,613013029,'',,,-5.46,59.21,1.39,,0.0,0.0,0.0,1.0
1665761841714103594,,4068,,1665761841,713649034,'',,,-5.46,59.2,1.25,,0.0,0.0,0.0,1.0
1665761841814264909,,4069,,1665761841,813164949,'',,,-5.45,59.2,1.12,,0.0,0.0,0.0,1.0
1665761841913246293,,4070,,1665761841,912842035,'',,,-5.45,59.19,1.19,,0.0,0.0,0.0,1.0
1665761842013905804,,4071,,1665761842,13556957,'',,,-5.44,59.18,1.1,,0.0,0.0,0.0,1.0
1665761842113133220,,4072,,1665761842,112626075,'',,,-5.44,59.17,1.17,,0.0,0.0,0.0,1.0
1665761842213650848,,4073,,1665761842,213016033,'',,,-5.46,59.13,1.32,,0.0,0.0,0.0,1.0
1665761842314113267,,4074,,1665761842,313472032,'',,,-5.45,59.07,1.21,,0.0,0.0,0.0,1.0
1665761842413115462,,4075,,1665761842,412717103,'',,,-5.45,58.99,1.17,,0.0,0.0,0.0,1.0
1665761842513379736,,4076,,1665761842,512965917,'',,,-5.45,58.91,1.05,,0.0,0.0,0.0,1.0
1665761842613509572,,4077,,1665761842,612940073,'',,,-5.45,58.8,1.15,,0.0,0.0,0.0,1.0
1665761842713736062,,4078,,1665761842,713289976,'',,,-5.43,58.68,1.04,,0.0,0.0,0.0,1.0
1665761842813174797,,4079,,1665761842,812727928,'',,,-5.43,58.53,1.14,,0.0,0.0,0.0,1.0
1665761842913759246,,4080,,1665761842,913224935,'',,,-5.42,58.34,1.02,,0.0,0.0,0.0,1.0
1665761843013499157,,4081,,1665761843,12887954,'',,,-5.41,58.13,0.94,,0.0,0.0,0.0,1.0
1665761843113413140,,4082,,1665761843,112783908,'',,,-5.4,57.92,1.11,,0.0,0.0,0.0,1.0
1665761843213543576,,4083,,1665761843,213110923,'',,,-5.38,57.66,1.03,,0.0,0.0,0.0,1.0
1665761843313078117,,4084,,1665761843,312556982,'',,,-5.38,57.37,1.14,,0.0,0.0,0.0,1.0
1665761843412837371,,4085,,1665761843,412240028,'',,,-5.38,57.07,1.12,,0.0,0.0,0.0,1.0
1665761843512803209,,4086,,1665761843,512347936,'',,,-5.37,56.72,1.21,,0.0,0.0,0.0,1.0
1665761843613069103,,4087,,1665761843,612472057,'',,,-5.37,56.37,1.26,,0.0,0.0,0.0,1.0
1665761843713532451,,4088,,1665761843,712984085,'',,,-5.36,55.99,1.15,,0.0,0.0,0.0,1.0
1665761843813537698,,4089,,1665761843,813178062,'',,,-5.36,55.59,1.06,,0.0,0.0,0.0,1.0
1665761843913592727,,4090,,1665761843,912947893,'',,,-5.36,55.16,0.96,,0.0,0.0,0.0,1.0
1665761844013662600,,4091,,1665761844,13012886,'',,,-5.38,54.72,0.91,,0.0,0.0,0.0,1.0
1665761844113683152,,4092,,1665761844,113152980,'',,,-5.37,54.23,0.87,,0.0,0.0,0.0,1.0
1665761844213582862,,4093,,1665761844,212949991,'',,,-5.35,53.71,0.87,,0.0,0.0,0.0,1.0
1665761844313725453,,4094,,1665761844,313180923,'',,,-5.36,53.21,0.9,,0.0,0.0,0.0,1.0
1665761844412963921,,4095,,1665761844,412353992,'',,,-5.38,52.66,0.85,,0.0,0.0,0.0,1.0
1665761844512709373,,4096,,1665761844,512140035,'',,,-5.39,52.09,1.03,,0.0,0.0,0.0,1.0
1665761844612997969,,4097,,1665761844,612446069,'',,,-5.39,51.47,0.98,,0.0,0.0,0.0,1.0
1665761844713520606,,4098,,1665761844,713188886,'',,,-5.38,50.86,1.18,,0.0,0.0,0.0,1.0
1665761844812281842,,4099,,1665761844,812000036,'',,,-5.41,50.18,1.23,,0.0,0.0,0.0,1.0
1665761844912817391,,4100,,1665761844,912134885,'',,,-5.42,49.5,1.12,,0.0,0.0,0.0,1.0
1665761845012855125,,4101,,1665761845,12234926,'',,,-5.42,48.77,1.32,,0.0,0.0,0.0,1.0
1665761845112941500,,4102,,1665761845,112379074,'',,,-5.44,48.02,1.26,,0.0,0.0,0.0,1.0
1665761845213667194,,4103,,1665761845,212404012,'',,,-5.44,47.28,1.24,,0.0,0.0,0.0,1.0
1665761845314661797,,4104,,1665761845,314006090,'',,,-5.45,46.5,1.13,,0.0,0.0,0.0,1.0
1665761845413491093,,4105,,1665761845,413038969,'',,,-5.48,45.69,1.17,,0.0,0.0,0.0,1.0
1665761845513026131,,4106,,1665761845,512521028,'',,,-5.51,44.85,1.15,,0.0,0.0,0.0,1.0
1665761845613378127,,4107,,1665761845,612483978,'',,,-5.52,43.99,1.18,,0.0,0.0,0.0,1.0
1665761845712964030,,4108,,1665761845,712486982,'',,,-5.54,43.12,1.14,,0.0,0.0,0.0,1.0
1665761845813769799,,4109,,1665761845,813246965,'',,,-5.55,42.24,1.01,,0.0,0.0,0.0,1.0
1665761845915181373,,4110,,1665761845,913800001,'',,,-5.55,41.35,0.92,,0.0,0.0,0.0,1.0
1665761846013853017,,4111,,1665761846,12860059,'',,,-5.57,40.46,0.87,,0.0,0.0,0.0,1.0
1665761846113834255,,4112,,1665761846,113343954,'',,,-5.58,39.53,0.95,,0.0,0.0,0.0,1.0
1665761846213911267,,4113,,1665761846,213550090,'',,,-5.61,38.59,0.97,,0.0,0.0,0.0,1.0
1665761846314730075,,4114,,1665761846,313545942,'',,,-5.62,37.64,0.97,,0.0,0.0,0.0,1.0
1665761846414229635,,4115,,1665761846,413572072,'',,,-5.64,36.69,0.99,,0.0,0.0,0.0,1.0
1665761846514274346,,4116,,1665761846,513932943,'',,,-5.66,35.71,1.05,,0.0,0.0,0.0,1.0
1665761846614218139,,4117,,1665761846,613203048,'',,,-5.7,34.74,0.96,,0.0,0.0,0.0,1.0
1665761846714615403,,4118,,1665761846,713918924,'',,,-5.7,33.71,0.9,,0.0,0.0,0.0,1.0
1665761846814385420,,4119,,1665761846,813855886,'',,,-5.7,32.67,1.05,,0.0,0.0,0.0,1.0
1665761846913183464,,4120,,1665761846,912832975,'',,,-5.7,31.7,1.11,,0.0,0.0,0.0,1.0
1665761847013994049,,4121,,1665761847,13628959,'',,,-5.76,30.7,1.06,,0.0,0.0,0.0,1.0
1665761847114413677,,4122,,1665761847,113938093,'',,,-5.81,29.7,1.07,,0.0,0.0,0.0,1.0
1665761847214202923,,4123,,1665761847,213555097,'',,,-5.85,28.7,1.05,,0.0,0.0,0.0,1.0
1665761847314325542,,4124,,1665761847,313918113,'',,,-5.89,27.69,1.03,,0.0,0.0,0.0,1.0
1665761847414595498,,4125,,1665761847,414158105,'',,,-5.92,26.68,1.08,,0.0,0.0,0.0,1.0
1665761847513455131,,4126,,1665761847,512906074,'',,,-5.96,25.68,1.15,,0.0,0.0,0.0,1.0
1665761847613329749,,4127,,1665761847,612845897,'',,,-5.96,24.72,1.24,,0.0,0.0,0.0,1.0
1665761847714910534,,4128,,1665761847,713778018,'',,,-6.0,23.69,1.17,,0.0,0.0,0.0,1.0
1665761847813930105,,4129,,1665761847,813384056,'',,,-6.05,22.67,1.09,,0.0,0.0,0.0,1.0
1665761847914407242,,4130,,1665761847,913867950,'',,,-6.09,21.67,1.14,,0.0,0.0,0.0,1.0
1665761848013427643,,4131,,1665761848,12985944,'',,,-6.11,20.74,1.13,,0.0,0.0,0.0,1.0
1665761848113922241,,4132,,1665761848,113428115,'',,,-6.16,19.75,1.26,,0.0,0.0,0.0,1.0
1665761848206539966,,4133,,1665761848,206074953,'',,,-6.19,18.83,1.35,,0.0,0.0,0.0,1.0
1665761848314315583,,4134,,1665761848,313756942,'',,,-6.21,17.93,1.37,,0.0,0.0,0.0,1.0
1665761848413301785,,4135,,1665761848,412874937,'',,,-6.21,17.03,1.2,,0.0,0.0,0.0,1.0
1665761848512929405,,4136,,1665761848,512522935,'',,,-6.21,16.15,1.17,,0.0,0.0,0.0,1.0
1665761848606703094,,4137,,1665761848,606101036,'',,,-6.22,15.34,1.06,,0.0,0.0,0.0,1.0
1665761848712868482,,4138,,1665761848,712359905,'',,,-6.21,14.52,1.13,,0.0,0.0,0.0,1.0
1665761848813275072,,4139,,1665761848,812747955,'',,,-6.24,13.81,1.08,,0.0,0.0,0.0,1.0
1665761848913503021,,4140,,1665761848,912859916,'',,,-6.25,13.1,1.08,,0.0,0.0,0.0,1.0
1665761849013909155,,4141,,1665761849,13173103,'',,,-6.27,12.45,1.07,,0.0,0.0,0.0,1.0
1665761849113736598,,4142,,1665761849,113243103,'',,,-6.29,11.84,1.02,,0.0,0.0,0.0,1.0
1665761849213258399,,4143,,1665761849,212793111,'',,,-6.31,11.29,0.92,,0.0,0.0,0.0,1.0
1665761849312896942,,4144,,1665761849,312411069,'',,,-6.32,10.76,0.83,,0.0,0.0,0.0,1.0
1665761849412187819,,4145,,1665761849,411850929,'',,,-6.34,10.29,1.03,,0.0,0.0,0.0,1.0
1665761849512395465,,4146,,1665761849,512010097,'',,,-6.35,9.86,1.08,,0.0,0.0,0.0,1.0
1665761849612521903,,4147,,1665761849,612097978,'',,,-6.37,9.47,1.1,,0.0,0.0,0.0,1.0
1665761849713992692,,4148,,1665761849,712724924,'',,,-6.36,9.09,1.0,,0.0,0.0,0.0,1.0
1665761849813167287,,4149,,1665761849,812649965,'',,,-6.34,8.77,1.01,,0.0,0.0,0.0,1.0
1665761849912487014,,4150,,1665761849,912122964,'',,,-6.35,8.48,1.01,,0.0,0.0,0.0,1.0
1665761850012751714,,4151,,1665761850,12317895,'',,,-6.35,8.24,0.94,,0.0,0.0,0.0,1.0
1665761850113083692,,4152,,1665761850,112478971,'',,,-6.37,8.08,0.87,,0.0,0.0,0.0,1.0
1665761850212660471,,4153,,1665761850,212342023,'',,,-6.38,7.92,0.77,,0.0,0.0,0.0,1.0
1665761850312546741,,4154,,1665761850,312141895,'',,,-6.39,7.82,0.95,,0.0,0.0,0.0,1.0
1665761850412859860,,4155,,1665761850,412374973,'',,,-6.4,7.73,1.08,,0.0,0.0,0.0,1.0
1665761850512693825,,4156,,1665761850,512195110,'',,,-6.4,7.68,1.17,,0.0,0.0,0.0,1.0
1665761850613201519,,4157,,1665761850,612498998,'',,,-6.41,7.63,1.03,,0.0,0.0,0.0,1.0
1665761850713068917,,4158,,1665761850,712510108,'',,,-6.44,7.59,0.98,,0.0,0.0,0.0,1.0
1665761850813358250,,4159,,1665761850,812180042,'',,,-6.46,7.57,0.95,,0.0,0.0,0.0,1.0
1665761850913099220,,4160,,1665761850,912508964,'',,,-6.48,7.55,0.96,,0.0,0.0,0.0,1.0
1665761851012900998,,4161,,1665761851,12263059,'',,,-6.45,7.51,0.96,,0.0,0.0,0.0,1.0
1665761851112399127,,4162,,1665761851,111864089,'',,,-6.45,7.51,1.03,,0.0,0.0,0.0,1.0
1665761851213287689,,4163,,1665761851,212635993,'',,,-6.42,7.49,0.97,,0.0,0.0,0.0,1.0
1665761851312999763,,4164,,1665761851,312463998,'',,,-6.43,7.48,0.86,,0.0,0.0,0.0,1.0
1665761851412952761,,4165,,1665761851,412498950,'',,,-6.44,7.5,0.83,,0.0,0.0,0.0,1.0
1665761851512482281,,4166,,1665761851,512167930,'',,,-6.42,7.49,0.83,,0.0,0.0,0.0,1.0
1665761851613791288,,4167,,1665761851,613123893,'',,,-6.41,7.49,0.8,,0.0,0.0,0.0,1.0
1665761851712308164,,4168,,1665761851,711886882,'',,,-6.42,7.5,0.93,,0.0,0.0,0.0,1.0
1665761851813161441,,4169,,1665761851,812617063,'',,,-6.43,7.5,0.86,,0.0,0.0,0.0,1.0
1665761851912896577,,4170,,1665761851,912228107,'',,,-6.39,7.47,0.87,,0.0,0.0,0.0,1.0
1665761852013221860,,4171,,1665761852,12480020,'',,,-6.4,7.47,0.77,,0.0,0.0,0.0,1.0
1665761852113072766,,4172,,1665761852,112543106,'',,,-6.39,7.46,0.81,,0.0,0.0,0.0,1.0
1665761852212483618,,4173,,1665761852,212038993,'',,,-6.4,7.49,1.04,,0.0,0.0,0.0,1.0
1665761852313303402,,4174,,1665761852,312009096,'',,,-6.39,7.51,1.22,,0.0,0.0,0.0,1.0
1665761852413223671,,4175,,1665761852,412749052,'',,,-6.39,7.51,1.06,,0.0,0.0,0.0,1.0
1665761852513336895,,4176,,1665761852,512418985,'',,,-6.41,7.51,0.98,,0.0,0.0,0.0,1.0
1665761852612775783,,4177,,1665761852,612194061,'',,,-6.41,7.51,1.1,,0.0,0.0,0.0,1.0
1665761852712968180,,4178,,1665761852,712487936,'',,,-6.41,7.51,0.96,,0.0,0.0,0.0,1.0
1665761852812989924,,4179,,1665761852,812577962,'',,,-6.41,7.51,0.83,,0.0,0.0,0.0,1.0
1665761852912730582,,4180,,1665761852,912364006,'',,,-6.42,7.51,0.78,,0.0,0.0,0.0,1.0
1665761853012531623,,4181,,1665761853,11995077,'',,,-6.42,7.51,0.92,,0.0,0.0,0.0,1.0
1665761853112941547,,4182,,1665761853,112473964,'',,,-6.43,7.51,0.85,,0.0,0.0,0.0,1.0
1665761853213771857,,4183,,1665761853,213115930,'',,,-6.41,7.5,0.75,,0.0,0.0,0.0,1.0
1665761853313130492,,4184,,1665761853,312506914,'',,,-6.42,7.5,0.75,,0.0,0.0,0.0,1.0
1665761853412797089,,4185,,1665761853,412275075,'',,,-6.43,7.5,0.95,,0.0,0.0,0.0,1.0
1665761853513146159,,4186,,1665761853,512439966,'',,,-6.44,7.5,0.85,,0.0,0.0,0.0,1.0
1665761853613159276,,4187,,1665761853,612529993,'',,,-6.45,7.5,0.8,,0.0,0.0,0.0,1.0
1665761853712780974,,4188,,1665761853,712291002,'',,,-6.45,7.5,0.92,,0.0,0.0,0.0,1.0
1665761853812944671,,4189,,1665761853,812446117,'',,,-6.46,7.51,0.9,,0.0,0.0,0.0,1.0
1665761853913176605,,4190,,1665761853,912677049,'',,,-6.48,7.51,1.01,,0.0,0.0,0.0,1.0
1665761854012984974,,4191,,1665761854,12526035,'',,,-6.47,7.51,0.87,,0.0,0.0,0.0,1.0
1665761854112631880,,4192,,1665761854,112298965,'',,,-6.48,7.5,0.91,,0.0,0.0,0.0,1.0
1665761854213105157,,4193,,1665761854,212553977,'',,,-6.46,7.5,0.83,,0.0,0.0,0.0,1.0
1665761854313218269,,4194,,1665761854,312592983,'',,,-6.45,7.51,0.8,,0.0,0.0,0.0,1.0
1665761854412664696,,4195,,1665761854,412199020,'',,,-6.44,7.49,0.85,,0.0,0.0,0.0,1.0
1665761854512197757,,4196,,1665761854,511836051,'',,,-6.42,7.49,0.95,,0.0,0.0,0.0,1.0
1665761854613194372,,4197,,1665761854,612586021,'',,,-6.43,7.49,0.83,,0.0,0.0,0.0,1.0
1665761854712683655,,4198,,1665761854,712245941,'',,,-6.42,7.5,1.03,,0.0,0.0,0.0,1.0
1665761854813456792,,4199,,1665761854,812685012,'',,,-6.42,7.49,0.88,,0.0,0.0,0.0,1.0
1665761854912904422,,4200,,1665761854,912280082,'',,,-6.41,7.51,0.85,,0.0,0.0,0.0,1.0
1665761855012709362,,4201,,1665761855,12291908,'',,,-6.44,7.5,0.84,,0.0,0.0,0.0,1.0
1665761855113157258,,4202,,1665761855,112554073,'',,,-6.43,7.49,0.73,,0.0,0.0,0.0,1.0
1665761855213553361,,4203,,1665761855,212522983,'',,,-6.43,7.5,0.66,,0.0,0.0,0.0,1.0
1665761855312388097,,4204,,1665761855,312092065,'',,,-6.42,7.5,0.88,,0.0,0.0,0.0,1.0
1665761855413296707,,4205,,1665761855,412627935,'',,,-6.43,7.49,0.79,,0.0,0.0,0.0,1.0
1665761855512989566,,4206,,1665761855,512517929,'',,,-6.43,7.49,0.71,,0.0,0.0,0.0,1.0
1665761855612471942,,4207,,1665761855,611974954,'',,,-6.43,7.5,0.84,,0.0,0.0,0.0,1.0
1665761855713131125,,4208,,1665761855,712620019,'',,,-6.44,7.51,0.84,,0.0,0.0,0.0,1.0
1665761855813109673,,4209,,1665761855,812516927,'',,,-6.46,7.51,0.91,,0.0,0.0,0.0,1.0
1665761855913248017,,4210,,1665761855,912532091,'',,,-6.48,7.5,0.86,,0.0,0.0,0.0,1.0
1665761856012769436,,4211,,1665761856,12255907,'',,,-6.49,7.5,0.85,,0.0,0.0,0.0,1.0
1665761856112728359,,4212,,1665761856,112211942,'',,,-6.47,7.52,0.85,,0.0,0.0,0.0,1.0
1665761856212217242,,4213,,1665761856,211870908,'',,,-6.46,7.52,1.05,,0.0,0.0,0.0,1.0
1665761856312987828,,4214,,1665761856,312580108,'',,,-6.47,7.52,1.05,,0.0,0.0,0.0,1.0
1665761856412759526,,4215,,1665761856,412247896,'',,,-6.46,7.51,1.03,,0.0,0.0,0.0,1.0
1665761856512539346,,4216,,1665761856,511913061,'',,,-6.44,7.5,1.11,,0.0,0.0,0.0,1.0
1665761856612909304,,4217,,1665761856,612354993,'',,,-6.44,7.51,1.26,,0.0,0.0,0.0,1.0
1665761856713179709,,4218,,1665761856,712515115,'',,,-6.45,7.5,1.12,,0.0,0.0,0.0,1.0
1665761856812190532,,4219,,1665761856,811765909,'',,,-6.44,7.51,1.16,,0.0,0.0,0.0,1.0
1665761856906295951,,4220,,1665761856,905797004,'',,,-6.44,7.52,1.24,,0.0,0.0,0.0,1.0
1665761857012762537,,4221,,1665761857,12190103,'',,,-6.43,7.52,1.31,,0.0,0.0,0.0,1.0
1665761857113028230,,4222,,1665761857,112411022,'',,,-6.46,7.51,1.19,,0.0,0.0,0.0,1.0
1665761857212877165,,4223,,1665761857,212404966,'',,,-6.47,7.52,1.05,,0.0,0.0,0.0,1.0
1665761857313041569,,4224,,1665761857,312510013,'',,,-6.47,7.53,0.95,,0.0,0.0,0.0,1.0
1665761857412368984,,4225,,1665761857,411906957,'',,,-6.45,7.52,0.97,,0.0,0.0,0.0,1.0
1665761857512541499,,4226,,1665761857,512029886,'',,,-6.44,7.52,1.16,,0.0,0.0,0.0,1.0
1665761857613058102,,4227,,1665761857,612509012,'',,,-6.44,7.52,1.0,,0.0,0.0,0.0,1.0
1665761857713205572,,4228,,1665761857,712301969,'',,,-6.43,7.51,0.88,,0.0,0.0,0.0,1.0
1665761857812947422,,4229,,1665761857,812408924,'',,,-6.44,7.51,0.79,,0.0,0.0,0.0,1.0
1665761857913180463,,4230,,1665761857,912580013,'',,,-6.44,7.51,0.7,,0.0,0.0,0.0,1.0
1665761858012800838,,4231,,1665761858,12355089,'',,,-6.44,7.51,0.71,,0.0,0.0,0.0,1.0
1665761858113439795,,4232,,1665761858,112257957,'',,,-6.42,7.49,0.75,,0.0,0.0,0.0,1.0
1665761858212976620,,4233,,1665761858,212424039,'',,,-6.4,7.5,0.8,,0.0,0.0,0.0,1.0
1665761858312680161,,4234,,1665761858,312125921,'',,,-6.44,7.5,0.74,,0.0,0.0,0.0,1.0
1665761858413341998,,4235,,1665761858,412575006,'',,,-6.43,7.52,0.75,,0.0,0.0,0.0,1.0
1665761858512735989,,4236,,1665761858,512228965,'',,,-6.42,7.51,0.82,,0.0,0.0,0.0,1.0
1665761858613612627,,4237,,1665761858,612437963,'',,,-6.42,7.51,0.81,,0.0,0.0,0.0,1.0
1665761858712777317,,4238,,1665761858,712371110,'',,,-6.44,7.51,0.76,,0.0,0.0,0.0,1.0
1665761858813744912,,4239,,1665761858,813190937,'',,,-6.42,7.54,0.91,,0.0,0.0,0.0,1.0
1665761858913239955,,4240,,1665761858,912763118,'',,,-6.42,7.53,0.86,,0.0,0.0,0.0,1.0
1665761859012944324,,4241,,1665761859,12466907,'',,,-6.42,7.53,0.77,,0.0,0.0,0.0,1.0
1665761859113959164,,4242,,1665761859,112700939,'',,,-6.42,7.52,0.8,,0.0,0.0,0.0,1.0
1665761859212731270,,4243,,1665761859,212312936,'',,,-6.41,7.52,0.71,,0.0,0.0,0.0,1.0
1665761859313481123,,4244,,1665761859,312196016,'',,,-6.41,7.52,0.93,,0.0,0.0,0.0,1.0
1665761859412802137,,4245,,1665761859,412262916,'',,,-6.41,7.52,1.07,,0.0,0.0,0.0,1.0
1665761859512648180,,4246,,1665761859,512162923,'',,,-6.41,7.52,1.25,,0.0,0.0,0.0,1.0
1665761859613119714,,4247,,1665761859,612530946,'',,,-6.42,7.51,1.14,,0.0,0.0,0.0,1.0
1665761859713266341,,4248,,1665761859,712593078,'',,,-6.42,7.52,1.28,,0.0,0.0,0.0,1.0
1665761859813322025,,4249,,1665761859,812741041,'',,,-6.43,7.53,1.12,,0.0,0.0,0.0,1.0
1665761859912918203,,4250,,1665761859,912450075,'',,,-6.43,7.52,0.98,,0.0,0.0,0.0,1.0
1665761860006060759,,4251,,1665761860,5386114,'',,,-6.43,7.53,1.1,,0.0,0.0,0.0,1.0
1665761860112823917,,4252,,1665761860,112401962,'',,,-6.44,7.52,0.96,,0.0,0.0,0.0,1.0
1665761860213173590,,4253,,1665761860,212522983,'',,,-6.45,7.52,0.91,,0.0,0.0,0.0,1.0
1665761860313051907,,4254,,1665761860,312273979,'',,,-6.45,7.51,1.18,,0.0,0.0,0.0,1.0
1665761860412969601,,4255,,1665761860,412395000,'',,,-6.45,7.51,1.02,,0.0,0.0,0.0,1.0
1665761860512967941,,4256,,1665761860,512557029,'',,,-6.44,7.51,0.88,,0.0,0.0,0.0,1.0
1665761860612544158,,4257,,1665761860,612190008,'',,,-6.43,7.51,1.09,,0.0,0.0,0.0,1.0
1665761860712960149,,4258,,1665761860,712357997,'',,,-6.44,7.5,0.98,,0.0,0.0,0.0,1.0
1665761860812863988,,4259,,1665761860,812218904,'',,,-6.42,7.53,0.9,,0.0,0.0,0.0,1.0
1665761860912487923,,4260,,1665761860,912060022,'',,,-6.42,7.52,1.01,,0.0,0.0,0.0,1.0
1665761861014138413,,4261,,1665761861,12603044,'',,,-6.43,7.52,0.96,,0.0,0.0,0.0,1.0
1665761861112904090,,4262,,1665761861,112395048,'',,,-6.43,7.52,1.12,,0.0,0.0,0.0,1.0
1665761861212606722,,4263,,1665761861,212327003,'',,,-6.43,7.51,0.96,,0.0,0.0,0.0,1.0
1665761861313166370,,4264,,1665761861,312438964,'',,,-6.43,7.52,0.84,,0.0,0.0,0.0,1.0
1665761861412704050,,4265,,1665761861,412113904,'',,,-6.43,7.51,1.01,,0.0,0.0,0.0,1.0
1665761861512732033,,4266,,1665761861,512312889,'',,,-6.44,7.51,1.14,,0.0,0.0,0.0,1.0
1665761861613318607,,4267,,1665761861,612498044,'',,,-6.44,7.51,1.05,,0.0,0.0,0.0,1.0
1665761861712928625,,4268,,1665761861,712315082,'',,,-6.43,7.51,1.23,,0.0,0.0,0.0,1.0
1665761861812925973,,4269,,1665761861,812484025,'',,,-6.42,7.52,1.04,,0.0,0.0,0.0,1.0
1665761861912714456,,4270,,1665761861,912297964,'',,,-6.42,7.53,0.97,,0.0,0.0,0.0,1.0
1665761862012643767,,4271,,1665761862,12082099,'',,,-6.41,7.52,1.07,,0.0,0.0,0.0,1.0
1665761862113395224,,4272,,1665761862,112549066,'',,,-6.41,7.51,0.92,,0.0,0.0,0.0,1.0
1665761862212819392,,4273,,1665761862,212347984,'',,,-6.41,7.51,0.83,,0.0,0.0,0.0,1.0
