rosbagTimestamp,header,seq,stamp,secs,nsecs,frame_id,pose,position,x,y,z,orientation,x,y,z,w
1665761896612331798,,4557,,1665761896,611943960,'',,,-7.87,6.6,1.21,,0.0,0.0,0.0,1.0
1665761896714289439,,4558,,1665761896,712881088,'',,,-7.88,6.61,1.22,,0.0,0.0,0.0,1.0
1665761896813230144,,4559,,1665761896,812334060,'',,,-7.87,6.59,1.14,,0.0,0.0,0.0,1.0
1665761896912564056,,4560,,1665761896,912075042,'',,,-7.88,6.6,1.28,,0.0,0.0,0.0,1.0
1665761897012691631,,4561,,1665761897,11998891,'',,,-7.9,6.62,1.24,,0.0,0.0,0.0,1.0
1665761897113167963,,4562,,1665761897,112629890,'',,,-7.88,6.62,1.09,,0.0,0.0,0.0,1.0
1665761897213339677,,4563,,1665761897,212197065,'',,,-7.88,6.62,1.16,,0.0,0.0,0.0,1.0
1665761897314136064,,4564,,1665761897,312503099,'',,,-7.88,6.62,1.28,,0.0,0.0,0.0,1.0
1665761897413323739,,4565,,1665761897,412569046,'',,,-7.88,6.63,1.38,,0.0,0.0,0.0,1.0
1665761897512790037,,4566,,1665761897,512362957,'',,,-7.86,6.61,1.26,,0.0,0.0,0.0,1.0
1665761897612526927,,4567,,1665761897,611879110,'',,,-7.86,6.6,1.29,,0.0,0.0,0.0,1.0
1665761897712714031,,4568,,1665761897,712135076,'',,,-7.86,6.59,1.33,,0.0,0.0,0.0,1.0
1665761897813023544,,4569,,1665761897,812345027,'',,,-7.86,6.56,1.22,,0.0,0.0,0.0,1.0
1665761897912396671,,4570,,1665761897,911961078,'',,,-7.87,6.58,1.23,,0.0,0.0,0.0,1.0
1665761898013255098,,4571,,1665761898,12284040,'',,,-7.88,6.59,1.26,,0.0,0.0,0.0,1.0
1665761898113716748,,4572,,1665761898,112351894,'',,,-7.86,6.57,1.18,,0.0,0.0,0.0,1.0
1665761898212725428,,4573,,1665761898,212239027,'',,,-7.86,6.56,1.1,,0.0,0.0,0.0,1.0
1665761898312786608,,4574,,1665761898,312267065,'',,,-7.87,6.59,1.15,,0.0,0.0,0.0,1.0
1665761898414670207,,4575,,1665761898,412542104,'',,,-7.87,6.56,1.1,,0.0,0.0,0.0,1.0
1665761898512659242,,4576,,1665761898,512132883,'',,,-7.87,6.54,1.08,,0.0,0.0,0.0,1.0
1665761898612792664,,4577,,1665761898,612375020,'',,,-7.87,6.54,1.07,,0.0,0.0,0.0,1.0
1665761898712575133,,4578,,1665761898,711997032,'',,,-7.87,6.57,1.18,,0.0,0.0,0.0,1.0
1665761898812621538,,4579,,1665761898,811892032,'',,,-7.88,6.59,1.2,,0.0,0.0,0.0,1.0
1665761898912598973,,4580,,1665761898,912151098,'',,,-7.87,6.57,1.35,,0.0,0.0,0.0,1.0
1665761899012518830,,4581,,1665761899,11895895,'',,,-7.88,6.58,1.32,,0.0,0.0,0.0,1.0
1665761899112700999,,4582,,1665761899,111962080,'',,,-7.88,6.6,1.43,,0.0,0.0,0.0,1.0
1665761899213148665,,4583,,1665761899,212644100,'',,,-7.86,6.58,1.39,,0.0,0.0,0.0,1.0
1665761899312581999,,4584,,1665761899,312041997,'',,,-7.87,6.6,1.33,,0.0,0.0,0.0,1.0
1665761899412178266,,4585,,1665761899,411851882,'',,,-7.88,6.61,1.3,,0.0,0.0,0.0,1.0
1665761899514664413,,4586,,1665761899,513720989,'',,,-7.88,6.62,1.31,,0.0,0.0,0.0,1.0
1665761899613224823,,4587,,1665761899,612628936,'',,,-7.91,6.6,1.15,,0.0,0.0,0.0,1.0
1665761899712863602,,4588,,1665761899,712450027,'',,,-7.9,6.6,1.0,,0.0,0.0,0.0,1.0
1665761899813283343,,4589,,1665761899,812596082,'',,,-7.9,6.61,1.11,,0.0,0.0,0.0,1.0
1665761899913079168,,4590,,1665761899,912209987,'',,,-7.88,6.58,1.04,,0.0,0.0,0.0,1.0
1665761900013104241,,4591,,1665761900,12214899,'',,,-7.87,6.58,1.09,,0.0,0.0,0.0,1.0
1665761900113301008,,4592,,1665761900,112519979,'',,,-7.88,6.6,1.27,,0.0,0.0,0.0,1.0
1665761900212506946,,4593,,1665761900,212177038,'',,,-7.86,6.59,1.19,,0.0,0.0,0.0,1.0
1665761900312592111,,4594,,1665761900,311961889,'',,,-7.87,6.6,1.24,,0.0,0.0,0.0,1.0
1665761900412970345,,4595,,1665761900,412287950,'',,,-7.87,6.6,1.28,,0.0,0.0,0.0,1.0
1665761900512246846,,4596,,1665761900,511913061,'',,,-7.88,6.59,1.27,,0.0,0.0,0.0,1.0
1665761900613376126,,4597,,1665761900,612247943,'',,,-7.88,6.56,1.14,,0.0,0.0,0.0,1.0
1665761900712850539,,4598,,1665761900,712322950,'',,,-7.87,6.55,1.12,,0.0,0.0,0.0,1.0
1665761900812174483,,4599,,1665761900,811853885,'',,,-7.87,6.58,1.16,,0.0,0.0,0.0,1.0
1665761900912430876,,4600,,1665761900,911844968,'',,,-7.87,6.59,1.24,,0.0,0.0,0.0,1.0
1665761901012151833,,4601,,1665761901,11806964,'',,,-7.88,6.6,1.24,,0.0,0.0,0.0,1.0
1665761901113173001,,4602,,1665761901,112588882,'',,,-7.87,6.58,1.15,,0.0,0.0,0.0,1.0
1665761901212602598,,4603,,1665761901,212101936,'',,,-7.85,6.57,1.08,,0.0,0.0,0.0,1.0
1665761901313212179,,4604,,1665761901,312180995,'',,,-7.85,6.55,1.04,,0.0,0.0,0.0,1.0
1665761901413047506,,4605,,1665761901,412700891,'',,,-7.84,6.55,1.02,,0.0,0.0,0.0,1.0
1665761901512615605,,4606,,1665761901,511976957,'',,,-7.85,6.56,1.17,,0.0,0.0,0.0,1.0
1665761901612519753,,4607,,1665761901,612087965,'',,,-7.85,6.55,1.23,,0.0,0.0,0.0,1.0
1665761901713480527,,4608,,1665761901,712270975,'',,,-7.85,6.57,1.35,,0.0,0.0,0.0,1.0
1665761901813097153,,4609,,1665761901,812485933,'',,,-7.86,6.59,1.17,,0.0,0.0,0.0,1.0
1665761901912657696,,4610,,1665761901,912293910,'',,,-7.86,6.61,1.24,,0.0,0.0,0.0,1.0
1665761902013731292,,4611,,1665761902,12267112,'',,,-7.86,6.61,1.34,,0.0,0.0,0.0,1.0
1665761902112982942,,4612,,1665761902,112454891,'',,,-7.83,6.58,1.3,,0.0,0.0,0.0,1.0
1665761902212921016,,4613,,1665761902,212284088,'',,,-7.84,6.6,1.28,,0.0,0.0,0.0,1.0
1665761902312856540,,4614,,1665761902,312459945,'',,,-7.83,6.57,1.26,,0.0,0.0,0.0,1.0
1665761902412629833,,4615,,1665761902,412142038,'',,,-7.84,6.54,1.15,,0.0,0.0,0.0,1.0
1665761902512901257,,4616,,1665761902,512322902,'',,,-7.84,6.56,1.25,,0.0,0.0,0.0,1.0
1665761902612633531,,4617,,1665761902,612009048,'',,,-7.85,6.57,1.31,,0.0,0.0,0.0,1.0
1665761902705688629,,4618,,1665761902,705414056,'',,,-7.87,6.54,1.14,,0.0,0.0,0.0,1.0
1665761902813050424,,4619,,1665761902,812345981,'',,,-7.86,6.53,1.05,,0.0,0.0,0.0,1.0
1665761902912685493,,4620,,1665761902,912091016,'',,,-7.87,6.56,1.1,,0.0,0.0,0.0,1.0
1665761903013408791,,4621,,1665761903,12480020,'',,,-7.88,6.58,1.15,,0.0,0.0,0.0,1.0
1665761903112688696,,4622,,1665761903,112193107,'',,,-7.88,6.6,1.25,,0.0,0.0,0.0,1.0
1665761903213218169,,4623,,1665761903,212291002,'',,,-7.88,6.58,1.36,,0.0,0.0,0.0,1.0
1665761903312967756,,4624,,1665761903,312259912,'',,,-7.88,6.6,1.31,,0.0,0.0,0.0,1.0
1665761903412707055,,4625,,1665761903,412266016,'',,,-7.86,6.57,1.19,,0.0,0.0,0.0,1.0
1665761903512741220,,4626,,1665761903,512104034,'',,,-7.87,6.58,1.28,,0.0,0.0,0.0,1.0
1665761903612555758,,4627,,1665761903,611898899,'',,,-7.87,6.57,1.34,,0.0,0.0,0.0,1.0
1665761903712939397,,4628,,1665761903,711937904,'',,,-7.87,6.6,1.42,,0.0,0.0,0.0,1.0
1665761903812771982,,4629,,1665761903,812169075,'',,,-7.87,6.59,1.52,,0.0,0.0,0.0,1.0
1665761903913877352,,4630,,1665761903,912401914,'',,,-7.87,6.6,1.46,,0.0,0.0,0.0,1.0
1665761904013219239,,4631,,1665761904,12348890,'',,,-7.86,6.58,1.3,,0.0,0.0,0.0,1.0
1665761904112765743,,4632,,1665761904,112193107,'',,,-7.86,6.59,1.31,,0.0,0.0,0.0,1.0
1665761904211947151,,4633,,1665761904,211606025,'',,,-7.87,6.6,1.34,,0.0,0.0,0.0,1.0
1665761904313652195,,4634,,1665761904,312294960,'',,,-7.88,6.6,1.38,,0.0,0.0,0.0,1.0
1665761904412713623,,4635,,1665761904,412178039,'',,,-7.87,6.62,1.45,,0.0,0.0,0.0,1.0
1665761904512230866,,4636,,1665761904,511684894,'',,,-7.88,6.62,1.38,,0.0,0.0,0.0,1.0
1665761904613915291,,4637,,1665761904,612592935,'',,,-7.87,6.62,1.43,,0.0,0.0,0.0,1.0
1665761904713028985,,4638,,1665761904,712424993,'',,,-7.86,6.59,1.27,,0.0,0.0,0.0,1.0
1665761904812691485,,4639,,1665761904,812175989,'',,,-7.87,6.6,1.33,,0.0,0.0,0.0,1.0
1665761904913035155,,4640,,1665761904,912535905,'',,,-7.85,6.58,1.28,,0.0,0.0,0.0,1.0
1665761905012575245,,4641,,1665761905,11995077,'',,,-7.86,6.59,1.38,,0.0,0.0,0.0,1.0
1665761905112691731,,4642,,1665761905,111959934,'',,,-7.85,6.58,1.35,,0.0,0.0,0.0,1.0
1665761905212255637,,4643,,1665761905,211796998,'',,,-7.87,6.6,1.25,,0.0,0.0,0.0,1.0
1665761905312614760,,4644,,1665761905,312092065,'',,,-7.87,6.6,1.27,,0.0,0.0,0.0,1.0
1665761905412410505,,4645,,1665761905,411789894,'',,,-7.88,6.61,1.36,,0.0,0.0,0.0,1.0
1665761905512431622,,4646,,1665761905,511990070,'',,,-7.89,6.61,1.34,,0.0,0.0,0.0,1.0
1665761905612450581,,4647,,1665761905,611984968,'',,,-7.88,6.6,1.29,,0.0,0.0,0.0,1.0
1665761905712555432,,4648,,1665761905,712065935,'',,,-7.87,6.57,1.17,,0.0,0.0,0.0,1.0
1665761905806157283,,4649,,1665761905,805552959,'',,,-7.86,6.59,1.03,,0.0,0.0,0.0,1.0
1665761905912226820,,4650,,1665761905,911818981,'',,,-7.87,6.62,1.1,,0.0,0.0,0.0,1.0
1665761906012817413,,4651,,1665761906,12406110,'',,,-7.85,6.6,1.1,,0.0,0.0,0.0,1.0
1665761906113169427,,4652,,1665761906,112440109,'',,,-7.87,6.61,1.15,,0.0,0.0,0.0,1.0
1665761906212656736,,4653,,1665761906,211864948,'',,,-7.87,6.61,1.29,,0.0,0.0,0.0,1.0
1665761906312522414,,4654,,1665761906,312064886,'',,,-7.88,6.61,1.13,,0.0,0.0,0.0,1.0
1665761906413666166,,4655,,1665761906,412343025,'',,,-7.87,6.58,1.06,,0.0,0.0,0.0,1.0
1665761906513362774,,4656,,1665761906,512492895,'',,,-7.88,6.61,0.96,,0.0,0.0,0.0,1.0
1665761906613292104,,4657,,1665761906,612215042,'',,,-7.89,6.62,0.88,,0.0,0.0,0.0,1.0
1665761906712712332,,4658,,1665761906,712143898,'',,,-7.89,6.62,1.07,,0.0,0.0,0.0,1.0
1665761906813498762,,4659,,1665761906,812535047,'',,,-7.89,6.63,1.18,,0.0,0.0,0.0,1.0
1665761906913354186,,4660,,1665761906,912844896,'',,,-7.89,6.64,1.04,,0.0,0.0,0.0,1.0
1665761907012529422,,4661,,1665761907,12123107,'',,,-7.89,6.65,1.16,,0.0,0.0,0.0,1.0
1665761907112385821,,4662,,1665761907,112015008,'',,,-7.88,6.62,1.33,,0.0,0.0,0.0,1.0
1665761907213565396,,4663,,1665761907,212263107,'',,,-7.86,6.59,1.2,,0.0,0.0,0.0,1.0
1665761907312640918,,4664,,1665761907,312026977,'',,,-7.85,6.58,1.38,,0.0,0.0,0.0,1.0
1665761907413038367,,4665,,1665761907,412352085,'',,,-7.87,6.6,1.44,,0.0,0.0,0.0,1.0
1665761907512716047,,4666,,1665761907,512074947,'',,,-7.87,6.6,1.44,,0.0,0.0,0.0,1.0
1665761907612032240,,4667,,1665761907,611794948,'',,,-7.87,6.62,1.51,,0.0,0.0,0.0,1.0
1665761907713636588,,4668,,1665761907,712718009,'',,,-7.87,6.59,1.33,,0.0,0.0,0.0,1.0
1665761907812266884,,4669,,1665761907,811841011,'',,,-7.87,6.6,1.34,,0.0,0.0,0.0,1.0
1665761907912868873,,4670,,1665761907,912388086,'',,,-7.86,6.58,1.2,,0.0,0.0,0.0,1.0
1665761908012228600,,4671,,1665761908,11862993,'',,,-7.86,6.59,1.29,,0.0,0.0,0.0,1.0
1665761908105874085,,4672,,1665761908,105324983,'',,,-7.86,6.6,1.4,,0.0,0.0,0.0,1.0
1665761908212968848,,4673,,1665761908,212054014,'',,,-7.87,6.61,1.44,,0.0,0.0,0.0,1.0
1665761908312848521,,4674,,1665761908,312094926,'',,,-7.88,6.62,1.54,,0.0,0.0,0.0,1.0
1665761908412948671,,4675,,1665761908,412164926,'',,,-7.87,6.6,1.41,,0.0,0.0,0.0,1.0
1665761908512469387,,4676,,1665761908,511980056,'',,,-7.87,6.61,1.39,,0.0,0.0,0.0,1.0
1665761908612704991,,4677,,1665761908,612066030,'',,,-7.88,6.61,1.39,,0.0,0.0,0.0,1.0
1665761908712780723,,4678,,1665761908,712178945,'',,,-7.88,6.59,1.32,,0.0,0.0,0.0,1.0
1665761908813060158,,4679,,1665761908,812397956,'',,,-7.86,6.57,1.22,,0.0,0.0,0.0,1.0
1665761908912774462,,4680,,1665761908,912348985,'',,,-7.86,6.54,1.17,,0.0,0.0,0.0,1.0
1665761909012731304,,4681,,1665761909,12124061,'',,,-7.85,6.53,1.07,,0.0,0.0,0.0,1.0
1665761909112565585,,4682,,1665761909,112102985,'',,,-7.85,6.52,1.06,,0.0,0.0,0.0,1.0
1665761909212395417,,4683,,1665761909,211992025,'',,,-7.87,6.54,1.07,,0.0,0.0,0.0,1.0
1665761909312075310,,4684,,1665761909,311755895,'',,,-7.87,6.56,1.11,,0.0,0.0,0.0,1.0
1665761909413191052,,4685,,1665761909,412034034,'',,,-7.88,6.58,1.25,,0.0,0.0,0.0,1.0
1665761909512197263,,4686,,1665761909,511871099,'',,,-7.89,6.59,1.24,,0.0,0.0,0.0,1.0
1665761909612326661,,4687,,1665761909,611814022,'',,,-7.9,6.59,1.23,,0.0,0.0,0.0,1.0
1665761909712684226,,4688,,1665761909,712208986,'',,,-7.9,6.61,1.23,,0.0,0.0,0.0,1.0
1665761909812817854,,4689,,1665761909,812251091,'',,,-7.9,6.61,1.19,,0.0,0.0,0.0,1.0
1665761909912214862,,4690,,1665761909,911834955,'',,,-7.89,6.61,1.3,,0.0,0.0,0.0,1.0
1665761910012695888,,4691,,1665761910,12052059,'',,,-7.89,6.6,1.33,,0.0,0.0,0.0,1.0
1665761910113099932,,4692,,1665761910,112361907,'',,,-7.89,6.61,1.36,,0.0,0.0,0.0,1.0
1665761910213526886,,4693,,1665761910,212189912,'',,,-7.89,6.62,1.38,,0.0,0.0,0.0,1.0
1665761910312606854,,4694,,1665761910,312017917,'',,,-7.89,6.62,1.37,,0.0,0.0,0.0,1.0
1665761910412565165,,4695,,1665761910,411986112,'',,,-7.89,6.61,1.26,,0.0,0.0,0.0,1.0
1665761910512144057,,4696,,1665761910,511882066,'',,,-7.89,6.63,1.39,,0.0,0.0,0.0,1.0
1665761910612730179,,4697,,1665761910,612087965,'',,,-7.88,6.62,1.5,,0.0,0.0,0.0,1.0
1665761910712794281,,4698,,1665761910,712248086,'',,,-7.86,6.6,1.33,,0.0,0.0,0.0,1.0
1665761910812796145,,4699,,1665761910,812227010,'',,,-7.87,6.58,1.19,,0.0,0.0,0.0,1.0
1665761910912164545,,4700,,1665761910,911907911,'',,,-7.88,6.59,1.25,,0.0,0.0,0.0,1.0
1665761911012494638,,4701,,1665761911,12079954,'',,,-7.88,6.6,1.3,,0.0,0.0,0.0,1.0
1665761911112062725,,4702,,1665761911,111728906,'',,,-7.88,6.6,1.3,,0.0,0.0,0.0,1.0
1665761911212501837,,4703,,1665761911,211998939,'',,,-7.88,6.62,1.38,,0.0,0.0,0.0,1.0
1665761911312528667,,4704,,1665761911,312171936,'',,,-7.86,6.6,1.28,,0.0,0.0,0.0,1.0
1665761911412137905,,4705,,1665761911,411746025,'',,,-7.86,6.59,1.37,,0.0,0.0,0.0,1.0
1665761911512849398,,4706,,1665761911,512140035,'',,,-7.87,6.6,1.31,,0.0,0.0,0.0,1.0
1665761911613172514,,4707,,1665761911,612474918,'',,,-7.89,6.6,1.39,,0.0,0.0,0.0,1.0
1665761911712174804,,4708,,1665761911,711826086,'',,,-7.88,6.61,1.38,,0.0,0.0,0.0,1.0
1665761911812512576,,4709,,1665761911,812057971,'',,,-7.88,6.61,1.42,,0.0,0.0,0.0,1.0
1665761911912300826,,4710,,1665761911,911933898,'',,,-7.89,6.62,1.4,,0.0,0.0,0.0,1.0
1665761912012583694,,4711,,1665761912,11874914,'',,,-7.89,6.61,1.41,,0.0,0.0,0.0,1.0
1665761912112301486,,4712,,1665761912,111951112,'',,,-7.89,6.6,1.39,,0.0,0.0,0.0,1.0
1665761912212643266,,4713,,1665761912,212021112,'',,,-7.89,6.6,1.36,,0.0,0.0,0.0,1.0
1665761912312414188,,4714,,1665761912,311870098,'',,,-7.89,6.6,1.37,,0.0,0.0,0.0,1.0
1665761912412638015,,4715,,1665761912,412043094,'',,,-7.89,6.6,1.35,,0.0,0.0,0.0,1.0
1665761912512847744,,4716,,1665761912,512353897,'',,,-7.89,6.61,1.41,,0.0,0.0,0.0,1.0
1665761912612444492,,4717,,1665761912,611778020,'',,,-7.89,6.61,1.34,,0.0,0.0,0.0,1.0
1665761912712658132,,4718,,1665761912,712132930,'',,,-7.89,6.6,1.3,,0.0,0.0,0.0,1.0
1665761912812934867,,4719,,1665761912,812308073,'',,,-7.89,6.62,1.36,,0.0,0.0,0.0,1.0
1665761912912436892,,4720,,1665761912,911892890,'',,,-7.89,6.62,1.4,,0.0,0.0,0.0,1.0
1665761913013137912,,4721,,1665761913,12572050,'',,,-7.87,6.59,1.3,,0.0,0.0,0.0,1.0
1665761913112443738,,4722,,1665761913,111958026,'',,,-7.88,6.59,1.25,,0.0,0.0,0.0,1.0
1665761913212598662,,4723,,1665761913,212152004,'',,,-7.87,6.57,1.15,,0.0,0.0,0.0,1.0
1665761913312862474,,4724,,1665761913,312400102,'',,,-7.87,6.59,1.34,,0.0,0.0,0.0,1.0
1665761913413156058,,4725,,1665761913,411957025,'',,,-7.86,6.61,1.46,,0.0,0.0,0.0,1.0
1665761913513066889,,4726,,1665761913,512223005,'',,,-7.86,6.59,1.29,,0.0,0.0,0.0,1.0
1665761913612765576,,4727,,1665761913,612267971,'',,,-7.85,6.57,1.19,,0.0,0.0,0.0,1.0
1665761913712539195,,4728,,1665761913,711981058,'',,,-7.86,6.59,1.21,,0.0,0.0,0.0,1.0
1665761913812257699,,4729,,1665761913,811839103,'',,,-7.87,6.6,1.24,,0.0,0.0,0.0,1.0
1665761913912917630,,4730,,1665761913,912338972,'',,,-7.87,6.61,1.29,,0.0,0.0,0.0,1.0
1665761914013256134,,4731,,1665761914,12012958,'',,,-7.88,6.62,1.39,,0.0,0.0,0.0,1.0
1665761914112689238,,4732,,1665761914,112098932,'',,,-7.89,6.62,1.38,,0.0,0.0,0.0,1.0
1665761914212273343,,4733,,1665761914,211837053,'',,,-7.89,6.62,1.29,,0.0,0.0,0.0,1.0
1665761914312910181,,4734,,1665761914,312338113,'',,,-7.87,6.59,1.19,,0.0,0.0,0.0,1.0
1665761914412547977,,4735,,1665761914,412100076,'',,,-7.87,6.61,1.24,,0.0,0.0,0.0,1.0
1665761914512617444,,4736,,1665761914,511984109,'',,,-7.87,6.61,1.37,,0.0,0.0,0.0,1.0
1665761914613131706,,4737,,1665761914,612551927,'',,,-7.87,6.58,1.33,,0.0,0.0,0.0,1.0
1665761914712627096,,4738,,1665761914,712100982,'',,,-7.88,6.59,1.48,,0.0,0.0,0.0,1.0
1665761914814126765,,4739,,1665761914,813044071,'',,,-7.87,6.58,1.4,,0.0,0.0,0.0,1.0
1665761914913633140,,4740,,1665761914,912946939,'',,,-7.87,6.59,1.35,,0.0,0.0,0.0,1.0
1665761915012635861,,4741,,1665761915,12134075,'',,,-7.87,6.59,1.42,,0.0,0.0,0.0,1.0
1665761915112819392,,4742,,1665761915,112265110,'',,,-7.88,6.59,1.38,,0.0,0.0,0.0,1.0
1665761915213025870,,4743,,1665761915,212440967,'',,,-7.87,6.57,1.27,,0.0,0.0,0.0,1.0
1665761915312289996,,4744,,1665761915,311790943,'',,,-7.87,6.57,1.35,,0.0,0.0,0.0,1.0
1665761915412695925,,4745,,1665761915,412269115,'',,,-7.87,6.59,1.35,,0.0,0.0,0.0,1.0
1665761915513019551,,4746,,1665761915,512347936,'',,,-7.87,6.6,1.42,,0.0,0.0,0.0,1.0
1665761915612398215,,4747,,1665761915,611888885,'',,,-7.87,6.6,1.42,,0.0,0.0,0.0,1.0
1665761915712952056,,4748,,1665761915,712378978,'',,,-7.87,6.57,1.27,,0.0,0.0,0.0,1.0
1665761915812265530,,4749,,1665761915,811899900,'',,,-7.88,6.58,1.21,,0.0,0.0,0.0,1.0
1665761915912733269,,4750,,1665761915,912298917,'',,,-7.87,6.57,1.15,,0.0,0.0,0.0,1.0
1665761916012748739,,4751,,1665761916,12077093,'',,,-7.88,6.58,1.32,,0.0,0.0,0.0,1.0
1665761916112739661,,4752,,1665761916,112067937,'',,,-7.87,6.59,1.33,,0.0,0.0,0.0,1.0
1665761916212609822,,4753,,1665761916,212100028,'',,,-7.86,6.57,1.19,,0.0,0.0,0.0,1.0
1665761916312764315,,4754,,1665761916,312228918,'',,,-7.87,6.56,1.19,,0.0,0.0,0.0,1.0
1665761916413009149,,4755,,1665761916,411973953,'',,,-7.87,6.56,1.21,,0.0,0.0,0.0,1.0
1665761916513280823,,4756,,1665761916,512329101,'',,,-7.85,6.56,1.14,,0.0,0.0,0.0,1.0
1665761916612577480,,4757,,1665761916,612015008,'',,,-7.86,6.59,1.22,,0.0,0.0,0.0,1.0
1665761916712619468,,4758,,1665761916,712235927,'',,,-7.86,6.58,1.11,,0.0,0.0,0.0,1.0
1665761916812422107,,4759,,1665761916,811955928,'',,,-7.86,6.59,1.25,,0.0,0.0,0.0,1.0
1665761916912372342,,4760,,1665761916,911952972,'',,,-7.87,6.61,1.29,,0.0,0.0,0.0,1.0
1665761917012622795,,4761,,1665761917,12062072,'',,,-7.88,6.62,1.37,,0.0,0.0,0.0,1.0
1665761917112828563,,4762,,1665761917,112329959,'',,,-7.86,6.59,1.24,,0.0,0.0,0.0,1.0
1665761917212839244,,4763,,1665761917,212265014,'',,,-7.87,6.6,1.26,,0.0,0.0,0.0,1.0
1665761917312502155,,4764,,1665761917,311980009,'',,,-7.88,6.59,1.28,,0.0,0.0,0.0,1.0
1665761917412620082,,4765,,1665761917,411958932,'',,,-7.87,6.58,1.4,,0.0,0.0,0.0,1.0
1665761917513077656,,4766,,1665761917,512341976,'',,,-7.85,6.56,1.25,,0.0,0.0,0.0,1.0
1665761917613603289,,4767,,1665761917,612663030,'',,,-7.85,6.6,1.09,,0.0,0.0,0.0,1.0
1665761917712500859,,4768,,1665761917,712119102,'',,,-7.85,6.59,1.03,,0.0,0.0,0.0,1.0
1665761917812897579,,4769,,1665761917,812316894,'',,,-7.86,6.65,1.19,,0.0,0.0,0.0,1.0
1665761917912840301,,4770,,1665761917,912208080,'',,,-7.85,6.69,1.1,,0.0,0.0,0.0,1.0
1665761918012616626,,4771,,1665761918,12120008,'',,,-7.84,6.73,1.05,,0.0,0.0,0.0,1.0
1665761918112892048,,4772,,1665761918,112202882,'',,,-7.85,6.84,1.1,,0.0,0.0,0.0,1.0
1665761918212441511,,4773,,1665761918,211982965,'',,,-7.86,6.95,1.27,,0.0,0.0,0.0,1.0
1665761918312587164,,4774,,1665761918,311911106,'',,,-7.86,7.06,1.32,,0.0,0.0,0.0,1.0
1665761918412990576,,4775,,1665761918,412363052,'',,,-7.86,7.21,1.15,,0.0,0.0,0.0,1.0
1665761918513271000,,4776,,1665761918,512563943,'',,,-7.87,7.39,1.09,,0.0,0.0,0.0,1.0
1665761918612424392,,4777,,1665761918,611845016,'',,,-7.87,7.56,1.2,,0.0,0.0,0.0,1.0
1665761918713334414,,4778,,1665761918,712644100,'',,,-7.86,7.74,1.13,,0.0,0.0,0.0,1.0
1665761918813843465,,4779,,1665761918,813113927,'',,,-7.87,7.97,1.06,,0.0,0.0,0.0,1.0
1665761918912759790,,4780,,1665761918,912370920,'',,,-7.86,8.22,1.03,,0.0,0.0,0.0,1.0
1665761919014352719,,4781,,1665761919,13031959,'',,,-7.87,8.51,1.02,,0.0,0.0,0.0,1.0
1665761919113443452,,4782,,1665761919,112812995,'',,,-7.86,8.81,0.96,,0.0,0.0,0.0,1.0
1665761919212904192,,4783,,1665761919,212415933,'',,,-7.87,9.19,1.0,,0.0,0.0,0.0,1.0
1665761919314019847,,4784,,1665761919,312877893,'',,,-7.86,9.56,1.08,,0.0,0.0,0.0,1.0
1665761919412153369,,4785,,1665761919,411695003,'',,,-7.87,9.98,1.03,,0.0,0.0,0.0,1.0
1665761919513627987,,4786,,1665761919,512450933,'',,,-7.86,10.4,1.05,,0.0,0.0,0.0,1.0
1665761919613517925,,4787,,1665761919,613116979,'',,,-7.86,10.88,1.03,,0.0,0.0,0.0,1.0
1665761919713044029,,4788,,1665761919,712507963,'',,,-7.86,11.36,1.07,,0.0,0.0,0.0,1.0
1665761919813993830,,4789,,1665761919,813302040,'',,,-7.85,11.87,1.07,,0.0,0.0,0.0,1.0
1665761919913470169,,4790,,1665761919,912910938,'',,,-7.86,12.42,1.03,,0.0,0.0,0.0,1.0
1665761920013667308,,4791,,1665761920,13171911,'',,,-7.87,13.0,1.04,,0.0,0.0,0.0,1.0
1665761920114351576,,4792,,1665761920,112572908,'',,,-7.87,13.61,1.04,,0.0,0.0,0.0,1.0
1665761920212727661,,4793,,1665761920,212323904,'',,,-7.84,14.23,1.0,,0.0,0.0,0.0,1.0
1665761920313086949,,4794,,1665761920,312591075,'',,,-7.83,14.88,0.97,,0.0,0.0,0.0,1.0
1665761920414099757,,4795,,1665761920,413568973,'',,,-7.79,15.57,0.94,,0.0,0.0,0.0,1.0
1665761920514744601,,4796,,1665761920,513552904,'',,,-7.75,16.28,0.94,,0.0,0.0,0.0,1.0
1665761920613267921,,4797,,1665761920,612870931,'',,,-7.75,17.0,0.97,,0.0,0.0,0.0,1.0
1665761920713705979,,4798,,1665761920,713148117,'',,,-7.73,17.73,1.07,,0.0,0.0,0.0,1.0
1665761920814223359,,4799,,1665761920,813710927,'',,,-7.72,18.49,1.24,,0.0,0.0,0.0,1.0
1665761920913972474,,4800,,1665761920,913341999,'',,,-7.73,19.26,1.26,,0.0,0.0,0.0,1.0
1665761921013610221,,4801,,1665761921,13160943,'',,,-7.73,20.06,1.27,,0.0,0.0,0.0,1.0
1665761921113959801,,4802,,1665761921,113353013,'',,,-7.71,20.89,1.33,,0.0,0.0,0.0,1.0
1665761921214160809,,4803,,1665761921,213706016,'',,,-7.72,21.71,1.17,,0.0,0.0,0.0,1.0
1665761921313486034,,4804,,1665761921,313087940,'',,,-7.72,22.53,1.3,,0.0,0.0,0.0,1.0
1665761921414042823,,4805,,1665761921,413388013,'',,,-7.71,23.41,1.27,,0.0,0.0,0.0,1.0
1665761921514177483,,4806,,1665761921,513647079,'',,,-7.68,24.32,1.31,,0.0,0.0,0.0,1.0
1665761921613887964,,4807,,1665761921,613481044,'',,,-7.65,25.23,1.27,,0.0,0.0,0.0,1.0
1665761921714832749,,4808,,1665761921,714216947,'',,,-7.62,26.08,1.21,,0.0,0.0,0.0,1.0
1665761921814310386,,4809,,1665761921,813724040,'',,,-7.6,26.95,1.36,,0.0,0.0,0.0,1.0
1665761921913189689,,4810,,1665761921,912748098,'',,,-7.67,27.9,1.19,,0.0,0.0,0.0,1.0
1665761922013916295,,4811,,1665761922,13209104,'',,,-7.67,28.85,1.1,,0.0,0.0,0.0,1.0
1665761922114182773,,4812,,1665761922,113552093,'',,,-7.65,29.8,1.22,,0.0,0.0,0.0,1.0
1665761922213406064,,4813,,1665761922,212759017,'',,,-7.66,30.75,1.15,,0.0,0.0,0.0,1.0
1665761922314216291,,4814,,1665761922,313716888,'',,,-7.62,31.66,1.18,,0.0,0.0,0.0,1.0
1665761922413397311,,4815,,1665761922,412647962,'',,,-7.58,32.57,1.02,,0.0,0.0,0.0,1.0
1665761922513743450,,4816,,1665761922,512454032,'',,,-7.54,33.51,0.96,,0.0,0.0,0.0,1.0
1665761922613946933,,4817,,1665761922,613274097,'',,,-7.5,34.47,1.12,,0.0,0.0,0.0,1.0
1665761922713208786,,4818,,1665761922,712882995,'',,,-7.51,35.48,1.12,,0.0,0.0,0.0,1.0
1665761922812891790,,4819,,1665761922,812257051,'',,,-7.49,36.45,0.98,,0.0,0.0,0.0,1.0
1665761922912810779,,4820,,1665761922,912389039,'',,,-7.49,37.42,1.02,,0.0,0.0,0.0,1.0
1665761923013534802,,4821,,1665761923,12867927,'',,,-7.49,38.36,0.95,,0.0,0.0,0.0,1.0
1665761923113171824,,4822,,1665761923,112561941,'',,,-7.5,39.3,0.96,,0.0,0.0,0.0,1.0
1665761923214316245,,4823,,1665761923,212961912,'',,,-7.46,40.34,0.88,,0.0,0.0,0.0,1.0
1665761923312777958,,4824,,1665761923,312323093,'',,,-7.47,41.32,0.91,,0.0,0.0,0.0,1.0
1665761923412985009,,4825,,1665761923,412476062,'',,,-7.48,42.27,0.95,,0.0,0.0,0.0,1.0
1665761923514107680,,4826,,1665761923,512797117,'',,,-7.49,43.22,0.95,,0.0,0.0,0.0,1.0
1665761923612765229,,4827,,1665761923,612296104,'',,,-7.49,44.19,0.97,,0.0,0.0,0.0,1.0
1665761923712828590,,4828,,1665761923,712245941,'',,,-7.5,45.16,1.12,,0.0,0.0,0.0,1.0
1665761923812800076,,4829,,1665761923,812316894,'',,,-7.49,46.08,1.18,,0.0,0.0,0.0,1.0
1665761923914417295,,4830,,1665761923,913036108,'',,,-7.49,46.96,1.06,,0.0,0.0,0.0,1.0
1665761924013062792,,4831,,1665761924,12578010,'',,,-7.48,47.84,1.02,,0.0,0.0,0.0,1.0
1665761924113981355,,4832,,1665761924,112623929,'',,,-7.49,48.69,1.0,,0.0,0.0,0.0,1.0
1665761924213102848,,4833,,1665761924,212615966,'',,,-7.43,49.43,1.06,,0.0,0.0,0.0,1.0
1665761924313235971,,4834,,1665761924,312839984,'',,,-7.41,50.15,0.99,,0.0,0.0,0.0,1.0
1665761924413521464,,4835,,1665761924,412795066,'',,,-7.38,50.85,0.93,,0.0,0.0,0.0,1.0
1665761924513390585,,4836,,1665761924,512945890,'',,,-7.35,51.51,0.87,,0.0,0.0,0.0,1.0
1665761924613163350,,4837,,1665761924,612600088,'',,,-7.33,52.13,0.87,,0.0,0.0,0.0,1.0
1665761924713106097,,4838,,1665761924,712702035,'',,,-7.33,52.73,0.83,,0.0,0.0,0.0,1.0
1665761924813856856,,4839,,1665761924,813461065,'',,,-7.32,53.27,0.76,,0.0,0.0,0.0,1.0
1665761924913050046,,4840,,1665761924,912724018,'',,,-7.34,53.84,0.85,,0.0,0.0,0.0,1.0
1665761925013295451,,4841,,1665761925,12801885,'',,,-7.34,54.32,0.88,,0.0,0.0,0.0,1.0
1665761925113193687,,4842,,1665761925,112658023,'',,,-7.34,54.77,0.84,,0.0,0.0,0.0,1.0
1665761925213844759,,4843,,1665761925,213104009,'',,,-7.33,55.17,0.83,,0.0,0.0,0.0,1.0
1665761925313539879,,4844,,1665761925,313070058,'',,,-7.33,55.54,0.82,,0.0,0.0,0.0,1.0
1665761925413251168,,4845,,1665761925,412673950,'',,,-7.33,55.9,1.02,,0.0,0.0,0.0,1.0
1665761925513397918,,4846,,1665761925,512986898,'',,,-7.33,56.22,0.92,,0.0,0.0,0.0,1.0
1665761925612317927,,4847,,1665761925,611881017,'',,,-7.34,56.5,0.88,,0.0,0.0,0.0,1.0
1665761925712456899,,4848,,1665761925,712049961,'',,,-7.34,56.77,0.83,,0.0,0.0,0.0,1.0
1665761925813546174,,4849,,1665761925,813071966,'',,,-7.34,57.01,0.77,,0.0,0.0,0.0,1.0
1665761925912594878,,4850,,1665761925,912128925,'',,,-7.34,57.22,0.81,,0.0,0.0,0.0,1.0
1665761926012712546,,4851,,1665761926,12101888,'',,,-7.33,57.41,0.8,,0.0,0.0,0.0,1.0
1665761926113058479,,4852,,1665761926,112559080,'',,,-7.34,57.58,0.87,,0.0,0.0,0.0,1.0
1665761926213428362,,4853,,1665761926,212421894,'',,,-7.34,57.71,0.93,,0.0,0.0,0.0,1.0
1665761926313230433,,4854,,1665761926,312593936,'',,,-7.33,57.84,1.01,,0.0,0.0,0.0,1.0
1665761926412648689,,4855,,1665761926,412282943,'',,,-7.32,57.93,1.0,,0.0,0.0,0.0,1.0
1665761926513303658,,4856,,1665761926,512753009,'',,,-7.32,57.99,1.1,,0.0,0.0,0.0,1.0
1665761926613103720,,4857,,1665761926,612643003,'',,,-7.32,58.03,1.13,,0.0,0.0,0.0,1.0
1665761926713011006,,4858,,1665761926,712560892,'',,,-7.33,58.06,1.17,,0.0,0.0,0.0,1.0
1665761926813278468,,4859,,1665761926,812644958,'',,,-7.31,58.07,1.18,,0.0,0.0,0.0,1.0
1665761926913321318,,4860,,1665761926,912897109,'',,,-7.32,58.08,1.28,,0.0,0.0,0.0,1.0
1665761927012488431,,4861,,1665761927,12128114,'',,,-7.34,58.12,1.28,,0.0,0.0,0.0,1.0
1665761927113014060,,4862,,1665761927,112509965,'',,,-7.34,58.13,1.17,,0.0,0.0,0.0,1.0
1665761927213532502,,4863,,1665761927,212904930,'',,,-7.33,58.13,1.03,,0.0,0.0,0.0,1.0
1665761927313172600,,4864,,1665761927,312629938,'',,,-7.32,58.15,1.08,,0.0,0.0,0.0,1.0
1665761927413304250,,4865,,1665761927,412731885,'',,,-7.32,58.15,1.1,,0.0,0.0,0.0,1.0
1665761927512998061,,4866,,1665761927,512465000,'',,,-7.32,58.15,1.22,,0.0,0.0,0.0,1.0
1665761927612937835,,4867,,1665761927,612382888,'',,,-7.32,58.15,1.14,,0.0,0.0,0.0,1.0
1665761927713014687,,4868,,1665761927,712506055,'',,,-7.32,58.15,1.1,,0.0,0.0,0.0,1.0
1665761927812831445,,4869,,1665761927,812165975,'',,,-7.33,58.15,1.06,,0.0,0.0,0.0,1.0
1665761927913115048,,4870,,1665761927,912621021,'',,,-7.32,58.15,1.09,,0.0,0.0,0.0,1.0
1665761928012988732,,4871,,1665761928,12451887,'',,,-7.31,58.16,1.08,,0.0,0.0,0.0,1.0
1665761928112936368,,4872,,1665761928,112380027,'',,,-7.32,58.16,1.08,,0.0,0.0,0.0,1.0
1665761928213064199,,4873,,1665761928,212593078,'',,,-7.32,58.16,1.16,,0.0,0.0,0.0,1.0
1665761928313056462,,4874,,1665761928,312400102,'',,,-7.33,58.16,1.11,,0.0,0.0,0.0,1.0
1665761928412909386,,4875,,1665761928,412389039,'',,,-7.34,58.15,1.16,,0.0,0.0,0.0,1.0
1665761928513075589,,4876,,1665761928,512502908,'',,,-7.34,58.15,1.11,,0.0,0.0,0.0,1.0
1665761928613134826,,4877,,1665761928,612557888,'',,,-7.34,58.14,1.07,,0.0,0.0,0.0,1.0
1665761928712803426,,4878,,1665761928,712213993,'',,,-7.33,58.16,1.0,,0.0,0.0,0.0,1.0
1665761928813954878,,4879,,1665761928,812393903,'',,,-7.33,58.16,0.98,,0.0,0.0,0.0,1.0
1665761928913005444,,4880,,1665761928,912241935,'',,,-7.34,58.16,0.92,,0.0,0.0,0.0,1.0
1665761929013919556,,4881,,1665761929,12680053,'',,,-7.33,58.16,0.99,,0.0,0.0,0.0,1.0
1665761929113136904,,4882,,1665761929,112708091,'',,,-7.32,58.15,0.93,,0.0,0.0,0.0,1.0
1665761929213464936,,4883,,1665761929,212965965,'',,,-7.31,58.17,1.02,,0.0,0.0,0.0,1.0
1665761929313570086,,4884,,1665761929,312602996,'',,,-7.32,58.16,1.08,,0.0,0.0,0.0,1.0
1665761929412597120,,4885,,1665761929,412273883,'',,,-7.31,58.16,1.09,,0.0,0.0,0.0,1.0
1665761929513067014,,4886,,1665761929,512540102,'',,,-7.31,58.16,1.14,,0.0,0.0,0.0,1.0
1665761929613028887,,4887,,1665761929,612440109,'',,,-7.3,58.16,1.1,,0.0,0.0,0.0,1.0
1665761929713016642,,4888,,1665761929,712558031,'',,,-7.3,58.15,1.13,,0.0,0.0,0.0,1.0
1665761929814170358,,4889,,1665761929,812805891,'',,,-7.3,58.17,1.09,,0.0,0.0,0.0,1.0
1665761929913130253,,4890,,1665761929,912516117,'',,,-7.31,58.17,1.06,,0.0,0.0,0.0,1.0
1665761930012613111,,4891,,1665761930,12233972,'',,,-7.31,58.17,0.97,,0.0,0.0,0.0,1.0
1665761930114401219,,4892,,1665761930,112617015,'',,,-7.31,58.16,1.03,,0.0,0.0,0.0,1.0
1665761930213176403,,4893,,1665761930,212707042,'',,,-7.31,58.15,1.04,,0.0,0.0,0.0,1.0
1665761930313185881,,4894,,1665761930,312515974,'',,,-7.31,58.16,1.09,,0.0,0.0,0.0,1.0
1665761930412765374,,4895,,1665761930,412327051,'',,,-7.33,58.15,1.07,,0.0,0.0,0.0,1.0
1665761930513543366,,4896,,1665761930,512638092,'',,,-7.33,58.15,1.08,,0.0,0.0,0.0,1.0
1665761930613154230,,4897,,1665761930,612539052,'',,,-7.33,58.15,1.1,,0.0,0.0,0.0,1.0
1665761930713498802,,4898,,1665761930,712965011,'',,,-7.33,58.13,1.18,,0.0,0.0,0.0,1.0
1665761930812788770,,4899,,1665761930,812366962,'',,,-7.34,58.13,1.12,,0.0,0.0,0.0,1.0
1665761930913005867,,4900,,1665761930,912414073,'',,,-7.33,58.14,1.05,,0.0,0.0,0.0,1.0
1665761931013125852,,4901,,1665761931,12439966,'',,,-7.33,58.14,1.02,,0.0,0.0,0.0,1.0
1665761931113871531,,4902,,1665761931,112620115,'',,,-7.33,58.14,1.08,,0.0,0.0,0.0,1.0
1665761931212646289,,4903,,1665761931,212228059,'',,,-7.34,58.13,1.04,,0.0,0.0,0.0,1.0
1665761931313735266,,4904,,1665761931,313023090,'',,,-7.32,58.15,1.14,,0.0,0.0,0.0,1.0
1665761931412318898,,4905,,1665761931,411845922,'',,,-7.34,58.17,1.27,,0.0,0.0,0.0,1.0
1665761931513070940,,4906,,1665761931,512342929,'',,,-7.34,58.17,1.23,,0.0,0.0,0.0,1.0
1665761931612976461,,4907,,1665761931,612462997,'',,,-7.34,58.15,1.22,,0.0,0.0,0.0,1.0
1665761931713461405,,4908,,1665761931,712759017,'',,,-7.33,58.16,1.22,,0.0,0.0,0.0,1.0
1665761931812586936,,4909,,1665761931,812062978,'',,,-7.34,58.16,1.1,,0.0,0.0,0.0,1.0
1665761931912939743,,4910,,1665761931,912394046,'',,,-7.33,58.15,1.1,,0.0,0.0,0.0,1.0
1665761932013583084,,4911,,1665761932,12413024,'',,,-7.34,58.15,1.14,,0.0,0.0,0.0,1.0
1665761932112755604,,4912,,1665761932,112292051,'',,,-7.34,58.14,1.15,,0.0,0.0,0.0,1.0
1665761932213157492,,4913,,1665761932,212681055,'',,,-7.34,58.13,1.23,,0.0,0.0,0.0,1.0
1665761932312663239,,4914,,1665761932,312084913,'',,,-7.34,58.15,1.12,,0.0,0.0,0.0,1.0
1665761932413004779,,4915,,1665761932,412396907,'',,,-7.33,58.15,1.26,,0.0,0.0,0.0,1.0
1665761932513068649,,4916,,1665761932,512666940,'',,,-7.33,58.15,1.2,,0.0,0.0,0.0,1.0
1665761932613047578,,4917,,1665761932,612617969,'',,,-7.32,58.16,1.26,,0.0,0.0,0.0,1.0
1665761932713639236,,4918,,1665761932,712955951,'',,,-7.31,58.16,1.37,,0.0,0.0,0.0,1.0
1665761932813612681,,4919,,1665761932,812999963,'',,,-7.31,58.16,1.38,,0.0,0.0,0.0,1.0
1665761932912815547,,4920,,1665761932,912344932,'',,,-7.31,58.15,1.31,,0.0,0.0,0.0,1.0
1665761933012922451,,4921,,1665761933,12342929,'',,,-7.31,58.15,1.27,,0.0,0.0,0.0,1.0
1665761933113309201,,4922,,1665761933,112711906,'',,,-7.31,58.16,1.26,,0.0,0.0,0.0,1.0
1665761933212903412,,4923,,1665761933,212412118,'',,,-7.32,58.16,1.16,,0.0,0.0,0.0,1.0
1665761933312730346,,4924,,1665761933,312064886,'',,,-7.34,58.16,1.09,,0.0,0.0,0.0,1.0
1665761933412969532,,4925,,1665761933,412465095,'',,,-7.35,58.15,1.1,,0.0,0.0,0.0,1.0
1665761933513259019,,4926,,1665761933,512715101,'',,,-7.33,58.15,1.13,,0.0,0.0,0.0,1.0
1665761933613648091,,4927,,1665761933,612132072,'',,,-7.33,58.15,1.03,,0.0,0.0,0.0,1.0
1665761933712358225,,4928,,1665761933,711752891,'',,,-7.34,58.16,1.15,,0.0,0.0,0.0,1.0
1665761933813526183,,4929,,1665761933,813013076,'',,,-7.34,58.15,1.2,,0.0,0.0,0.0,1.0
1665761933913230229,,4930,,1665761933,912806034,'',,,-7.34,58.15,1.23,,0.0,0.0,0.0,1.0
1665761934013004946,,4931,,1665761934,12329101,'',,,-7.34,58.15,1.12,,0.0,0.0,0.0,1.0
1665761934113264202,,4932,,1665761934,112685918,'',,,-7.33,58.14,1.16,,0.0,0.0,0.0,1.0
1665761934212908865,,4933,,1665761934,212368965,'',,,-7.33,58.15,1.1,,0.0,0.0,0.0,1.0
1665761934313681176,,4934,,1665761934,312659978,'',,,-7.33,58.15,1.18,,0.0,0.0,0.0,1.0
1665761934413545178,,4935,,1665761934,412807941,'',,,-7.34,58.14,1.25,,0.0,0.0,0.0,1.0
1665761934513143749,,4936,,1665761934,512609004,'',,,-7.33,58.14,1.19,,0.0,0.0,0.0,1.0
1665761934613531420,,4937,,1665761934,612809896,'',,,-7.33,58.14,1.21,,0.0,0.0,0.0,1.0
1665761934712588078,,4938,,1665761934,712088108,'',,,-7.33,58.14,1.11,,0.0,0.0,0.0,1.0
1665761934813108387,,4939,,1665761934,812457084,'',,,-7.32,58.16,1.04,,0.0,0.0,0.0,1.0
1665761934913248138,,4940,,1665761934,912478923,'',,,-7.32,58.17,1.01,,0.0,0.0,0.0,1.0
1665761935013191244,,4941,,1665761935,12712955,'',,,-7.32,58.17,1.05,,0.0,0.0,0.0,1.0
1665761935112793835,,4942,,1665761935,112339019,'',,,-7.34,58.15,1.06,,0.0,0.0,0.0,1.0
1665761935212984757,,4943,,1665761935,212481021,'',,,-7.34,58.14,1.05,,0.0,0.0,0.0,1.0
1665761935313240191,,4944,,1665761935,312684059,'',,,-7.33,58.15,1.07,,0.0,0.0,0.0,1.0
1665761935413172965,,4945,,1665761935,412576913,'',,,-7.33,58.15,1.13,,0.0,0.0,0.0,1.0
1665761935512977787,,4946,,1665761935,512515068,'',,,-7.32,58.16,1.13,,0.0,0.0,0.0,1.0
1665761935613553869,,4947,,1665761935,612982988,'',,,-7.33,58.14,1.25,,0.0,0.0,0.0,1.0
1665761935713689276,,4948,,1665761935,712901115,'',,,-7.34,58.13,1.31,,0.0,0.0,0.0,1.0
1665761935813390495,,4949,,1665761935,812232017,'',,,-7.33,58.16,1.16,,0.0,0.0,0.0,1.0
1665761935914171714,,4950,,1665761935,912954092,'',,,-7.32,58.14,1.06,,0.0,0.0,0.0,1.0
1665761936013018521,,4951,,1665761936,12573003,'',,,-7.31,58.15,1.09,,0.0,0.0,0.0,1.0
1665761936112924189,,4952,,1665761936,112406015,'',,,-7.31,58.16,1.09,,0.0,0.0,0.0,1.0
1665761936213258692,,4953,,1665761936,212697029,'',,,-7.32,58.15,1.15,,0.0,0.0,0.0,1.0
1665761936313253589,,4954,,1665761936,312796115,'',,,-7.32,58.14,1.3,,0.0,0.0,0.0,1.0
1665761936412586137,,4955,,1665761936,412205934,'',,,-7.35,58.13,1.19,,0.0,0.0,0.0,1.0
1665761936513215494,,4956,,1665761936,512708902,'',,,-7.34,58.13,1.23,,0.0,0.0,0.0,1.0
1665761936613180999,,4957,,1665761936,612646102,'',,,-7.35,58.11,1.26,,0.0,0.0,0.0,1.0
1665761936713019135,,4958,,1665761936,712640047,'',,,-7.34,58.12,1.28,,0.0,0.0,0.0,1.0
1665761936813859132,,4959,,1665761936,812613964,'',,,-7.34,58.13,1.19,,0.0,0.0,0.0,1.0
1665761936913067364,,4960,,1665761936,912724971,'',,,-7.32,58.14,1.04,,0.0,0.0,0.0,1.0
1665761937013194456,,4961,,1665761937,12866973,'',,,-7.31,58.14,1.17,,0.0,0.0,0.0,1.0
1665761937112700623,,4962,,1665761937,112258911,'',,,-7.31,58.15,1.09,,0.0,0.0,0.0,1.0
1665761937212964574,,4963,,1665761937,212663888,'',,,-7.32,58.14,1.15,,0.0,0.0,0.0,1.0
1665761937313161105,,4964,,1665761937,312740087,'',,,-7.32,58.16,1.14,,0.0,0.0,0.0,1.0
1665761937412908358,,4965,,1665761937,412210941,'',,,-7.32,58.15,1.07,,0.0,0.0,0.0,1.0
1665761937513551445,,4966,,1665761937,512707948,'',,,-7.32,58.16,1.15,,0.0,0.0,0.0,1.0
1665761937614143754,,4967,,1665761937,613554000,'',,,-7.31,58.15,1.04,,0.0,0.0,0.0,1.0
1665761937712805375,,4968,,1665761937,712137937,'',,,-7.31,58.15,1.02,,0.0,0.0,0.0,1.0
1665761937813393213,,4969,,1665761937,812469959,'',,,-7.31,58.15,1.08,,0.0,0.0,0.0,1.0
1665761937914148715,,4970,,1665761937,912781953,'',,,-7.32,58.15,1.11,,0.0,0.0,0.0,1.0
1665761938012828943,,4971,,1665761938,12422084,'',,,-7.33,58.14,1.06,,0.0,0.0,0.0,1.0
1665761938113868040,,4972,,1665761938,112610101,'',,,-7.32,58.14,1.08,,0.0,0.0,0.0,1.0
1665761938212802842,,4973,,1665761938,212416887,'',,,-7.32,58.15,1.07,,0.0,0.0,0.0,1.0
1665761938312683772,,4974,,1665761938,312371015,'',,,-7.32,58.14,1.03,,0.0,0.0,0.0,1.0
1665761938413227049,,4975,,1665761938,412628889,'',,,-7.32,58.15,1.12,,0.0,0.0,0.0,1.0
1665761938513021344,,4976,,1665761938,512331008,'',,,-7.31,58.16,1.03,,0.0,0.0,0.0,1.0
1665761938613262788,,4977,,1665761938,612708091,'',,,-7.31,58.16,1.06,,0.0,0.0,0.0,1.0
1665761938713148266,,4978,,1665761938,712615013,'',,,-7.32,58.15,1.1,,0.0,0.0,0.0,1.0
1665761938813583941,,4979,,1665761938,812841892,'',,,-7.33,58.14,1.14,,0.0,0.0,0.0,1.0
1665761938913487792,,4980,,1665761938,912961959,'',,,-7.33,58.15,1.17,,0.0,0.0,0.0,1.0
1665761939012949658,,4981,,1665761939,12598037,'',,,-7.31,58.14,1.15,,0.0,0.0,0.0,1.0
1665761939113569679,,4982,,1665761939,112838029,'',,,-7.32,58.14,1.15,,0.0,0.0,0.0,1.0
1665761939213367800,,4983,,1665761939,212769031,'',,,-7.31,58.15,1.16,,0.0,0.0,0.0,1.0
1665761939312735980,,4984,,1665761939,312357902,'',,,-7.32,58.16,1.13,,0.0,0.0,0.0,1.0
