rosbagTimestamp,header,seq,stamp,secs,nsecs,frame_id,pose,position,x,y,z,orientation,x,y,z,w
1665761964714472078,,5238,,1665761964,713824033,'',,,-7.14,61.36,0.95,,0.0,0.0,0.0,1.0
1665761964815011082,,5239,,1665761964,814357995,'',,,-7.14,61.37,0.97,,0.0,0.0,0.0,1.0
1665761964915148745,,5240,,1665761964,914520978,'',,,-7.14,61.36,0.96,,0.0,0.0,0.0,1.0
1665761965014954059,,5241,,1665761965,14427900,'',,,-7.15,61.36,0.96,,0.0,0.0,0.0,1.0
1665761965114815284,,5242,,1665761965,114181995,'',,,-7.15,61.37,0.92,,0.0,0.0,0.0,1.0
1665761965214256035,,5243,,1665761965,213692903,'',,,-7.15,61.35,0.88,,0.0,0.0,0.0,1.0
1665761965314066556,,5244,,1665761965,313656091,'',,,-7.16,61.35,1.12,,0.0,0.0,0.0,1.0
1665761965414122626,,5245,,1665761965,413614988,'',,,-7.15,61.36,1.03,,0.0,0.0,0.0,1.0
1665761965515073070,,5246,,1665761965,514435052,'',,,-7.15,61.36,1.01,,0.0,0.0,0.0,1.0
1665761965615469540,,5247,,1665761965,614769935,'',,,-7.14,61.36,1.0,,0.0,0.0,0.0,1.0
1665761965714710394,,5248,,1665761965,714107990,'',,,-7.14,61.36,0.97,,0.0,0.0,0.0,1.0
1665761965814350115,,5249,,1665761965,813920974,'',,,-7.14,61.37,0.93,,0.0,0.0,0.0,1.0
1665761965914743302,,5250,,1665761965,914014101,'',,,-7.14,61.37,0.94,,0.0,0.0,0.0,1.0
1665761966014770064,,5251,,1665761966,14159917,'',,,-7.14,61.37,0.94,,0.0,0.0,0.0,1.0
1665761966114450156,,5252,,1665761966,114168882,'',,,-7.14,61.37,0.94,,0.0,0.0,0.0,1.0
1665761966215446887,,5253,,1665761966,214905023,'',,,-7.13,61.38,1.0,,0.0,0.0,0.0,1.0
1665761966314983693,,5254,,1665761966,314368009,'',,,-7.13,61.37,0.95,,0.0,0.0,0.0,1.0
1665761966414685871,,5255,,1665761966,414242029,'',,,-7.13,61.37,0.99,,0.0,0.0,0.0,1.0
1665761966514935196,,5256,,1665761966,514466047,'',,,-7.13,61.37,0.95,,0.0,0.0,0.0,1.0
1665761966614362726,,5257,,1665761966,613845109,'',,,-7.13,61.37,0.9,,0.0,0.0,0.0,1.0
1665761966714765373,,5258,,1665761966,714042901,'',,,-7.14,61.38,0.9,,0.0,0.0,0.0,1.0
1665761966814518501,,5259,,1665761966,814049005,'',,,-7.14,61.38,0.93,,0.0,0.0,0.0,1.0
1665761966914246050,,5260,,1665761966,913752079,'',,,-7.14,61.37,0.88,,0.0,0.0,0.0,1.0
1665761967014175875,,5261,,1665761967,13665914,'',,,-7.15,61.34,1.01,,0.0,0.0,0.0,1.0
1665761967115225757,,5262,,1665761967,114569902,'',,,-7.15,61.35,0.93,,0.0,0.0,0.0,1.0
1665761967213944062,,5263,,1665761967,213476896,'',,,-7.15,61.34,1.17,,0.0,0.0,0.0,1.0
1665761967314075551,,5264,,1665761967,313745975,'',,,-7.14,61.35,1.05,,0.0,0.0,0.0,1.0
1665761967415111908,,5265,,1665761967,414663076,'',,,-7.13,61.34,0.96,,0.0,0.0,0.0,1.0
1665761967514745327,,5266,,1665761967,514198064,'',,,-7.14,61.32,0.95,,0.0,0.0,0.0,1.0
1665761967614714759,,5267,,1665761967,613975048,'',,,-7.14,61.34,0.94,,0.0,0.0,0.0,1.0
1665761967714408073,,5268,,1665761967,713963985,'',,,-7.13,61.35,0.94,,0.0,0.0,0.0,1.0
1665761967814262650,,5269,,1665761967,813941955,'',,,-7.13,61.35,0.92,,0.0,0.0,0.0,1.0
1665761967915063787,,5270,,1665761967,914591073,'',,,-7.13,61.35,0.95,,0.0,0.0,0.0,1.0
1665761968006097289,,5271,,1665761968,5669116,'',,,-7.21,61.32,0.92,,0.0,0.0,0.0,1.0
1665761968114563239,,5272,,1665761968,114114046,'',,,-7.19,61.34,0.92,,0.0,0.0,0.0,1.0
1665761968214249632,,5273,,1665761968,213685035,'',,,-7.18,61.32,1.01,,0.0,0.0,0.0,1.0
1665761968314330405,,5274,,1665761968,313915014,'',,,-7.17,61.34,0.97,,0.0,0.0,0.0,1.0
1665761968414676913,,5275,,1665761968,414210081,'',,,-7.16,61.36,0.92,,0.0,0.0,0.0,1.0
1665761968514813742,,5276,,1665761968,514384984,'',,,-7.16,61.34,0.93,,0.0,0.0,0.0,1.0
1665761968614304552,,5277,,1665761968,613924026,'',,,-7.16,61.34,0.88,,0.0,0.0,0.0,1.0
1665761968713785487,,5278,,1665761968,713120937,'',,,-7.16,61.32,1.0,,0.0,0.0,0.0,1.0
1665761968815066413,,5279,,1665761968,814573049,'',,,-7.16,61.33,0.99,,0.0,0.0,0.0,1.0
1665761968915009592,,5280,,1665761968,914531946,'',,,-7.15,61.33,0.92,,0.0,0.0,0.0,1.0
1665761969015455467,,5281,,1665761969,14208078,'',,,-7.15,61.34,0.92,,0.0,0.0,0.0,1.0
1665761969114806904,,5282,,1665761969,114335060,'',,,-7.14,61.36,0.96,,0.0,0.0,0.0,1.0
1665761969215137873,,5283,,1665761969,214680910,'',,,-7.15,61.36,1.03,,0.0,0.0,0.0,1.0
1665761969314164220,,5284,,1665761969,313652038,'',,,-7.15,61.33,1.16,,0.0,0.0,0.0,1.0
1665761969414640927,,5285,,1665761969,414271116,'',,,-7.14,61.34,1.12,,0.0,0.0,0.0,1.0
1665761969514561893,,5286,,1665761969,514025926,'',,,-7.14,61.34,1.04,,0.0,0.0,0.0,1.0
1665761969614584058,,5287,,1665761969,614113092,'',,,-7.13,61.36,1.03,,0.0,0.0,0.0,1.0
1665761969715161955,,5288,,1665761969,714612960,'',,,-7.15,61.36,1.11,,0.0,0.0,0.0,1.0
1665761969815381374,,5289,,1665761969,814838886,'',,,-7.14,61.36,1.01,,0.0,0.0,0.0,1.0
1665761969914836864,,5290,,1665761969,914120912,'',,,-7.14,61.36,1.0,,0.0,0.0,0.0,1.0
1665761970014595943,,5291,,1665761970,14070987,'',,,-7.14,61.36,0.93,,0.0,0.0,0.0,1.0
1665761970115429200,,5292,,1665761970,114665031,'',,,-7.13,61.34,0.89,,0.0,0.0,0.0,1.0
1665761970215139634,,5293,,1665761970,214530944,'',,,-7.14,61.35,0.93,,0.0,0.0,0.0,1.0
1665761970314780595,,5294,,1665761970,314338922,'',,,-7.14,61.35,0.87,,0.0,0.0,0.0,1.0
1665761970415022759,,5295,,1665761970,414588928,'',,,-7.14,61.34,0.88,,0.0,0.0,0.0,1.0
1665761970514458232,,5296,,1665761970,513864994,'',,,-7.14,61.34,0.88,,0.0,0.0,0.0,1.0
1665761970615015291,,5297,,1665761970,614351987,'',,,-7.14,61.34,0.85,,0.0,0.0,0.0,1.0
1665761970714461717,,5298,,1665761970,713999986,'',,,-7.13,61.35,0.85,,0.0,0.0,0.0,1.0
1665761970814556544,,5299,,1665761970,814074993,'',,,-7.14,61.37,0.87,,0.0,0.0,0.0,1.0
1665761970915647486,,5300,,1665761970,914470911,'',,,-7.14,61.36,0.85,,0.0,0.0,0.0,1.0
1665761971015618706,,5301,,1665761971,14556884,'',,,-7.14,61.36,0.85,,0.0,0.0,0.0,1.0
1665761971114728143,,5302,,1665761971,114181041,'',,,-7.14,61.35,0.85,,0.0,0.0,0.0,1.0
1665761971214328459,,5303,,1665761971,213809013,'',,,-7.15,61.37,0.87,,0.0,0.0,0.0,1.0
1665761971315363444,,5304,,1665761971,314785957,'',,,-7.14,61.36,0.89,,0.0,0.0,0.0,1.0
1665761971414662538,,5305,,1665761971,414159059,'',,,-7.15,61.36,0.86,,0.0,0.0,0.0,1.0
1665761971515043868,,5306,,1665761971,514585018,'',,,-7.15,61.36,0.88,,0.0,0.0,0.0,1.0
1665761971614336945,,5307,,1665761971,613842010,'',,,-7.13,61.37,0.84,,0.0,0.0,0.0,1.0
1665761971714144395,,5308,,1665761971,713701963,'',,,-7.15,61.38,0.83,,0.0,0.0,0.0,1.0
1665761971815253497,,5309,,1665761971,814735889,'',,,-7.14,61.38,0.84,,0.0,0.0,0.0,1.0
1665761971914505424,,5310,,1665761971,914019107,'',,,-7.14,61.37,0.85,,0.0,0.0,0.0,1.0
1665761972014484995,,5311,,1665761972,13830900,'',,,-7.13,61.39,0.82,,0.0,0.0,0.0,1.0
1665761972114963470,,5312,,1665761972,114610910,'',,,-7.12,61.39,0.85,,0.0,0.0,0.0,1.0
1665761972214497865,,5313,,1665761972,214092016,'',,,-7.12,61.38,0.81,,0.0,0.0,0.0,1.0
1665761972314606544,,5314,,1665761972,314106941,'',,,-7.12,61.37,0.85,,0.0,0.0,0.0,1.0
1665761972414637592,,5315,,1665761972,414093971,'',,,-7.12,61.38,0.83,,0.0,0.0,0.0,1.0
1665761972514338386,,5316,,1665761972,513869047,'',,,-7.12,61.37,0.82,,0.0,0.0,0.0,1.0
1665761972614961281,,5317,,1665761972,614577054,'',,,-7.12,61.36,0.87,,0.0,0.0,0.0,1.0
1665761972715017372,,5318,,1665761972,714579105,'',,,-7.12,61.36,0.88,,0.0,0.0,0.0,1.0
1665761972815192547,,5319,,1665761972,814776897,'',,,-7.12,61.34,0.84,,0.0,0.0,0.0,1.0
1665761972914601485,,5320,,1665761972,914323091,'',,,-7.12,61.33,0.86,,0.0,0.0,0.0,1.0
1665761973014715106,,5321,,1665761973,14295101,'',,,-7.12,61.35,0.93,,0.0,0.0,0.0,1.0
1665761973114486803,,5322,,1665761973,113899946,'',,,-7.13,61.36,0.9,,0.0,0.0,0.0,1.0
1665761973214726808,,5323,,1665761973,214133024,'',,,-7.14,61.35,0.93,,0.0,0.0,0.0,1.0
1665761973314505253,,5324,,1665761973,313996076,'',,,-7.13,61.37,0.94,,0.0,0.0,0.0,1.0
1665761973414657950,,5325,,1665761973,414146900,'',,,-7.14,61.37,0.89,,0.0,0.0,0.0,1.0
1665761973514594005,,5326,,1665761973,514163970,'',,,-7.14,61.36,0.92,,0.0,0.0,0.0,1.0
1665761973615179081,,5327,,1665761973,614598035,'',,,-7.15,61.36,0.88,,0.0,0.0,0.0,1.0
1665761973715149528,,5328,,1665761973,714449882,'',,,-7.14,61.35,0.84,,0.0,0.0,0.0,1.0
1665761973814478491,,5329,,1665761973,814069032,'',,,-7.14,61.35,0.85,,0.0,0.0,0.0,1.0
1665761973914878386,,5330,,1665761973,914155006,'',,,-7.15,61.36,0.86,,0.0,0.0,0.0,1.0
1665761974015239411,,5331,,1665761974,14528989,'',,,-7.14,61.36,0.88,,0.0,0.0,0.0,1.0
1665761974115006726,,5332,,1665761974,114284038,'',,,-7.14,61.36,0.92,,0.0,0.0,0.0,1.0
1665761974214876596,,5333,,1665761974,214113950,'',,,-7.14,61.37,0.94,,0.0,0.0,0.0,1.0
1665761974315578727,,5334,,1665761974,314904928,'',,,-7.14,61.37,0.91,,0.0,0.0,0.0,1.0
1665761974414663708,,5335,,1665761974,414236068,'',,,-7.14,61.37,0.96,,0.0,0.0,0.0,1.0
1665761974515219513,,5336,,1665761974,514564990,'',,,-7.14,61.37,1.0,,0.0,0.0,0.0,1.0
1665761974614415578,,5337,,1665761974,613993883,'',,,-7.14,61.37,0.95,,0.0,0.0,0.0,1.0
1665761974714679774,,5338,,1665761974,714133024,'',,,-7.14,61.36,0.92,,0.0,0.0,0.0,1.0
1665761974814916712,,5339,,1665761974,814245939,'',,,-7.15,61.38,0.92,,0.0,0.0,0.0,1.0
1665761974915047195,,5340,,1665761974,914621114,'',,,-7.15,61.37,1.02,,0.0,0.0,0.0,1.0
1665761975014732034,,5341,,1665761975,14216899,'',,,-7.14,61.36,0.95,,0.0,0.0,0.0,1.0
1665761975114657223,,5342,,1665761975,114037990,'',,,-7.15,61.36,0.91,,0.0,0.0,0.0,1.0
1665761975213983681,,5343,,1665761975,213316917,'',,,-7.14,61.36,1.04,,0.0,0.0,0.0,1.0
1665761975314485145,,5344,,1665761975,313999891,'',,,-7.14,61.36,0.98,,0.0,0.0,0.0,1.0
1665761975415628033,,5345,,1665761975,414498090,'',,,-7.14,61.34,0.92,,0.0,0.0,0.0,1.0
1665761975514509060,,5346,,1665761975,514127969,'',,,-7.14,61.35,0.89,,0.0,0.0,0.0,1.0
1665761975615197159,,5347,,1665761975,614653110,'',,,-7.14,61.35,0.94,,0.0,0.0,0.0,1.0
1665761975714913512,,5348,,1665761975,714387893,'',,,-7.14,61.35,0.88,,0.0,0.0,0.0,1.0
1665761975815018986,,5349,,1665761975,814536094,'',,,-7.14,61.36,0.92,,0.0,0.0,0.0,1.0
1665761975914046288,,5350,,1665761975,913572072,'',,,-7.14,61.35,1.1,,0.0,0.0,0.0,1.0
1665761976014611454,,5351,,1665761976,14101028,'',,,-7.14,61.37,1.03,,0.0,0.0,0.0,1.0
1665761976115258832,,5352,,1665761976,114371061,'',,,-7.14,61.36,1.01,,0.0,0.0,0.0,1.0
1665761976215717342,,5353,,1665761976,214260101,'',,,-7.14,61.37,1.01,,0.0,0.0,0.0,1.0
1665761976315120483,,5354,,1665761976,314613103,'',,,-7.14,61.35,0.97,,0.0,0.0,0.0,1.0
1665761976414302385,,5355,,1665761976,413888931,'',,,-7.15,61.36,0.95,,0.0,0.0,0.0,1.0
1665761976514697611,,5356,,1665761976,514194965,'',,,-7.16,61.35,0.93,,0.0,0.0,0.0,1.0
1665761976615989055,,5357,,1665761976,614720106,'',,,-7.16,61.34,0.93,,0.0,0.0,0.0,1.0
1665761976714307688,,5358,,1665761976,713768005,'',,,-7.16,61.34,0.87,,0.0,0.0,0.0,1.0
1665761976815138053,,5359,,1665761976,813973903,'',,,-7.15,61.35,0.85,,0.0,0.0,0.0,1.0
1665761976915266821,,5360,,1665761976,914654016,'',,,-7.14,61.35,0.84,,0.0,0.0,0.0,1.0
1665761977016400657,,5361,,1665761977,14955997,'',,,-7.13,61.36,0.89,,0.0,0.0,0.0,1.0
1665761977114317600,,5362,,1665761977,113728046,'',,,-7.13,61.37,0.9,,0.0,0.0,0.0,1.0
1665761977215609542,,5363,,1665761977,214328050,'',,,-7.13,61.37,0.89,,0.0,0.0,0.0,1.0
1665761977315161108,,5364,,1665761977,314608097,'',,,-7.13,61.38,0.92,,0.0,0.0,0.0,1.0
1665761977414992264,,5365,,1665761977,414307117,'',,,-7.13,61.37,0.93,,0.0,0.0,0.0,1.0
1665761977515121093,,5366,,1665761977,514312028,'',,,-7.13,61.39,0.96,,0.0,0.0,0.0,1.0
1665761977614041632,,5367,,1665761977,613665103,'',,,-7.12,61.41,0.93,,0.0,0.0,0.0,1.0
1665761977714274032,,5368,,1665761977,713761091,'',,,-7.13,61.41,0.91,,0.0,0.0,0.0,1.0
1665761977815545731,,5369,,1665761977,814635992,'',,,-7.13,61.4,0.96,,0.0,0.0,0.0,1.0
1665761977914372779,,5370,,1665761977,913902044,'',,,-7.14,61.38,0.89,,0.0,0.0,0.0,1.0
1665761978014675164,,5371,,1665761978,14389991,'',,,-7.14,61.38,0.87,,0.0,0.0,0.0,1.0
1665761978114734684,,5372,,1665761978,114357948,'',,,-7.13,61.38,0.88,,0.0,0.0,0.0,1.0
1665761978214634712,,5373,,1665761978,213993072,'',,,-7.14,61.36,1.12,,0.0,0.0,0.0,1.0
1665761978315398569,,5374,,1665761978,314184904,'',,,-7.13,61.37,1.14,,0.0,0.0,0.0,1.0
1665761978414545814,,5375,,1665761978,414056062,'',,,-7.14,61.38,1.1,,0.0,0.0,0.0,1.0
1665761978514999112,,5376,,1665761978,514600992,'',,,-7.13,61.37,1.02,,0.0,0.0,0.0,1.0
1665761978614728275,,5377,,1665761978,614164113,'',,,-7.12,61.36,0.97,,0.0,0.0,0.0,1.0
1665761978714524704,,5378,,1665761978,714062929,'',,,-7.14,61.37,0.95,,0.0,0.0,0.0,1.0
1665761978814171573,,5379,,1665761978,813801050,'',,,-7.13,61.37,0.92,,0.0,0.0,0.0,1.0
1665761978914716691,,5380,,1665761978,914329051,'',,,-7.13,61.36,0.92,,0.0,0.0,0.0,1.0
1665761979014258083,,5381,,1665761979,13632059,'',,,-7.13,61.36,0.86,,0.0,0.0,0.0,1.0
1665761979114745292,,5382,,1665761979,114275932,'',,,-7.14,61.36,0.83,,0.0,0.0,0.0,1.0
1665761979214136659,,5383,,1665761979,213747978,'',,,-7.13,61.37,0.84,,0.0,0.0,0.0,1.0
1665761979314125811,,5384,,1665761979,313643932,'',,,-7.15,61.34,1.11,,0.0,0.0,0.0,1.0
1665761979414469911,,5385,,1665761979,414130926,'',,,-7.14,61.34,1.05,,0.0,0.0,0.0,1.0
1665761979514206422,,5386,,1665761979,513848066,'',,,-7.14,61.35,0.96,,0.0,0.0,0.0,1.0
1665761979614466518,,5387,,1665761979,614080905,'',,,-7.15,61.36,0.94,,0.0,0.0,0.0,1.0
1665761979714554184,,5388,,1665761979,713969945,'',,,-7.15,61.36,0.91,,0.0,0.0,0.0,1.0
1665761979814888373,,5389,,1665761979,814308881,'',,,-7.15,61.33,1.12,,0.0,0.0,0.0,1.0
1665761979914604024,,5390,,1665761979,914057016,'',,,-7.15,61.34,1.07,,0.0,0.0,0.0,1.0
1665761980014204752,,5391,,1665761980,13782024,'',,,-7.14,61.33,1.17,,0.0,0.0,0.0,1.0
1665761980114815088,,5392,,1665761980,114432096,'',,,-7.14,61.33,1.09,,0.0,0.0,0.0,1.0
1665761980214410581,,5393,,1665761980,213908910,'',,,-7.15,61.32,1.19,,0.0,0.0,0.0,1.0
1665761980315276276,,5394,,1665761980,314821004,'',,,-7.15,61.32,1.1,,0.0,0.0,0.0,1.0
1665761980414008954,,5395,,1665761980,413652896,'',,,-7.15,61.34,1.06,,0.0,0.0,0.0,1.0
1665761980514049288,,5396,,1665761980,513696908,'',,,-7.16,61.33,1.21,,0.0,0.0,0.0,1.0
1665761980615154055,,5397,,1665761980,614658117,'',,,-7.15,61.34,1.15,,0.0,0.0,0.0,1.0
1665761980714541734,,5398,,1665761980,713934898,'',,,-7.15,61.36,1.1,,0.0,0.0,0.0,1.0
1665761980815439799,,5399,,1665761980,814874887,'',,,-7.15,61.36,1.12,,0.0,0.0,0.0,1.0
1665761980915247902,,5400,,1665761980,914853096,'',,,-7.14,61.35,1.07,,0.0,0.0,0.0,1.0
1665761981014261969,,5401,,1665761981,13793945,'',,,-7.15,61.36,1.01,,0.0,0.0,0.0,1.0
1665761981115215591,,5402,,1665761981,114797115,'',,,-7.16,61.35,0.95,,0.0,0.0,0.0,1.0
1665761981215020419,,5403,,1665761981,214612960,'',,,-7.15,61.36,0.9,,0.0,0.0,0.0,1.0
1665761981313744989,,5404,,1665761981,313343048,'',,,-7.15,61.35,1.08,,0.0,0.0,0.0,1.0
1665761981414245098,,5405,,1665761981,413537025,'',,,-7.15,61.34,1.24,,0.0,0.0,0.0,1.0
1665761981515295916,,5406,,1665761981,514868021,'',,,-7.15,61.35,1.12,,0.0,0.0,0.0,1.0
1665761981614237320,,5407,,1665761981,613806009,'',,,-7.15,61.35,1.02,,0.0,0.0,0.0,1.0
1665761981714915604,,5408,,1665761981,714462995,'',,,-7.15,61.36,0.99,,0.0,0.0,0.0,1.0
1665761981815389876,,5409,,1665761981,814527988,'',,,-7.14,61.35,0.95,,0.0,0.0,0.0,1.0
1665761981914916656,,5410,,1665761981,914267063,'',,,-7.14,61.34,0.93,,0.0,0.0,0.0,1.0
1665761982014549992,,5411,,1665761982,14138936,'',,,-7.14,61.34,0.89,,0.0,0.0,0.0,1.0
1665761982115656557,,5412,,1665761982,114928960,'',,,-7.14,61.34,0.98,,0.0,0.0,0.0,1.0
1665761982214440210,,5413,,1665761982,213923931,'',,,-7.14,61.35,0.95,,0.0,0.0,0.0,1.0
1665761982316088850,,5414,,1665761982,314661026,'',,,-7.15,61.35,1.01,,0.0,0.0,0.0,1.0
1665761982414908796,,5415,,1665761982,414113998,'',,,-7.15,61.36,0.99,,0.0,0.0,0.0,1.0
1665761982514737018,,5416,,1665761982,513926029,'',,,-7.16,61.34,1.21,,0.0,0.0,0.0,1.0
1665761982614772362,,5417,,1665761982,614109039,'',,,-7.15,61.35,1.15,,0.0,0.0,0.0,1.0
1665761982715093797,,5418,,1665761982,714384078,'',,,-7.13,61.36,1.06,,0.0,0.0,0.0,1.0
1665761982814055691,,5419,,1665761982,813432931,'',,,-7.14,61.35,1.22,,0.0,0.0,0.0,1.0
1665761982914934090,,5420,,1665761982,914357900,'',,,-7.13,61.37,1.15,,0.0,0.0,0.0,1.0
1665761983014702772,,5421,,1665761983,14111042,'',,,-7.13,61.38,1.07,,0.0,0.0,0.0,1.0
1665761983114565010,,5422,,1665761983,113918066,'',,,-7.13,61.35,1.21,,0.0,0.0,0.0,1.0
1665761983214905662,,5423,,1665761983,214405059,'',,,-7.14,61.35,1.14,,0.0,0.0,0.0,1.0
1665761983315322486,,5424,,1665761983,314613103,'',,,-7.13,61.37,1.06,,0.0,0.0,0.0,1.0
1665761983414599889,,5425,,1665761983,414217948,'',,,-7.13,61.38,1.08,,0.0,0.0,0.0,1.0
1665761983515219312,,5426,,1665761983,514754056,'',,,-7.13,61.38,1.05,,0.0,0.0,0.0,1.0
1665761983614741595,,5427,,1665761983,614098072,'',,,-7.14,61.38,0.97,,0.0,0.0,0.0,1.0
1665761983714610618,,5428,,1665761983,714168071,'',,,-7.14,61.37,0.9,,0.0,0.0,0.0,1.0
1665761983815061729,,5429,,1665761983,814444065,'',,,-7.14,61.36,0.9,,0.0,0.0,0.0,1.0
1665761983914717283,,5430,,1665761983,914279937,'',,,-7.13,61.38,0.89,,0.0,0.0,0.0,1.0
1665761984014992403,,5431,,1665761984,14419078,'',,,-7.14,61.36,0.87,,0.0,0.0,0.0,1.0
1665761984115217917,,5432,,1665761984,114713907,'',,,-7.13,61.35,0.84,,0.0,0.0,0.0,1.0
1665761984215132513,,5433,,1665761984,214612007,'',,,-7.14,61.34,0.85,,0.0,0.0,0.0,1.0
1665761984314632367,,5434,,1665761984,314097881,'',,,-7.14,61.35,0.87,,0.0,0.0,0.0,1.0
1665761984414799856,,5435,,1665761984,414192914,'',,,-7.14,61.34,0.88,,0.0,0.0,0.0,1.0
1665761984515167181,,5436,,1665761984,514590024,'',,,-7.13,61.36,0.89,,0.0,0.0,0.0,1.0
1665761984614804868,,5437,,1665761984,614123106,'',,,-7.14,61.37,0.88,,0.0,0.0,0.0,1.0
1665761984714938378,,5438,,1665761984,714461088,'',,,-7.14,61.37,0.9,,0.0,0.0,0.0,1.0
1665761984815142131,,5439,,1665761984,814618110,'',,,-7.13,61.37,0.87,,0.0,0.0,0.0,1.0
1665761984914365991,,5440,,1665761984,913897037,'',,,-7.14,61.38,0.9,,0.0,0.0,0.0,1.0
1665761985015058517,,5441,,1665761985,14379978,'',,,-7.14,61.39,0.94,,0.0,0.0,0.0,1.0
1665761985114800299,,5442,,1665761985,114089012,'',,,-7.14,61.4,0.94,,0.0,0.0,0.0,1.0
1665761985214478570,,5443,,1665761985,213932037,'',,,-7.13,61.39,0.89,,0.0,0.0,0.0,1.0
1665761985314033521,,5444,,1665761985,313616037,'',,,-7.14,61.37,1.05,,0.0,0.0,0.0,1.0
1665761985414747857,,5445,,1665761985,414165019,'',,,-7.14,61.37,1.01,,0.0,0.0,0.0,1.0
1665761985514307961,,5446,,1665761985,513628959,'',,,-7.14,61.36,1.21,,0.0,0.0,0.0,1.0
1665761985614548170,,5447,,1665761985,614228010,'',,,-7.14,61.36,1.09,,0.0,0.0,0.0,1.0
1665761985716049805,,5448,,1665761985,714982032,'',,,-7.14,61.36,1.09,,0.0,0.0,0.0,1.0
1665761985815050873,,5449,,1665761985,814421892,'',,,-7.14,61.35,1.02,,0.0,0.0,0.0,1.0
1665761985915658171,,5450,,1665761985,914541006,'',,,-7.14,61.35,1.0,,0.0,0.0,0.0,1.0
1665761986016405262,,5451,,1665761986,15675067,'',,,-7.14,61.36,0.96,,0.0,0.0,0.0,1.0
1665761986115090812,,5452,,1665761986,114444971,'',,,-7.14,61.35,0.92,,0.0,0.0,0.0,1.0
1665761986214339087,,5453,,1665761986,213794946,'',,,-7.15,61.35,1.1,,0.0,0.0,0.0,1.0
1665761986315023711,,5454,,1665761986,314333915,'',,,-7.15,61.35,1.1,,0.0,0.0,0.0,1.0
1665761986415098036,,5455,,1665761986,414640903,'',,,-7.15,61.37,1.12,,0.0,0.0,0.0,1.0
1665761986514976473,,5456,,1665761986,514254093,'',,,-7.15,61.36,1.04,,0.0,0.0,0.0,1.0
1665761986613772931,,5457,,1665761986,613322019,'',,,-7.15,61.34,1.06,,0.0,0.0,0.0,1.0
1665761986715140237,,5458,,1665761986,714571952,'',,,-7.15,61.34,1.03,,0.0,0.0,0.0,1.0
1665761986814533819,,5459,,1665761986,814014911,'',,,-7.15,61.33,1.18,,0.0,0.0,0.0,1.0
1665761986914808866,,5460,,1665761986,914208889,'',,,-7.14,61.34,1.07,,0.0,0.0,0.0,1.0
1665761987015528348,,5461,,1665761987,14501094,'',,,-7.14,61.36,1.06,,0.0,0.0,0.0,1.0
1665761987115123890,,5462,,1665761987,114578008,'',,,-7.14,61.37,1.03,,0.0,0.0,0.0,1.0
1665761987215613612,,5463,,1665761987,214975118,'',,,-7.14,61.35,0.99,,0.0,0.0,0.0,1.0
1665761987314629263,,5464,,1665761987,314279079,'',,,-7.14,61.35,1.02,,0.0,0.0,0.0,1.0
1665761987415630025,,5465,,1665761987,414967060,'',,,-7.14,61.31,0.98,,0.0,0.0,0.0,1.0
1665761987514753284,,5466,,1665761987,514086961,'',,,-7.14,61.28,0.92,,0.0,0.0,0.0,1.0
1665761987614500649,,5467,,1665761987,613944053,'',,,-7.14,61.26,0.91,,0.0,0.0,0.0,1.0
1665761987714760836,,5468,,1665761987,714255094,'',,,-7.14,61.19,0.89,,0.0,0.0,0.0,1.0
1665761987813700609,,5469,,1665761987,813308954,'',,,-7.14,61.12,1.05,,0.0,0.0,0.0,1.0
1665761987914446206,,5470,,1665761987,913942098,'',,,-7.13,61.03,1.0,,0.0,0.0,0.0,1.0
1665761988014951580,,5471,,1665761988,14244079,'',,,-7.13,60.92,0.93,,0.0,0.0,0.0,1.0
1665761988114245741,,5472,,1665761988,113748073,'',,,-7.13,60.78,0.93,,0.0,0.0,0.0,1.0
1665761988213418092,,5473,,1665761988,212997913,'',,,-7.13,60.61,1.15,,0.0,0.0,0.0,1.0
1665761988314462439,,5474,,1665761988,314079999,'',,,-7.13,60.43,1.06,,0.0,0.0,0.0,1.0
1665761988413878222,,5475,,1665761988,413253068,'',,,-7.14,60.23,0.97,,0.0,0.0,0.0,1.0
1665761988513767420,,5476,,1665761988,513319969,'',,,-7.13,60.0,0.92,,0.0,0.0,0.0,1.0
1665761988614625491,,5477,,1665761988,613768100,'',,,-7.14,59.73,0.86,,0.0,0.0,0.0,1.0
1665761988713813271,,5478,,1665761988,713323116,'',,,-7.14,59.45,0.8,,0.0,0.0,0.0,1.0
1665761988813961573,,5479,,1665761988,813395023,'',,,-7.14,59.13,0.75,,0.0,0.0,0.0,1.0
1665761988913871320,,5480,,1665761988,913439035,'',,,-7.13,58.8,0.73,,0.0,0.0,0.0,1.0
1665761989013214690,,5481,,1665761989,12803077,'',,,-7.13,58.43,0.94,,0.0,0.0,0.0,1.0
1665761989113489391,,5482,,1665761989,113025903,'',,,-7.12,58.04,0.86,,0.0,0.0,0.0,1.0
1665761989213756238,,5483,,1665761989,213248968,'',,,-7.13,57.61,0.86,,0.0,0.0,0.0,1.0
1665761989313391539,,5484,,1665761989,313026905,'',,,-7.16,57.2,0.99,,0.0,0.0,0.0,1.0
1665761989413335781,,5485,,1665761989,412987947,'',,,-7.21,56.76,1.09,,0.0,0.0,0.0,1.0
1665761989514589544,,5486,,1665761989,513824939,'',,,-7.22,56.27,1.16,,0.0,0.0,0.0,1.0
1665761989614173074,,5487,,1665761989,613626003,'',,,-7.23,55.74,1.08,,0.0,0.0,0.0,1.0
1665761989712380485,,5488,,1665761989,711906909,'',,,-7.13,55.04,1.17,,0.0,0.0,0.0,1.0
1665761989813886027,,5489,,1665761989,813421010,'',,,-7.13,54.47,1.07,,0.0,0.0,0.0,1.0
1665761989913717975,,5490,,1665761989,913095951,'',,,-7.14,53.88,0.98,,0.0,0.0,0.0,1.0
1665761990012964879,,5491,,1665761990,12281894,'',,,-7.16,53.26,1.01,,0.0,0.0,0.0,1.0
1665761990113700020,,5492,,1665761990,113272905,'',,,-7.18,52.6,0.98,,0.0,0.0,0.0,1.0
1665761990213424452,,5493,,1665761990,212846994,'',,,-7.18,51.92,0.91,,0.0,0.0,0.0,1.0
1665761990312532121,,5494,,1665761990,312062025,'',,,-7.17,51.19,0.98,,0.0,0.0,0.0,1.0
1665761990413116681,,5495,,1665761990,412439107,'',,,-7.16,50.45,1.01,,0.0,0.0,0.0,1.0
1665761990513349507,,5496,,1665761990,512846946,'',,,-7.14,49.68,1.12,,0.0,0.0,0.0,1.0
1665761990612793567,,5497,,1665761990,612461090,'',,,-7.13,48.88,1.1,,0.0,0.0,0.0,1.0
1665761990713697607,,5498,,1665761990,712786912,'',,,-7.13,48.06,1.13,,0.0,0.0,0.0,1.0
1665761990813759814,,5499,,1665761990,812500953,'',,,-7.13,47.17,1.17,,0.0,0.0,0.0,1.0
1665761990913527993,,5500,,1665761990,913074016,'',,,-7.21,46.23,1.13,,0.0,0.0,0.0,1.0
1665761991014606012,,5501,,1665761991,14091968,'',,,-7.2,45.38,1.29,,0.0,0.0,0.0,1.0
1665761991112853782,,5502,,1665761991,112442016,'',,,-7.18,44.48,1.24,,0.0,0.0,0.0,1.0
1665761991213366906,,5503,,1665761991,212765932,'',,,-7.16,43.59,1.25,,0.0,0.0,0.0,1.0
1665761991313285939,,5504,,1665761991,312784910,'',,,-7.14,42.67,1.22,,0.0,0.0,0.0,1.0
1665761991413525054,,5505,,1665761991,413110017,'',,,-7.12,41.75,1.06,,0.0,0.0,0.0,1.0
1665761991514312288,,5506,,1665761991,513694047,'',,,-7.12,40.83,0.95,,0.0,0.0,0.0,1.0
1665761991614491126,,5507,,1665761991,613852024,'',,,-7.13,39.91,0.86,,0.0,0.0,0.0,1.0
1665761991714363268,,5508,,1665761991,713825941,'',,,-7.12,38.95,0.97,,0.0,0.0,0.0,1.0
1665761991814718215,,5509,,1665761991,813760042,'',,,-7.13,37.99,1.03,,0.0,0.0,0.0,1.0
1665761991914513579,,5510,,1665761991,913980007,'',,,-7.14,37.02,1.03,,0.0,0.0,0.0,1.0
1665761992014868669,,5511,,1665761992,14383077,'',,,-7.15,36.06,0.95,,0.0,0.0,0.0,1.0
1665761992114139801,,5512,,1665761992,113688945,'',,,-7.14,35.06,1.12,,0.0,0.0,0.0,1.0
1665761992214066890,,5513,,1665761992,213397026,'',,,-7.14,34.04,1.23,,0.0,0.0,0.0,1.0
1665761992314620989,,5514,,1665761992,314112901,'',,,-7.13,33.01,1.1,,0.0,0.0,0.0,1.0
1665761992413676119,,5515,,1665761992,413186073,'',,,-7.15,32.02,1.24,,0.0,0.0,0.0,1.0
1665761992506610352,,5516,,1665761992,506231069,'',,,-7.11,31.05,1.01,,0.0,0.0,0.0,1.0
1665761992606822100,,5517,,1665761992,606290102,'',,,-7.17,30.07,1.01,,0.0,0.0,0.0,1.0
1665761992714427825,,5518,,1665761992,713767051,'',,,-7.22,29.08,0.96,,0.0,0.0,0.0,1.0
1665761992815568293,,5519,,1665761992,814275026,'',,,-7.26,28.09,1.02,,0.0,0.0,0.0,1.0
1665761992906563797,,5520,,1665761992,906099081,'',,,-7.3,27.08,1.13,,0.0,0.0,0.0,1.0
1665761993014020008,,5521,,1665761993,13448953,'',,,-7.33,26.07,1.01,,0.0,0.0,0.0,1.0
1665761993115006615,,5522,,1665761993,114080905,'',,,-7.38,25.08,0.94,,0.0,0.0,0.0,1.0
1665761993213928482,,5523,,1665761993,213507890,'',,,-7.41,24.12,1.09,,0.0,0.0,0.0,1.0
1665761993313871541,,5524,,1665761993,313318014,'',,,-7.4,23.19,1.26,,0.0,0.0,0.0,1.0
1665761993414504114,,5525,,1665761993,413855075,'',,,-7.42,22.24,1.41,,0.0,0.0,0.0,1.0
1665761993514441549,,5526,,1665761993,513973951,'',,,-7.47,21.29,1.52,,0.0,0.0,0.0,1.0
1665761993606418278,,5527,,1665761993,606076955,'',,,-7.47,20.4,1.41,,0.0,0.0,0.0,1.0
1665761993714451706,,5528,,1665761993,713859081,'',,,-7.5,19.51,1.35,,0.0,0.0,0.0,1.0
1665761993814186935,,5529,,1665761993,813637018,'',,,-7.51,18.67,1.24,,0.0,0.0,0.0,1.0
1665761993913677188,,5530,,1665761993,913060903,'',,,-7.51,17.82,1.09,,0.0,0.0,0.0,1.0
1665761994013710577,,5531,,1665761994,13123989,'',,,-7.53,17.01,1.09,,0.0,0.0,0.0,1.0
1665761994114258035,,5532,,1665761994,113725900,'',,,-7.58,16.28,1.01,,0.0,0.0,0.0,1.0
1665761994213010075,,5533,,1665761994,212658882,'',,,-7.57,15.5,0.98,,0.0,0.0,0.0,1.0
1665761994313157301,,5534,,1665761994,312850952,'',,,-7.56,14.76,0.97,,0.0,0.0,0.0,1.0
1665761994413776756,,5535,,1665761994,413311004,'',,,-7.58,14.1,1.0,,0.0,0.0,0.0,1.0
1665761994513321081,,5536,,1665761994,512746095,'',,,-7.65,13.49,1.06,,0.0,0.0,0.0,1.0
1665761994613357577,,5537,,1665761994,613012075,'',,,-7.67,12.88,0.99,,0.0,0.0,0.0,1.0
1665761994713176402,,5538,,1665761994,712743043,'',,,-7.7,12.32,0.93,,0.0,0.0,0.0,1.0
1665761994814448983,,5539,,1665761994,813103914,'',,,-7.72,11.8,0.96,,0.0,0.0,0.0,1.0
1665761994914028463,,5540,,1665761994,913496017,'',,,-7.72,11.29,0.9,,0.0,0.0,0.0,1.0
1665761995013895683,,5541,,1665761995,13398885,'',,,-7.73,10.81,0.9,,0.0,0.0,0.0,1.0
1665761995114366809,,5542,,1665761995,113007068,'',,,-7.73,10.37,0.96,,0.0,0.0,0.0,1.0
1665761995213457455,,5543,,1665761995,212915897,'',,,-7.73,9.97,0.91,,0.0,0.0,0.0,1.0
1665761995313147387,,5544,,1665761995,312720060,'',,,-7.73,9.58,0.93,,0.0,0.0,0.0,1.0
1665761995413213661,,5545,,1665761995,412655115,'',,,-7.73,9.24,0.86,,0.0,0.0,0.0,1.0
1665761995512796055,,5546,,1665761995,512285947,'',,,-7.75,8.94,1.09,,0.0,0.0,0.0,1.0
1665761995612712581,,5547,,1665761995,612205982,'',,,-7.74,8.63,1.25,,0.0,0.0,0.0,1.0
1665761995714117653,,5548,,1665761995,712770938,'',,,-7.75,8.37,1.1,,0.0,0.0,0.0,1.0
1665761995813938223,,5549,,1665761995,812650918,'',,,-7.76,8.14,1.15,,0.0,0.0,0.0,1.0
1665761995912816136,,5550,,1665761995,912358045,'',,,-7.77,7.93,1.3,,0.0,0.0,0.0,1.0
1665761996012808621,,5551,,1665761996,12157917,'',,,-7.78,7.74,1.27,,0.0,0.0,0.0,1.0
1665761996112860043,,5552,,1665761996,112446069,'',,,-7.78,7.56,1.36,,0.0,0.0,0.0,1.0
1665761996212995967,,5553,,1665761996,212515115,'',,,-7.79,7.43,1.34,,0.0,0.0,0.0,1.0
1665761996312600896,,5554,,1665761996,312283992,'',,,-7.8,7.32,1.41,,0.0,0.0,0.0,1.0
1665761996413852647,,5555,,1665761996,412600994,'',,,-7.78,7.19,1.27,,0.0,0.0,0.0,1.0
1665761996512804540,,5556,,1665761996,512164115,'',,,-7.8,7.11,1.28,,0.0,0.0,0.0,1.0
1665761996612984650,,5557,,1665761996,612457036,'',,,-7.78,7.03,1.2,,0.0,0.0,0.0,1.0
1665761996712933318,,5558,,1665761996,712395906,'',,,-7.79,7.0,1.23,,0.0,0.0,0.0,1.0
1665761996812500758,,5559,,1665761996,812093973,'',,,-7.8,6.98,1.29,,0.0,0.0,0.0,1.0
1665761996912814244,,5560,,1665761996,912431955,'',,,-7.81,6.97,1.14,,0.0,0.0,0.0,1.0
1665761997014079381,,5561,,1665761997,12842893,'',,,-7.81,6.92,1.12,,0.0,0.0,0.0,1.0
1665761997113232253,,5562,,1665761997,112471103,'',,,-7.79,6.89,1.05,,0.0,0.0,0.0,1.0
1665761997212518624,,5563,,1665761997,212152957,'',,,-7.78,6.89,1.15,,0.0,0.0,0.0,1.0
1665761997312885200,,5564,,1665761997,312414884,'',,,-7.79,6.89,1.17,,0.0,0.0,0.0,1.0
1665761997413309068,,5565,,1665761997,412779092,'',,,-7.78,6.88,1.1,,0.0,0.0,0.0,1.0
1665761997512997345,,5566,,1665761997,512423992,'',,,-7.77,6.86,1.06,,0.0,0.0,0.0,1.0
1665761997613279977,,5567,,1665761997,612668991,'',,,-7.77,6.85,1.0,,0.0,0.0,0.0,1.0
1665761997712658666,,5568,,1665761997,712248086,'',,,-7.77,6.85,1.08,,0.0,0.0,0.0,1.0
1665761997812625194,,5569,,1665761997,812192916,'',,,-7.78,6.88,1.19,,0.0,0.0,0.0,1.0
1665761997912938640,,5570,,1665761997,912389993,'',,,-7.78,6.88,1.32,,0.0,0.0,0.0,1.0
1665761998012687664,,5571,,1665761998,12214899,'',,,-7.8,6.9,1.33,,0.0,0.0,0.0,1.0
1665761998113038031,,5572,,1665761998,112474918,'',,,-7.8,6.9,1.34,,0.0,0.0,0.0,1.0
1665761998213082148,,5573,,1665761998,212640047,'',,,-7.79,6.89,1.19,,0.0,0.0,0.0,1.0
1665761998313204703,,5574,,1665761998,312747001,'',,,-7.79,6.89,1.11,,0.0,0.0,0.0,1.0
1665761998412490449,,5575,,1665761998,412153005,'',,,-7.79,6.88,1.13,,0.0,0.0,0.0,1.0
1665761998512629965,,5576,,1665761998,512294054,'',,,-7.8,6.88,1.2,,0.0,0.0,0.0,1.0
1665761998613384269,,5577,,1665761998,612880945,'',,,-7.81,6.88,1.03,,0.0,0.0,0.0,1.0
1665761998712865747,,5578,,1665761998,712281942,'',,,-7.81,6.88,1.16,,0.0,0.0,0.0,1.0
1665761998813633461,,5579,,1665761998,813035964,'',,,-7.8,6.85,1.11,,0.0,0.0,0.0,1.0
1665761998912897869,,5580,,1665761998,912451028,'',,,-7.79,6.84,1.04,,0.0,0.0,0.0,1.0
1665761999012651412,,5581,,1665761999,12229919,'',,,-7.8,6.86,1.09,,0.0,0.0,0.0,1.0
1665761999114067803,,5582,,1665761999,112663030,'',,,-7.78,6.84,1.03,,0.0,0.0,0.0,1.0
1665761999212681442,,5583,,1665761999,212199926,'',,,-7.78,6.84,1.13,,0.0,0.0,0.0,1.0
1665761999312837902,,5584,,1665761999,312254905,'',,,-7.78,6.86,1.33,,0.0,0.0,0.0,1.0
1665761999413275071,,5585,,1665761999,412640094,'',,,-7.79,6.86,1.4,,0.0,0.0,0.0,1.0
1665761999512771195,,5586,,1665761999,512258052,'',,,-7.79,6.88,1.53,,0.0,0.0,0.0,1.0
1665761999613074960,,5587,,1665761999,612504959,'',,,-7.78,6.86,1.36,,0.0,0.0,0.0,1.0
1665761999713233086,,5588,,1665761999,712632894,'',,,-7.79,6.87,1.38,,0.0,0.0,0.0,1.0
1665761999813551701,,5589,,1665761999,812809944,'',,,-7.78,6.85,1.22,,0.0,0.0,0.0,1.0
1665761999912783893,,5590,,1665761999,912236928,'',,,-7.78,6.86,1.26,,0.0,0.0,0.0,1.0
1665762000012927935,,5591,,1665762000,12564897,'',,,-7.78,6.85,1.16,,0.0,0.0,0.0,1.0
1665762000112531001,,5592,,1665762000,112204074,'',,,-7.78,6.87,1.2,,0.0,0.0,0.0,1.0
1665762000212853598,,5593,,1665762000,212459087,'',,,-7.77,6.86,1.12,,0.0,0.0,0.0,1.0
1665762000313094839,,5594,,1665762000,312479019,'',,,-7.79,6.88,1.12,,0.0,0.0,0.0,1.0
1665762000412948802,,5595,,1665762000,412332057,'',,,-7.79,6.89,1.2,,0.0,0.0,0.0,1.0
1665762000513001578,,5596,,1665762000,512337923,'',,,-7.79,6.89,1.25,,0.0,0.0,0.0,1.0
1665762000613212204,,5597,,1665762000,612692117,'',,,-7.78,6.86,1.13,,0.0,0.0,0.0,1.0
1665762000712776745,,5598,,1665762000,712268114,'',,,-7.8,6.87,1.17,,0.0,0.0,0.0,1.0
1665762000812573680,,5599,,1665762000,812139034,'',,,-7.8,6.88,1.23,,0.0,0.0,0.0,1.0
1665762000914263061,,5600,,1665762000,913044929,'',,,-7.78,6.86,1.22,,0.0,0.0,0.0,1.0
1665762001012724256,,5601,,1665762001,12248039,'',,,-7.78,6.89,1.27,,0.0,0.0,0.0,1.0
1665762001112934223,,5602,,1665762001,112421035,'',,,-7.76,6.86,1.19,,0.0,0.0,0.0,1.0
1665762001213465153,,5603,,1665762001,212980031,'',,,-7.76,6.86,1.18,,0.0,0.0,0.0,1.0
1665762001313022590,,5604,,1665762001,312558889,'',,,-7.78,6.88,1.05,,0.0,0.0,0.0,1.0
1665762001413019812,,5605,,1665762001,412319898,'',,,-7.8,6.88,1.13,,0.0,0.0,0.0,1.0
1665762001513023074,,5606,,1665762001,512449979,'',,,-7.8,6.88,1.3,,0.0,0.0,0.0,1.0
1665762001613141719,,5607,,1665762001,612528085,'',,,-7.78,6.87,1.2,,0.0,0.0,0.0,1.0
1665762001712811557,,5608,,1665762001,712271928,'',,,-7.79,6.88,1.18,,0.0,0.0,0.0,1.0
1665762001813490339,,5609,,1665762001,812778949,'',,,-7.78,6.87,1.08,,0.0,0.0,0.0,1.0
1665762001912958759,,5610,,1665762001,912451028,'',,,-7.79,6.89,1.24,,0.0,0.0,0.0,1.0
1665762002012981143,,5611,,1665762002,12420892,'',,,-7.8,6.9,1.28,,0.0,0.0,0.0,1.0
1665762002113332326,,5612,,1665762002,112751007,'',,,-7.79,6.88,1.16,,0.0,0.0,0.0,1.0
1665762002212846281,,5613,,1665762002,212465047,'',,,-7.8,6.9,1.21,,0.0,0.0,0.0,1.0
1665762002312827130,,5614,,1665762002,312226057,'',,,-7.81,6.9,1.29,,0.0,0.0,0.0,1.0
1665762002412909399,,5615,,1665762002,412496089,'',,,-7.8,6.9,1.35,,0.0,0.0,0.0,1.0
1665762002512712075,,5616,,1665762002,512227058,'',,,-7.79,6.9,1.45,,0.0,0.0,0.0,1.0
1665762002613344775,,5617,,1665762002,612555027,'',,,-7.77,6.87,1.3,,0.0,0.0,0.0,1.0
1665762002712839929,,5618,,1665762002,712296009,'',,,-7.78,6.87,1.32,,0.0,0.0,0.0,1.0
1665762002812835419,,5619,,1665762002,812258005,'',,,-7.79,6.88,1.26,,0.0,0.0,0.0,1.0
1665762002913435240,,5620,,1665762002,912436008,'',,,-7.78,6.87,1.14,,0.0,0.0,0.0,1.0
1665762003013600090,,5621,,1665762003,12610912,'',,,-7.78,6.85,1.05,,0.0,0.0,0.0,1.0
1665762003113188721,,5622,,1665762003,112560987,'',,,-7.78,6.84,1.02,,0.0,0.0,0.0,1.0
1665762003212712695,,5623,,1665762003,212220907,'',,,-7.79,6.86,1.1,,0.0,0.0,0.0,1.0
1665762003313293153,,5624,,1665762003,312709093,'',,,-7.78,6.84,1.07,,0.0,0.0,0.0,1.0
1665762003413030594,,5625,,1665762003,412540912,'',,,-7.79,6.83,1.04,,0.0,0.0,0.0,1.0
1665762003513046283,,5626,,1665762003,512547016,'',,,-7.78,6.83,0.99,,0.0,0.0,0.0,1.0
1665762003613389174,,5627,,1665762003,612787961,'',,,-7.79,6.86,1.17,,0.0,0.0,0.0,1.0
1665762003712896980,,5628,,1665762003,712301969,'',,,-7.79,6.88,1.29,,0.0,0.0,0.0,1.0
1665762003812924912,,5629,,1665762003,812541961,'',,,-7.78,6.86,1.18,,0.0,0.0,0.0,1.0
1665762003913312346,,5630,,1665762003,912713050,'',,,-7.78,6.85,1.1,,0.0,0.0,0.0,1.0
1665762004013342146,,5631,,1665762004,12824058,'',,,-7.77,6.84,1.08,,0.0,0.0,0.0,1.0
1665762004113013109,,5632,,1665762004,112585067,'',,,-7.76,6.83,1.0,,0.0,0.0,0.0,1.0
1665762004213579962,,5633,,1665762004,213009119,'',,,-7.76,6.83,0.98,,0.0,0.0,0.0,1.0
1665762004312983366,,5634,,1665762004,312293052,'',,,-7.76,6.85,1.14,,0.0,0.0,0.0,1.0
1665762004413165354,,5635,,1665762004,412357091,'',,,-7.78,6.86,1.18,,0.0,0.0,0.0,1.0
1665762004512932602,,5636,,1665762004,512406110,'',,,-7.79,6.87,1.16,,0.0,0.0,0.0,1.0
1665762004612869797,,5637,,1665762004,612251043,'',,,-7.78,6.9,1.27,,0.0,0.0,0.0,1.0
1665762004713534591,,5638,,1665762004,712446928,'',,,-7.76,6.88,1.17,,0.0,0.0,0.0,1.0
1665762004813521478,,5639,,1665762004,812726974,'',,,-7.78,6.89,1.23,,0.0,0.0,0.0,1.0
1665762004913299693,,5640,,1665762004,912836074,'',,,-7.78,6.88,1.14,,0.0,0.0,0.0,1.0
1665762005013464748,,5641,,1665762005,12830018,'',,,-7.79,6.89,1.04,,0.0,0.0,0.0,1.0
1665762005112847893,,5642,,1665762005,112416028,'',,,-7.79,6.89,1.14,,0.0,0.0,0.0,1.0
1665762005206297381,,5643,,1665762005,205765008,'',,,-7.76,6.91,0.96,,0.0,0.0,0.0,1.0
1665762005313572993,,5644,,1665762005,312905073,'',,,-7.76,6.9,0.99,,0.0,0.0,0.0,1.0
1665762005413349316,,5645,,1665762005,412697076,'',,,-7.77,6.91,1.11,,0.0,0.0,0.0,1.0
1665762005513263502,,5646,,1665762005,512655019,'',,,-7.78,6.93,1.23,,0.0,0.0,0.0,1.0
1665762005613300923,,5647,,1665762005,612814903,'',,,-7.78,6.93,1.07,,0.0,0.0,0.0,1.0
1665762005713089069,,5648,,1665762005,712641000,'',,,-7.77,6.9,1.01,,0.0,0.0,0.0,1.0
1665762005812725171,,5649,,1665762005,812238931,'',,,-7.77,6.9,1.15,,0.0,0.0,0.0,1.0
1665762005913398106,,5650,,1665762005,912847995,'',,,-7.77,6.89,1.07,,0.0,0.0,0.0,1.0
1665762006012843134,,5651,,1665762006,12403964,'',,,-7.78,6.89,1.21,,0.0,0.0,0.0,1.0
1665762006112514595,,5652,,1665762006,112171888,'',,,-7.79,6.88,1.31,,0.0,0.0,0.0,1.0
1665762006213002940,,5653,,1665762006,212507963,'',,,-7.79,6.91,1.41,,0.0,0.0,0.0,1.0
1665762006314069436,,5654,,1665762006,312740087,'',,,-7.77,6.87,1.29,,0.0,0.0,0.0,1.0
1665762006412896202,,5655,,1665762006,412276029,'',,,-7.78,6.87,1.34,,0.0,0.0,0.0,1.0
1665762006512747908,,5656,,1665762006,512212038,'',,,-7.79,6.89,1.35,,0.0,0.0,0.0,1.0
1665762006613282986,,5657,,1665762006,612720966,'',,,-7.81,6.9,1.33,,0.0,0.0,0.0,1.0
1665762006713314776,,5658,,1665762006,712639093,'',,,-7.79,6.88,1.22,,0.0,0.0,0.0,1.0
1665762006813396272,,5659,,1665762006,812793016,'',,,-7.8,6.89,1.04,,0.0,0.0,0.0,1.0
1665762006913018120,,5660,,1665762006,912467002,'',,,-7.8,6.9,1.06,,0.0,0.0,0.0,1.0
1665762007012897469,,5661,,1665762007,12301921,'',,,-7.8,6.9,1.16,,0.0,0.0,0.0,1.0
1665762007113290856,,5662,,1665762007,112221002,'',,,-7.79,6.89,1.29,,0.0,0.0,0.0,1.0
1665762007213617747,,5663,,1665762007,213037967,'',,,-7.8,6.9,1.15,,0.0,0.0,0.0,1.0
1665762007312746760,,5664,,1665762007,312244892,'',,,-7.8,6.89,1.22,,0.0,0.0,0.0,1.0
1665762007413219274,,5665,,1665762007,412553071,'',,,-7.81,6.89,1.23,,0.0,0.0,0.0,1.0
1665762007513377419,,5666,,1665762007,512777090,'',,,-7.81,6.9,1.32,,0.0,0.0,0.0,1.0
1665762007612906842,,5667,,1665762007,612399101,'',,,-7.8,6.89,1.36,,0.0,0.0,0.0,1.0
1665762007713607013,,5668,,1665762007,712599039,'',,,-7.8,6.9,1.41,,0.0,0.0,0.0,1.0
1665762007813176824,,5669,,1665762007,812727928,'',,,-7.79,6.89,1.26,,0.0,0.0,0.0,1.0
1665762007912700528,,5670,,1665762007,912338018,'',,,-7.8,6.88,1.28,,0.0,0.0,0.0,1.0
1665762008013322200,,5671,,1665762008,12708902,'',,,-7.8,6.89,1.41,,0.0,0.0,0.0,1.0
1665762008112690508,,5672,,1665762008,112328052,'',,,-7.8,6.9,1.33,,0.0,0.0,0.0,1.0
1665762008213050712,,5673,,1665762008,212348937,'',,,-7.81,6.93,1.38,,0.0,0.0,0.0,1.0
1665762008312620315,,5674,,1665762008,312213897,'',,,-7.81,6.93,1.35,,0.0,0.0,0.0,1.0
1665762008414186565,,5675,,1665762008,412595033,'',,,-7.81,6.93,1.31,,0.0,0.0,0.0,1.0
1665762008512689130,,5676,,1665762008,512411117,'',,,-7.81,6.91,1.19,,0.0,0.0,0.0,1.0
1665762008613213004,,5677,,1665762008,612586975,'',,,-7.8,6.88,1.14,,0.0,0.0,0.0,1.0
1665762008712994025,,5678,,1665762008,712445020,'',,,-7.8,6.89,1.17,,0.0,0.0,0.0,1.0
1665762008813004597,,5679,,1665762008,812414884,'',,,-7.8,6.89,1.23,,0.0,0.0,0.0,1.0
1665762008912989586,,5680,,1665762008,912343978,'',,,-7.82,6.89,1.19,,0.0,0.0,0.0,1.0
1665762009013545925,,5681,,1665762009,12804985,'',,,-7.8,6.87,1.1,,0.0,0.0,0.0,1.0
1665762009113051097,,5682,,1665762009,112354993,'',,,-7.79,6.88,1.16,,0.0,0.0,0.0,1.0
1665762009213281050,,5683,,1665762009,212439060,'',,,-7.79,6.89,1.24,,0.0,0.0,0.0,1.0
1665762009313029856,,5684,,1665762009,312509059,'',,,-7.79,6.88,1.34,,0.0,0.0,0.0,1.0
1665762009413308548,,5685,,1665762009,412723064,'',,,-7.8,6.9,1.16,,0.0,0.0,0.0,1.0
1665762009513297461,,5686,,1665762009,512676954,'',,,-7.78,6.87,1.07,,0.0,0.0,0.0,1.0
1665762009613509908,,5687,,1665762009,612797975,'',,,-7.79,6.84,1.02,,0.0,0.0,0.0,1.0
1665762009712529601,,5688,,1665762009,712189912,'',,,-7.79,6.86,1.06,,0.0,0.0,0.0,1.0
1665762009813534997,,5689,,1665762009,812931060,'',,,-7.78,6.84,0.98,,0.0,0.0,0.0,1.0
1665762009913352817,,5690,,1665762009,912595987,'',,,-7.79,6.87,1.08,,0.0,0.0,0.0,1.0
1665762010013208146,,5691,,1665762010,12340068,'',,,-7.79,6.85,0.99,,0.0,0.0,0.0,1.0
1665762010113326231,,5692,,1665762010,112811088,'',,,-7.8,6.87,0.9,,0.0,0.0,0.0,1.0
1665762010213148957,,5693,,1665762010,212594032,'',,,-7.8,6.85,0.91,,0.0,0.0,0.0,1.0
1665762010312792286,,5694,,1665762010,312253952,'',,,-7.81,6.87,0.98,,0.0,0.0,0.0,1.0
1665762010413031276,,5695,,1665762010,412523031,'',,,-7.79,6.86,0.97,,0.0,0.0,0.0,1.0
1665762010513459919,,5696,,1665762010,512795925,'',,,-7.78,6.85,0.93,,0.0,0.0,0.0,1.0
1665762010612899095,,5697,,1665762010,612404108,'',,,-7.8,6.86,1.08,,0.0,0.0,0.0,1.0
1665762010707456599,,5698,,1665762010,706104993,'',,,-7.81,6.87,1.15,,0.0,0.0,0.0,1.0
1665762010813418045,,5699,,1665762010,812906980,'',,,-7.81,6.88,1.26,,0.0,0.0,0.0,1.0
1665762010913023513,,5700,,1665762010,912556886,'',,,-7.8,6.86,1.15,,0.0,0.0,0.0,1.0
1665762011006578735,,5701,,1665762011,6068944,'',,,-7.79,6.88,1.18,,0.0,0.0,0.0,1.0
1665762011113096763,,5702,,1665762011,112709999,'',,,-7.77,6.85,1.11,,0.0,0.0,0.0,1.0
1665762011213553413,,5703,,1665762011,212909936,'',,,-7.77,6.83,1.07,,0.0,0.0,0.0,1.0
1665762011306845074,,5704,,1665762011,306090116,'',,,-7.79,6.86,1.06,,0.0,0.0,0.0,1.0
1665762011413341213,,5705,,1665762011,412744998,'',,,-7.79,6.88,1.22,,0.0,0.0,0.0,1.0
1665762011513977339,,5706,,1665762011,512437105,'',,,-7.79,6.88,1.25,,0.0,0.0,0.0,1.0
1665762011606612533,,5707,,1665762011,606091022,'',,,-7.81,6.89,1.18,,0.0,0.0,0.0,1.0
1665762011713253605,,5708,,1665762011,712564945,'',,,-7.81,6.89,1.33,,0.0,0.0,0.0,1.0
1665762011812712499,,5709,,1665762011,812469005,'',,,-7.81,6.91,1.36,,0.0,0.0,0.0,1.0
1665762011906708942,,5710,,1665762011,906318902,'',,,-7.8,6.88,1.24,,0.0,0.0,0.0,1.0
1665762012013234340,,5711,,1665762012,12567043,'',,,-7.81,6.89,1.24,,0.0,0.0,0.0,1.0
1665762012112872068,,5712,,1665762012,112529039,'',,,-7.79,6.88,1.16,,0.0,0.0,0.0,1.0
1665762012206823275,,5713,,1665762012,206346988,'',,,-7.78,6.86,1.11,,0.0,0.0,0.0,1.0
1665762012312928096,,5714,,1665762012,312572002,'',,,-7.79,6.87,1.31,,0.0,0.0,0.0,1.0
1665762012412936300,,5715,,1665762012,412410974,'',,,-7.79,6.88,1.41,,0.0,0.0,0.0,1.0
1665762012506995115,,5716,,1665762012,506046056,'',,,-7.8,6.89,1.4,,0.0,0.0,0.0,1.0
1665762012613636784,,5717,,1665762012,612915992,'',,,-7.81,6.9,1.42,,0.0,0.0,0.0,1.0
1665762012713045677,,5718,,1665762012,712256908,'',,,-7.82,6.89,1.4,,0.0,0.0,0.0,1.0
1665762012806455914,,5719,,1665762012,806024074,'',,,-7.83,6.9,1.35,,0.0,0.0,0.0,1.0
1665762012913099733,,5720,,1665762012,912543058,'',,,-7.82,6.9,1.46,,0.0,0.0,0.0,1.0
1665762013012722275,,5721,,1665762013,12202024,'',,,-7.82,6.9,1.38,,0.0,0.0,0.0,1.0
1665762013107168419,,5722,,1665762013,106213092,'',,,-7.82,6.9,1.28,,0.0,0.0,0.0,1.0
1665762013213216115,,5723,,1665762013,212552070,'',,,-7.82,6.91,1.27,,0.0,0.0,0.0,1.0
1665762013312814945,,5724,,1665762013,312294006,'',,,-7.82,6.9,1.23,,0.0,0.0,0.0,1.0
1665762013406980005,,5725,,1665762013,406449079,'',,,-7.81,6.88,1.14,,0.0,0.0,0.0,1.0
1665762013513213728,,5726,,1665762013,512573003,'',,,-7.81,6.89,1.2,,0.0,0.0,0.0,1.0
1665762013613155745,,5727,,1665762013,612633943,'',,,-7.79,6.87,1.09,,0.0,0.0,0.0,1.0
1665762013706801922,,5728,,1665762013,706167936,'',,,-7.79,6.88,1.16,,0.0,0.0,0.0,1.0
1665762013813243391,,5729,,1665762013,812747955,'',,,-7.79,6.86,1.07,,0.0,0.0,0.0,1.0
1665762013913311284,,5730,,1665762013,912620067,'',,,-7.78,6.85,1.01,,0.0,0.0,0.0,1.0
1665762014006678245,,5731,,1665762014,6108999,'',,,-7.79,6.87,1.08,,0.0,0.0,0.0,1.0
1665762014113073813,,5732,,1665762014,112544059,'',,,-7.79,6.88,1.29,,0.0,0.0,0.0,1.0
1665762014213249767,,5733,,1665762014,212634086,'',,,-7.78,6.86,1.17,,0.0,0.0,0.0,1.0
1665762014306993284,,5734,,1665762014,306392908,'',,,-7.78,6.84,1.11,,0.0,0.0,0.0,1.0
1665762014414708380,,5735,,1665762014,412930011,'',,,-7.78,6.87,1.19,,0.0,0.0,0.0,1.0
1665762014512853380,,5736,,1665762014,512341022,'',,,-7.8,6.88,1.21,,0.0,0.0,0.0,1.0
1665762014607335567,,5737,,1665762014,606165885,'',,,-7.81,6.89,1.19,,0.0,0.0,0.0,1.0
1665762014713494380,,5738,,1665762014,712779998,'',,,-7.81,6.86,1.12,,0.0,0.0,0.0,1.0
1665762014813193518,,5739,,1665762014,812638998,'',,,-7.81,6.87,1.18,,0.0,0.0,0.0,1.0
1665762014906934169,,5740,,1665762014,906428098,'',,,-7.8,6.86,1.1,,0.0,0.0,0.0,1.0
1665762015012906844,,5741,,1665762015,12490987,'',,,-7.81,6.87,1.09,,0.0,0.0,0.0,1.0
1665762015112912256,,5742,,1665762015,112402915,'',,,-7.81,6.88,1.15,,0.0,0.0,0.0,1.0
1665762015206750467,,5743,,1665762015,206182956,'',,,-7.83,6.88,1.12,,0.0,0.0,0.0,1.0
1665762015313156664,,5744,,1665762015,312552928,'',,,-7.83,6.9,1.12,,0.0,0.0,0.0,1.0
1665762015412797277,,5745,,1665762015,412388086,'',,,-7.82,6.89,1.21,,0.0,0.0,0.0,1.0
1665762015506456894,,5746,,1665762015,506020069,'',,,-7.81,6.89,1.22,,0.0,0.0,0.0,1.0
1665762015613761985,,5747,,1665762015,613096952,'',,,-7.79,6.88,1.21,,0.0,0.0,0.0,1.0
1665762015713219706,,5748,,1665762015,712605953,'',,,-7.79,6.85,1.14,,0.0,0.0,0.0,1.0
1665762015812831205,,5749,,1665762015,812371969,'',,,-7.79,6.86,1.12,,0.0,0.0,0.0,1.0
1665762015913602297,,5750,,1665762015,912811994,'',,,-7.8,6.87,1.17,,0.0,0.0,0.0,1.0
1665762016013054934,,5751,,1665762016,12370109,'',,,-7.81,6.9,1.33,,0.0,0.0,0.0,1.0
1665762016106796036,,5752,,1665762016,106319904,'',,,-7.79,6.86,1.28,,0.0,0.0,0.0,1.0
1665762016212933789,,5753,,1665762016,212430953,'',,,-7.79,6.87,1.23,,0.0,0.0,0.0,1.0
1665762016314574178,,5754,,1665762016,313227891,'',,,-7.81,6.88,1.07,,0.0,0.0,0.0,1.0
1665762016407211756,,5755,,1665762016,406455039,'',,,-7.79,6.85,1.02,,0.0,0.0,0.0,1.0
1665762016513411019,,5756,,1665762016,512829065,'',,,-7.79,6.87,1.12,,0.0,0.0,0.0,1.0
1665762016613180080,,5757,,1665762016,612445116,'',,,-7.8,6.88,1.28,,0.0,0.0,0.0,1.0
1665762016706735271,,5758,,1665762016,706346035,'',,,-7.8,6.85,1.19,,0.0,0.0,0.0,1.0
1665762016813049657,,5759,,1665762016,812490940,'',,,-7.8,6.87,1.18,,0.0,0.0,0.0,1.0
1665762016913226688,,5760,,1665762016,912688970,'',,,-7.8,6.88,1.25,,0.0,0.0,0.0,1.0
1665762017006798418,,5761,,1665762017,6274938,'',,,-7.79,6.87,1.17,,0.0,0.0,0.0,1.0
1665762017113159246,,5762,,1665762017,112523078,'',,,-7.8,6.89,1.18,,0.0,0.0,0.0,1.0
1665762017212975041,,5763,,1665762017,212395906,'',,,-7.8,6.89,1.24,,0.0,0.0,0.0,1.0
1665762017313260464,,5764,,1665762017,312625885,'',,,-7.81,6.9,1.31,,0.0,0.0,0.0,1.0
1665762017413309487,,5765,,1665762017,412935018,'',,,-7.81,6.91,1.14,,0.0,0.0,0.0,1.0
1665762017513123902,,5766,,1665762017,512485027,'',,,-7.82,6.9,1.22,,0.0,0.0,0.0,1.0
1665762017613366486,,5767,,1665762017,612891912,'',,,-7.81,6.87,1.2,,0.0,0.0,0.0,1.0
1665762017712976473,,5768,,1665762017,712498903,'',,,-7.81,6.88,1.21,,0.0,0.0,0.0,1.0
1665762017812957234,,5769,,1665762017,812493085,'',,,-7.8,6.87,1.39,,0.0,0.0,0.0,1.0
1665762017913867885,,5770,,1665762017,913023948,'',,,-7.83,6.88,1.24,,0.0,0.0,0.0,1.0
1665762018013349199,,5771,,1665762018,12612104,'',,,-7.82,6.88,1.36,,0.0,0.0,0.0,1.0
1665762018112516140,,5772,,1665762018,112226009,'',,,-7.8,6.88,1.43,,0.0,0.0,0.0,1.0
1665762018206633828,,5773,,1665762018,206154108,'',,,-7.81,6.89,1.39,,0.0,0.0,0.0,1.0
1665762018312851594,,5774,,1665762018,312480926,'',,,-7.82,6.89,1.41,,0.0,0.0,0.0,1.0
1665762018413396297,,5775,,1665762018,412358045,'',,,-7.8,6.89,1.47,,0.0,0.0,0.0,1.0
1665762018506838485,,5776,,1665762018,506342887,'',,,-7.78,6.87,1.33,,0.0,0.0,0.0,1.0
1665762018613046854,,5777,,1665762018,612565994,'',,,-7.79,6.86,1.34,,0.0,0.0,0.0,1.0
1665762018713364068,,5778,,1665762018,712677955,'',,,-7.78,6.85,1.19,,0.0,0.0,0.0,1.0
1665762018807234967,,5779,,1665762018,806485891,'',,,-7.77,6.84,1.14,,0.0,0.0,0.0,1.0
1665762018912846884,,5780,,1665762018,912487983,'',,,-7.78,6.86,1.12,,0.0,0.0,0.0,1.0
1665762019013157804,,5781,,1665762019,12460947,'',,,-7.79,6.87,1.16,,0.0,0.0,0.0,1.0
1665762019113469399,,5782,,1665762019,113013029,'',,,-7.79,6.85,1.12,,0.0,0.0,0.0,1.0
1665762019214186475,,5783,,1665762019,212946891,'',,,-7.77,6.85,1.07,,0.0,0.0,0.0,1.0
1665762019313049770,,5784,,1665762019,312423944,'',,,-7.78,6.87,1.27,,0.0,0.0,0.0,1.0
1665762019413276408,,5785,,1665762019,412878990,'',,,-7.81,6.86,1.15,,0.0,0.0,0.0,1.0
1665762019513369576,,5786,,1665762019,512904882,'',,,-7.8,6.85,1.08,,0.0,0.0,0.0,1.0
1665762019613362159,,5787,,1665762019,612443923,'',,,-7.8,6.86,1.19,,0.0,0.0,0.0,1.0
1665762019714046780,,5788,,1665762019,712430953,'',,,-7.79,6.87,1.32,,0.0,0.0,0.0,1.0
1665762019813042539,,5789,,1665762019,812714099,'',,,-7.78,6.89,1.35,,0.0,0.0,0.0,1.0
1665762019913356396,,5790,,1665762019,912550926,'',,,-7.79,6.89,1.39,,0.0,0.0,0.0,1.0
1665762020012923297,,5791,,1665762020,12489080,'',,,-7.8,6.89,1.42,,0.0,0.0,0.0,1.0
1665762020113331766,,5792,,1665762020,112876892,'',,,-7.8,6.91,1.44,,0.0,0.0,0.0,1.0
1665762020213493558,,5793,,1665762020,212925910,'',,,-7.82,6.9,1.26,,0.0,0.0,0.0,1.0
1665762020306880139,,5794,,1665762020,306158065,'',,,-7.83,6.9,1.22,,0.0,0.0,0.0,1.0
1665762020413066303,,5795,,1665762020,412679910,'',,,-7.83,6.9,1.28,,0.0,0.0,0.0,1.0
1665762020513145083,,5796,,1665762020,512456893,'',,,-7.83,6.91,1.25,,0.0,0.0,0.0,1.0
1665762020606758272,,5797,,1665762020,606153011,'',,,-7.84,6.91,1.21,,0.0,0.0,0.0,1.0
1665762020713230871,,5798,,1665762020,712810039,'',,,-7.81,6.89,1.1,,0.0,0.0,0.0,1.0
1665762020813925322,,5799,,1665762020,812807083,'',,,-7.79,6.87,1.03,,0.0,0.0,0.0,1.0
1665762020907238947,,5800,,1665762020,906147956,'',,,-7.79,6.86,1.21,,0.0,0.0,0.0,1.0
1665762021013334463,,5801,,1665762021,12681007,'',,,-7.78,6.88,1.19,,0.0,0.0,0.0,1.0
1665762021113138281,,5802,,1665762021,112344980,'',,,-7.79,6.88,1.15,,0.0,0.0,0.0,1.0
1665762021206696600,,5803,,1665762021,206352949,'',,,-7.77,6.86,1.12,,0.0,0.0,0.0,1.0
1665762021313555664,,5804,,1665762021,312956094,'',,,-7.78,6.89,1.25,,0.0,0.0,0.0,1.0
1665762021413211928,,5805,,1665762021,412686109,'',,,-7.78,6.87,1.12,,0.0,0.0,0.0,1.0
1665762021506835618,,5806,,1665762021,506211042,'',,,-7.79,6.87,1.24,,0.0,0.0,0.0,1.0
1665762021613098049,,5807,,1665762021,612612962,'',,,-7.79,6.87,1.3,,0.0,0.0,0.0,1.0
1665762021712951884,,5808,,1665762021,712505102,'',,,-7.79,6.88,1.32,,0.0,0.0,0.0,1.0
1665762021807008074,,5809,,1665762021,806600093,'',,,-7.78,6.86,1.2,,0.0,0.0,0.0,1.0
1665762021913286352,,5810,,1665762021,912688970,'',,,-7.77,6.87,1.37,,0.0,0.0,0.0,1.0
1665762022013021986,,5811,,1665762022,12357950,'',,,-7.78,6.89,1.48,,0.0,0.0,0.0,1.0
1665762022106611393,,5812,,1665762022,106081962,'',,,-7.8,6.9,1.4,,0.0,0.0,0.0,1.0
1665762022212666233,,5813,,1665762022,212394952,'',,,-7.81,6.91,1.35,,0.0,0.0,0.0,1.0
1665762022313890811,,5814,,1665762022,312531948,'',,,-7.81,6.91,1.32,,0.0,0.0,0.0,1.0
1665762022414139843,,5815,,1665762022,413109064,'',,,-7.79,6.89,1.29,,0.0,0.0,0.0,1.0
1665762022513340231,,5816,,1665762022,512876033,'',,,-7.78,6.9,1.34,,0.0,0.0,0.0,1.0
1665762022613399351,,5817,,1665762022,612783908,'',,,-7.78,6.88,1.23,,0.0,0.0,0.0,1.0
1665762022713533321,,5818,,1665762022,712743043,'',,,-7.8,6.89,1.31,,0.0,0.0,0.0,1.0
1665762022813504402,,5819,,1665762022,812979936,'',,,-7.81,6.91,1.43,,0.0,0.0,0.0,1.0
1665762022913530427,,5820,,1665762022,912919998,'',,,-7.82,6.9,1.42,,0.0,0.0,0.0,1.0
1665762023013007372,,5821,,1665762023,12413978,'',,,-7.82,6.91,1.39,,0.0,0.0,0.0,1.0
1665762023113046576,,5822,,1665762023,112710952,'',,,-7.81,6.89,1.26,,0.0,0.0,0.0,1.0
1665762023213463655,,5823,,1665762023,212412118,'',,,-7.81,6.88,1.25,,0.0,0.0,0.0,1.0
1665762023312631206,,5824,,1665762023,312242031,'',,,-7.81,6.87,1.26,,0.0,0.0,0.0,1.0
