rosbagTimestamp,header,seq,stamp,secs,nsecs,frame_id,pose,position,x,y,z,orientation,x,y,z,w
1665762050922440461,,6078,,1665762050,921886920,'',,,-7.9,6.01,1.13,,0.0,0.0,0.0,1.0
1665762051022388476,,6079,,1665762051,21816968,'',,,-7.9,6.03,1.19,,0.0,0.0,0.0,1.0
1665762051122407232,,6080,,1665762051,121793031,'',,,-7.9,6.04,1.29,,0.0,0.0,0.0,1.0
1665762051222484330,,6081,,1665762051,221949100,'',,,-7.91,6.05,1.35,,0.0,0.0,0.0,1.0
1665762051321740376,,6082,,1665762051,321441888,'',,,-7.9,6.05,1.48,,0.0,0.0,0.0,1.0
1665762051421853675,,6083,,1665762051,421391010,'',,,-7.91,6.05,1.41,,0.0,0.0,0.0,1.0
1665762051522132888,,6084,,1665762051,521596908,'',,,-7.92,6.05,1.36,,0.0,0.0,0.0,1.0
1665762051622155875,,6085,,1665762051,621711015,'',,,-7.93,6.07,1.38,,0.0,0.0,0.0,1.0
1665762051715799106,,6086,,1665762051,715410947,'',,,-7.91,6.04,1.26,,0.0,0.0,0.0,1.0
1665762051815697866,,6087,,1665762051,815114974,'',,,-7.93,6.02,1.13,,0.0,0.0,0.0,1.0
1665762051922471234,,6088,,1665762051,921822071,'',,,-7.91,6.0,1.06,,0.0,0.0,0.0,1.0
1665762052021769298,,6089,,1665762052,21454095,'',,,-7.9,6.01,1.24,,0.0,0.0,0.0,1.0
1665762052122015871,,6090,,1665762052,121593952,'',,,-7.9,6.02,1.32,,0.0,0.0,0.0,1.0
1665762052222022124,,6091,,1665762052,221685886,'',,,-7.91,6.04,1.35,,0.0,0.0,0.0,1.0
1665762052322042378,,6092,,1665762052,321422100,'',,,-7.91,6.05,1.3,,0.0,0.0,0.0,1.0
1665762052422587922,,6093,,1665762052,422018051,'',,,-7.9,6.03,1.2,,0.0,0.0,0.0,1.0
1665762052521908067,,6094,,1665762052,521469116,'',,,-7.9,6.03,1.33,,0.0,0.0,0.0,1.0
1665762052622373697,,6095,,1665762052,621778964,'',,,-7.9,6.04,1.38,,0.0,0.0,0.0,1.0
1665762052722977930,,6096,,1665762052,721590042,'',,,-7.9,6.04,1.29,,0.0,0.0,0.0,1.0
1665762052822485339,,6097,,1665762052,821804046,'',,,-7.9,6.01,1.23,,0.0,0.0,0.0,1.0
1665762052922077355,,6098,,1665762052,921552896,'',,,-7.89,6.03,1.27,,0.0,0.0,0.0,1.0
1665762053023125625,,6099,,1665762053,22027015,'',,,-7.89,6.0,1.22,,0.0,0.0,0.0,1.0
1665762053122114527,,6100,,1665762053,121536016,'',,,-7.88,6.01,1.3,,0.0,0.0,0.0,1.0
1665762053222255459,,6101,,1665762053,221873044,'',,,-7.88,5.99,1.18,,0.0,0.0,0.0,1.0
1665762053322491263,,6102,,1665762053,321530103,'',,,-7.88,6.0,1.24,,0.0,0.0,0.0,1.0
1665762053423311957,,6103,,1665762053,421828985,'',,,-7.87,5.99,1.17,,0.0,0.0,0.0,1.0
1665762053521980059,,6104,,1665762053,521502017,'',,,-7.88,6.02,1.18,,0.0,0.0,0.0,1.0
1665762053622106638,,6105,,1665762053,621622085,'',,,-7.89,6.02,1.2,,0.0,0.0,0.0,1.0
1665762053722058310,,6106,,1665762053,721585035,'',,,-7.89,6.01,1.28,,0.0,0.0,0.0,1.0
1665762053822072369,,6107,,1665762053,821590900,'',,,-7.9,6.02,1.23,,0.0,0.0,0.0,1.0
1665762053921934141,,6108,,1665762053,921513080,'',,,-7.92,6.03,1.21,,0.0,0.0,0.0,1.0
1665762054022011844,,6109,,1665762054,21528005,'',,,-7.92,6.03,1.19,,0.0,0.0,0.0,1.0
1665762054121971927,,6110,,1665762054,121570110,'',,,-7.93,6.04,1.2,,0.0,0.0,0.0,1.0
1665762054222507040,,6111,,1665762054,221604108,'',,,-7.93,6.05,1.22,,0.0,0.0,0.0,1.0
1665762054322085290,,6112,,1665762054,321693897,'',,,-7.93,6.06,1.26,,0.0,0.0,0.0,1.0
1665762054423239464,,6113,,1665762054,421690940,'',,,-7.92,6.02,1.15,,0.0,0.0,0.0,1.0
1665762054522657146,,6114,,1665762054,521594047,'',,,-7.93,6.03,1.17,,0.0,0.0,0.0,1.0
1665762054621977916,,6115,,1665762054,621463060,'',,,-7.93,6.04,1.17,,0.0,0.0,0.0,1.0
1665762054722320433,,6116,,1665762054,721673965,'',,,-7.93,6.03,1.19,,0.0,0.0,0.0,1.0
1665762054822365240,,6117,,1665762054,821892976,'',,,-7.93,6.05,1.21,,0.0,0.0,0.0,1.0
1665762054922123826,,6118,,1665762054,921749114,'',,,-7.93,6.05,1.26,,0.0,0.0,0.0,1.0
1665762055021878255,,6119,,1665762055,21500110,'',,,-7.92,6.04,1.31,,0.0,0.0,0.0,1.0
1665762055122422295,,6120,,1665762055,121651887,'',,,-7.93,6.04,1.23,,0.0,0.0,0.0,1.0
1665762055221855256,,6121,,1665762055,221457004,'',,,-7.92,6.03,1.28,,0.0,0.0,0.0,1.0
1665762055321832763,,6122,,1665762055,321439981,'',,,-7.92,6.04,1.34,,0.0,0.0,0.0,1.0
1665762055421812863,,6123,,1665762055,421513080,'',,,-7.92,6.05,1.29,,0.0,0.0,0.0,1.0
1665762055521947309,,6124,,1665762055,521523952,'',,,-7.93,6.07,1.29,,0.0,0.0,0.0,1.0
1665762055622208830,,6125,,1665762055,621546030,'',,,-7.93,6.05,1.27,,0.0,0.0,0.0,1.0
1665762055721905509,,6126,,1665762055,721529960,'',,,-7.93,6.07,1.24,,0.0,0.0,0.0,1.0
1665762055822391830,,6127,,1665762055,821604967,'',,,-7.92,6.08,1.25,,0.0,0.0,0.0,1.0
1665762055922546313,,6128,,1665762055,921751976,'',,,-7.92,6.07,1.35,,0.0,0.0,0.0,1.0
1665762056022437203,,6129,,1665762056,21765947,'',,,-7.93,6.07,1.28,,0.0,0.0,0.0,1.0
1665762056122410982,,6130,,1665762056,121834993,'',,,-7.93,6.07,1.32,,0.0,0.0,0.0,1.0
1665762056222395621,,6131,,1665762056,221571922,'',,,-7.92,6.06,1.28,,0.0,0.0,0.0,1.0
1665762056322628156,,6132,,1665762056,322029113,'',,,-7.92,6.06,1.35,,0.0,0.0,0.0,1.0
1665762056422143695,,6133,,1665762056,421788930,'',,,-7.92,6.03,1.21,,0.0,0.0,0.0,1.0
1665762056522754907,,6134,,1665762056,521586894,'',,,-7.93,6.04,1.22,,0.0,0.0,0.0,1.0
1665762056621999261,,6135,,1665762056,621563911,'',,,-7.93,6.04,1.18,,0.0,0.0,0.0,1.0
1665762056722134186,,6136,,1665762056,721721887,'',,,-7.93,6.06,1.27,,0.0,0.0,0.0,1.0
1665762056822122780,,6137,,1665762056,821621894,'',,,-7.93,6.06,1.22,,0.0,0.0,0.0,1.0
1665762056922252603,,6138,,1665762056,921883106,'',,,-7.93,6.07,1.26,,0.0,0.0,0.0,1.0
1665762057022199508,,6139,,1665762057,21720886,'',,,-7.94,6.07,1.26,,0.0,0.0,0.0,1.0
1665762057122026689,,6140,,1665762057,121545076,'',,,-7.94,6.07,1.23,,0.0,0.0,0.0,1.0
1665762057222212476,,6141,,1665762057,221843957,'',,,-7.93,6.07,1.26,,0.0,0.0,0.0,1.0
1665762057322026927,,6142,,1665762057,321593999,'',,,-7.94,6.07,1.22,,0.0,0.0,0.0,1.0
1665762057422395698,,6143,,1665762057,421633005,'',,,-7.94,6.07,1.17,,0.0,0.0,0.0,1.0
1665762057522994595,,6144,,1665762057,521683931,'',,,-7.93,6.06,1.28,,0.0,0.0,0.0,1.0
1665762057622145382,,6145,,1665762057,621660947,'',,,-7.91,6.07,1.28,,0.0,0.0,0.0,1.0
1665762057721896893,,6146,,1665762057,721473932,'',,,-7.92,6.07,1.3,,0.0,0.0,0.0,1.0
1665762057822199951,,6147,,1665762057,821655035,'',,,-7.92,6.06,1.26,,0.0,0.0,0.0,1.0
1665762057921953117,,6148,,1665762057,921540975,'',,,-7.91,6.07,1.25,,0.0,0.0,0.0,1.0
1665762058022358227,,6149,,1665762058,21615028,'',,,-7.92,6.09,1.24,,0.0,0.0,0.0,1.0
1665762058122177181,,6150,,1665762058,121674060,'',,,-7.93,6.08,1.19,,0.0,0.0,0.0,1.0
1665762058222361868,,6151,,1665762058,221657037,'',,,-7.91,6.07,1.3,,0.0,0.0,0.0,1.0
1665762058321931162,,6152,,1665762058,321569919,'',,,-7.92,6.06,1.32,,0.0,0.0,0.0,1.0
1665762058421932495,,6153,,1665762058,421552896,'',,,-7.91,6.05,1.42,,0.0,0.0,0.0,1.0
1665762058521690378,,6154,,1665762058,521415948,'',,,-7.91,6.05,1.33,,0.0,0.0,0.0,1.0
1665762058622103900,,6155,,1665762058,621612071,'',,,-7.93,6.06,1.37,,0.0,0.0,0.0,1.0
1665762058722228531,,6156,,1665762058,721700906,'',,,-7.92,6.07,1.43,,0.0,0.0,0.0,1.0
1665762058822519999,,6157,,1665762058,821775913,'',,,-7.92,6.06,1.37,,0.0,0.0,0.0,1.0
1665762058922129212,,6158,,1665762058,921526908,'',,,-7.93,6.07,1.32,,0.0,0.0,0.0,1.0
1665762059023059974,,6159,,1665762059,22202968,'',,,-7.96,6.05,1.28,,0.0,0.0,0.0,1.0
1665762059122202339,,6160,,1665762059,121635913,'',,,-7.96,6.04,1.27,,0.0,0.0,0.0,1.0
1665762059221832317,,6161,,1665762059,221460103,'',,,-7.95,6.04,1.2,,0.0,0.0,0.0,1.0
1665762059323051831,,6162,,1665762059,321954965,'',,,-7.94,6.02,1.1,,0.0,0.0,0.0,1.0
1665762059421887735,,6163,,1665762059,421468019,'',,,-7.93,6.02,1.16,,0.0,0.0,0.0,1.0
1665762059522448405,,6164,,1665762059,521673917,'',,,-7.93,6.03,1.21,,0.0,0.0,0.0,1.0
1665762059621999163,,6165,,1665762059,621568918,'',,,-7.92,6.06,1.25,,0.0,0.0,0.0,1.0
1665762059722444482,,6166,,1665762059,721748113,'',,,-7.92,6.05,1.37,,0.0,0.0,0.0,1.0
1665762059822697473,,6167,,1665762059,821969032,'',,,-7.92,6.06,1.3,,0.0,0.0,0.0,1.0
1665762059922152874,,6168,,1665762059,921663999,'',,,-7.93,6.05,1.33,,0.0,0.0,0.0,1.0
1665762060021889025,,6169,,1665762060,21567106,'',,,-7.93,6.05,1.24,,0.0,0.0,0.0,1.0
1665762060121929835,,6170,,1665762060,121515035,'',,,-7.94,6.06,1.19,,0.0,0.0,0.0,1.0
1665762060222374366,,6171,,1665762060,221800088,'',,,-7.93,6.08,1.19,,0.0,0.0,0.0,1.0
1665762060322237247,,6172,,1665762060,321686983,'',,,-7.91,6.05,1.33,,0.0,0.0,0.0,1.0
1665762060422096420,,6173,,1665762060,421683073,'',,,-7.92,6.05,1.29,,0.0,0.0,0.0,1.0
1665762060522435873,,6174,,1665762060,521687030,'',,,-7.92,6.04,1.36,,0.0,0.0,0.0,1.0
1665762060622446233,,6175,,1665762060,621917963,'',,,-7.93,6.05,1.35,,0.0,0.0,0.0,1.0
1665762060722382220,,6176,,1665762060,721884965,'',,,-7.93,6.07,1.38,,0.0,0.0,0.0,1.0
1665762060822130400,,6177,,1665762060,821650028,'',,,-7.92,6.06,1.32,,0.0,0.0,0.0,1.0
1665762060922471580,,6178,,1665762060,921947002,'',,,-7.91,6.06,1.3,,0.0,0.0,0.0,1.0
1665762061022443372,,6179,,1665762061,21884918,'',,,-7.9,6.04,1.21,,0.0,0.0,0.0,1.0
1665762061122544581,,6180,,1665762061,122009038,'',,,-7.89,6.02,1.13,,0.0,0.0,0.0,1.0
1665762061222120333,,6181,,1665762061,221657991,'',,,-7.9,6.03,1.11,,0.0,0.0,0.0,1.0
1665762061322034870,,6182,,1665762061,321588039,'',,,-7.91,6.03,1.13,,0.0,0.0,0.0,1.0
1665762061422787775,,6183,,1665762061,421866893,'',,,-7.9,6.03,1.19,,0.0,0.0,0.0,1.0
1665762061522718666,,6184,,1665762061,521692037,'',,,-7.91,6.03,1.13,,0.0,0.0,0.0,1.0
1665762061623327782,,6185,,1665762061,621850013,'',,,-7.91,6.02,1.16,,0.0,0.0,0.0,1.0
1665762061722299944,,6186,,1665762061,721676111,'',,,-7.91,6.03,1.2,,0.0,0.0,0.0,1.0
1665762061822300267,,6187,,1665762061,821702957,'',,,-7.92,6.03,1.16,,0.0,0.0,0.0,1.0
1665762061922306403,,6188,,1665762061,921926021,'',,,-7.92,6.0,1.07,,0.0,0.0,0.0,1.0
1665762062022548309,,6189,,1665762062,21986007,'',,,-7.92,6.02,1.12,,0.0,0.0,0.0,1.0
1665762062122321968,,6190,,1665762062,121702909,'',,,-7.93,6.03,1.13,,0.0,0.0,0.0,1.0
1665762062222115036,,6191,,1665762062,221612930,'',,,-7.93,6.04,1.14,,0.0,0.0,0.0,1.0
1665762062321974411,,6192,,1665762062,321613073,'',,,-7.93,6.04,1.19,,0.0,0.0,0.0,1.0
1665762062422276216,,6193,,1665762062,421773910,'',,,-7.92,6.04,1.3,,0.0,0.0,0.0,1.0
1665762062523080800,,6194,,1665762062,521708011,'',,,-7.91,6.03,1.4,,0.0,0.0,0.0,1.0
1665762062622664308,,6195,,1665762062,622071027,'',,,-7.91,6.01,1.27,,0.0,0.0,0.0,1.0
1665762062722266968,,6196,,1665762062,721630096,'',,,-7.91,6.02,1.26,,0.0,0.0,0.0,1.0
1665762062822452427,,6197,,1665762062,822007894,'',,,-7.91,6.0,1.19,,0.0,0.0,0.0,1.0
1665762062922313213,,6198,,1665762062,921734094,'',,,-7.91,6.02,1.21,,0.0,0.0,0.0,1.0
1665762063021880178,,6199,,1665762063,21509885,'',,,-7.9,6.02,1.37,,0.0,0.0,0.0,1.0
1665762063122183955,,6200,,1665762063,121638059,'',,,-7.91,6.03,1.33,,0.0,0.0,0.0,1.0
1665762063222618881,,6201,,1665762063,222091913,'',,,-7.89,6.0,1.26,,0.0,0.0,0.0,1.0
1665762063322178666,,6202,,1665762063,321624040,'',,,-7.91,6.02,1.22,,0.0,0.0,0.0,1.0
1665762063422449840,,6203,,1665762063,421857118,'',,,-7.91,6.0,1.13,,0.0,0.0,0.0,1.0
1665762063522415059,,6204,,1665762063,522023916,'',,,-7.89,5.99,1.06,,0.0,0.0,0.0,1.0
1665762063623372188,,6205,,1665762063,621589899,'',,,-7.9,6.01,1.08,,0.0,0.0,0.0,1.0
1665762063722313757,,6206,,1665762063,721795082,'',,,-7.91,6.02,1.17,,0.0,0.0,0.0,1.0
1665762063822475265,,6207,,1665762063,821777105,'',,,-7.91,6.03,1.17,,0.0,0.0,0.0,1.0
1665762063922392585,,6208,,1665762063,921678066,'',,,-7.92,6.04,1.24,,0.0,0.0,0.0,1.0
1665762064022309600,,6209,,1665762064,21821975,'',,,-7.91,6.01,1.13,,0.0,0.0,0.0,1.0
1665762064122231160,,6210,,1665762064,121712923,'',,,-7.91,6.03,1.22,,0.0,0.0,0.0,1.0
1665762064222516391,,6211,,1665762064,221939086,'',,,-7.91,6.04,1.3,,0.0,0.0,0.0,1.0
1665762064322034879,,6212,,1665762064,321652889,'',,,-7.91,6.03,1.34,,0.0,0.0,0.0,1.0
1665762064421894950,,6213,,1665762064,421586036,'',,,-7.91,6.05,1.32,,0.0,0.0,0.0,1.0
1665762064522537647,,6214,,1665762064,521698951,'',,,-7.92,6.05,1.37,,0.0,0.0,0.0,1.0
1665762064622703760,,6215,,1665762064,622056007,'',,,-7.91,6.03,1.27,,0.0,0.0,0.0,1.0
1665762064722561726,,6216,,1665762064,721987962,'',,,-7.92,6.03,1.34,,0.0,0.0,0.0,1.0
1665762064822232315,,6217,,1665762064,821791887,'',,,-7.92,6.05,1.32,,0.0,0.0,0.0,1.0
1665762064922148340,,6218,,1665762064,921675920,'',,,-7.92,6.05,1.28,,0.0,0.0,0.0,1.0
1665762065022186572,,6219,,1665762065,21722078,'',,,-7.91,6.03,1.36,,0.0,0.0,0.0,1.0
1665762065122903678,,6220,,1665762065,121731042,'',,,-7.91,6.0,1.24,,0.0,0.0,0.0,1.0
1665762065222200823,,6221,,1665762065,221725940,'',,,-7.93,6.02,1.25,,0.0,0.0,0.0,1.0
1665762065322524522,,6222,,1665762065,321964025,'',,,-7.93,6.04,1.23,,0.0,0.0,0.0,1.0
1665762065422941551,,6223,,1665762065,422048091,'',,,-7.92,6.06,1.28,,0.0,0.0,0.0,1.0
1665762065522258349,,6224,,1665762065,521697044,'',,,-7.93,6.06,1.23,,0.0,0.0,0.0,1.0
1665762065622132515,,6225,,1665762065,621722936,'',,,-7.92,6.06,1.26,,0.0,0.0,0.0,1.0
1665762065722411375,,6226,,1665762065,721935987,'',,,-7.91,6.02,1.17,,0.0,0.0,0.0,1.0
1665762065822329633,,6227,,1665762065,821723937,'',,,-7.91,6.02,1.14,,0.0,0.0,0.0,1.0
1665762065922581941,,6228,,1665762065,921791076,'',,,-7.91,6.03,1.28,,0.0,0.0,0.0,1.0
1665762066022396042,,6229,,1665762066,21831989,'',,,-7.91,6.05,1.32,,0.0,0.0,0.0,1.0
1665762066122366314,,6230,,1665762066,121771097,'',,,-7.92,6.05,1.24,,0.0,0.0,0.0,1.0
1665762066215606450,,6231,,1665762066,215192079,'',,,-7.91,6.05,1.02,,0.0,0.0,0.0,1.0
1665762066321985417,,6232,,1665762066,321537017,'',,,-7.91,6.05,1.02,,0.0,0.0,0.0,1.0
1665762066421966816,,6233,,1665762066,421600103,'',,,-7.9,6.04,1.13,,0.0,0.0,0.0,1.0
1665762066522842938,,6234,,1665762066,522106885,'',,,-7.89,6.02,1.05,,0.0,0.0,0.0,1.0
1665762066622703896,,6235,,1665762066,622025966,'',,,-7.9,6.0,1.03,,0.0,0.0,0.0,1.0
1665762066721968959,,6236,,1665762066,721518993,'',,,-7.91,6.01,1.04,,0.0,0.0,0.0,1.0
1665762066822465109,,6237,,1665762066,821775913,'',,,-7.92,6.03,1.05,,0.0,0.0,0.0,1.0
1665762066922507196,,6238,,1665762066,921996116,'',,,-7.91,6.04,1.18,,0.0,0.0,0.0,1.0
1665762067022073843,,6239,,1665762067,21734952,'',,,-7.91,6.03,1.23,,0.0,0.0,0.0,1.0
1665762067123042838,,6240,,1665762067,121849060,'',,,-7.9,6.03,1.33,,0.0,0.0,0.0,1.0
1665762067222634392,,6241,,1665762067,222040891,'',,,-7.89,6.01,1.2,,0.0,0.0,0.0,1.0
1665762067316227556,,6242,,1665762067,315150022,'',,,-7.91,6.03,1.23,,0.0,0.0,0.0,1.0
1665762067422647166,,6243,,1665762067,422149896,'',,,-7.89,6.02,1.14,,0.0,0.0,0.0,1.0
1665762067522218002,,6244,,1665762067,521728038,'',,,-7.9,6.03,1.23,,0.0,0.0,0.0,1.0
1665762067622677345,,6245,,1665762067,622149944,'',,,-7.88,6.02,1.17,,0.0,0.0,0.0,1.0
1665762067722307309,,6246,,1665762067,721777915,'',,,-7.9,6.04,1.16,,0.0,0.0,0.0,1.0
1665762067822237480,,6247,,1665762067,821696996,'',,,-7.91,6.05,1.2,,0.0,0.0,0.0,1.0
1665762067922909355,,6248,,1665762067,922139883,'',,,-7.9,6.02,1.1,,0.0,0.0,0.0,1.0
1665762068022624642,,6249,,1665762068,22037029,'',,,-7.91,6.02,1.1,,0.0,0.0,0.0,1.0
1665762068122294794,,6250,,1665762068,121669054,'',,,-7.92,6.04,1.11,,0.0,0.0,0.0,1.0
1665762068222546421,,6251,,1665762068,221915960,'',,,-7.92,6.07,1.14,,0.0,0.0,0.0,1.0
1665762068322913831,,6252,,1665762068,322139024,'',,,-7.93,6.06,1.17,,0.0,0.0,0.0,1.0
1665762068423316403,,6253,,1665762068,422019004,'',,,-7.92,6.02,1.1,,0.0,0.0,0.0,1.0
1665762068522425188,,6254,,1665762068,521853923,'',,,-7.92,6.03,1.13,,0.0,0.0,0.0,1.0
1665762068622422602,,6255,,1665762068,621754884,'',,,-7.92,6.03,1.13,,0.0,0.0,0.0,1.0
1665762068722633672,,6256,,1665762068,722032070,'',,,-7.92,6.05,1.26,,0.0,0.0,0.0,1.0
1665762068822115328,,6257,,1665762068,821743965,'',,,-7.92,6.06,1.29,,0.0,0.0,0.0,1.0
1665762068923004262,,6258,,1665762068,922149896,'',,,-7.91,6.03,1.17,,0.0,0.0,0.0,1.0
1665762069022310167,,6259,,1665762069,21632909,'',,,-7.92,6.03,1.11,,0.0,0.0,0.0,1.0
1665762069122526768,,6260,,1665762069,122106075,'',,,-7.91,6.0,1.05,,0.0,0.0,0.0,1.0
1665762069223565638,,6261,,1665762069,223043918,'',,,-7.92,6.0,1.06,,0.0,0.0,0.0,1.0
1665762069322492515,,6262,,1665762069,321938991,'',,,-7.91,5.99,1.04,,0.0,0.0,0.0,1.0
1665762069422230788,,6263,,1665762069,421600103,'',,,-7.92,5.99,1.04,,0.0,0.0,0.0,1.0
1665762069522795264,,6264,,1665762069,522219896,'',,,-7.92,6.01,1.16,,0.0,0.0,0.0,1.0
1665762069622069730,,6265,,1665762069,621690034,'',,,-7.92,6.02,1.2,,0.0,0.0,0.0,1.0
1665762069723013305,,6266,,1665762069,721909046,'',,,-7.91,6.02,1.26,,0.0,0.0,0.0,1.0
1665762069822969080,,6267,,1665762069,822392940,'',,,-7.9,6.0,1.15,,0.0,0.0,0.0,1.0
1665762069922498316,,6268,,1665762069,921968936,'',,,-7.9,5.97,1.09,,0.0,0.0,0.0,1.0
1665762070022309329,,6269,,1665762070,21836042,'',,,-7.91,5.99,1.13,,0.0,0.0,0.0,1.0
1665762070122951772,,6270,,1665762070,122211933,'',,,-7.9,5.99,1.25,,0.0,0.0,0.0,1.0
1665762070222477916,,6271,,1665762070,221937894,'',,,-7.89,5.98,1.14,,0.0,0.0,0.0,1.0
1665762070322355957,,6272,,1665762070,321847915,'',,,-7.89,5.99,1.13,,0.0,0.0,0.0,1.0
1665762070422790028,,6273,,1665762070,422110080,'',,,-7.9,6.01,1.26,,0.0,0.0,0.0,1.0
1665762070522159682,,6274,,1665762070,521745920,'',,,-7.91,6.04,1.26,,0.0,0.0,0.0,1.0
1665762070623150574,,6275,,1665762070,621839046,'',,,-7.92,6.04,1.3,,0.0,0.0,0.0,1.0
1665762070722671037,,6276,,1665762070,722059011,'',,,-7.92,6.04,1.22,,0.0,0.0,0.0,1.0
1665762070822498458,,6277,,1665762070,821777105,'',,,-7.92,6.05,1.23,,0.0,0.0,0.0,1.0
1665762070922578222,,6278,,1665762070,921886920,'',,,-7.92,6.04,1.36,,0.0,0.0,0.0,1.0
1665762071022159776,,6279,,1665762071,21800994,'',,,-7.92,6.05,1.31,,0.0,0.0,0.0,1.0
1665762071122557323,,6280,,1665762071,121849060,'',,,-7.93,6.06,1.31,,0.0,0.0,0.0,1.0
1665762071222172616,,6281,,1665762071,221786975,'',,,-7.92,6.05,1.38,,0.0,0.0,0.0,1.0
1665762071322857235,,6282,,1665762071,322233915,'',,,-7.92,6.06,1.32,,0.0,0.0,0.0,1.0
1665762071422266064,,6283,,1665762071,421791076,'',,,-7.92,6.05,1.32,,0.0,0.0,0.0,1.0
1665762071523006046,,6284,,1665762071,522202014,'',,,-7.93,6.07,1.33,,0.0,0.0,0.0,1.0
1665762071622616619,,6285,,1665762071,622138023,'',,,-7.92,6.05,1.43,,0.0,0.0,0.0,1.0
1665762071722759438,,6286,,1665762071,722120046,'',,,-7.93,6.06,1.43,,0.0,0.0,0.0,1.0
1665762071822457534,,6287,,1665762071,821858882,'',,,-7.94,6.06,1.33,,0.0,0.0,0.0,1.0
1665762071922500062,,6288,,1665762071,922164916,'',,,-7.93,6.05,1.41,,0.0,0.0,0.0,1.0
1665762072022110519,,6289,,1665762072,21640062,'',,,-7.93,6.04,1.36,,0.0,0.0,0.0,1.0
1665762072122445687,,6290,,1665762072,122112989,'',,,-7.91,6.02,1.25,,0.0,0.0,0.0,1.0
1665762072222871705,,6291,,1665762072,222157001,'',,,-7.89,5.99,1.14,,0.0,0.0,0.0,1.0
1665762072323192360,,6292,,1665762072,322000026,'',,,-7.88,5.98,1.06,,0.0,0.0,0.0,1.0
1665762072422244818,,6293,,1665762072,421868085,'',,,-7.9,6.0,1.06,,0.0,0.0,0.0,1.0
1665762072523252262,,6294,,1665762072,522150039,'',,,-7.91,6.02,1.18,,0.0,0.0,0.0,1.0
1665762072622279869,,6295,,1665762072,621818065,'',,,-7.9,6.03,1.24,,0.0,0.0,0.0,1.0
1665762072722432342,,6296,,1665762072,721924066,'',,,-7.91,6.05,1.23,,0.0,0.0,0.0,1.0
1665762072822861509,,6297,,1665762072,822177886,'',,,-7.89,6.02,1.12,,0.0,0.0,0.0,1.0
1665762072922427200,,6298,,1665762072,921793937,'',,,-7.9,6.04,1.09,,0.0,0.0,0.0,1.0
1665762073022502732,,6299,,1665762073,21895885,'',,,-7.91,6.08,1.09,,0.0,0.0,0.0,1.0
1665762073122938968,,6300,,1665762073,122275114,'',,,-7.9,6.12,1.25,,0.0,0.0,0.0,1.0
1665762073222220097,,6301,,1665762073,221755981,'',,,-7.91,6.17,1.2,,0.0,0.0,0.0,1.0
1665762073322508012,,6302,,1665762073,321862936,'',,,-7.91,6.23,1.12,,0.0,0.0,0.0,1.0
1665762073422491369,,6303,,1665762073,422121047,'',,,-7.9,6.32,1.29,,0.0,0.0,0.0,1.0
1665762073515952510,,6304,,1665762073,515374898,'',,,-7.9,6.41,1.24,,0.0,0.0,0.0,1.0
1665762073622309222,,6305,,1665762073,621911048,'',,,-7.9,6.57,1.28,,0.0,0.0,0.0,1.0
1665762073722528864,,6306,,1665762073,722132921,'',,,-7.87,6.71,1.16,,0.0,0.0,0.0,1.0
1665762073823071877,,6307,,1665762073,822408914,'',,,-7.86,6.88,1.09,,0.0,0.0,0.0,1.0
1665762073923182770,,6308,,1665762073,922395944,'',,,-7.84,7.08,1.09,,0.0,0.0,0.0,1.0
1665762074023166875,,6309,,1665762074,22557020,'',,,-7.83,7.33,1.02,,0.0,0.0,0.0,1.0
1665762074122875187,,6310,,1665762074,122358083,'',,,-7.86,7.63,0.95,,0.0,0.0,0.0,1.0
1665762074222970894,,6311,,1665762074,222490072,'',,,-7.83,7.92,0.95,,0.0,0.0,0.0,1.0
1665762074324115903,,6312,,1665762074,322978973,'',,,-7.82,8.25,0.99,,0.0,0.0,0.0,1.0
1665762074423376164,,6313,,1665762074,422835111,'',,,-7.81,8.63,0.93,,0.0,0.0,0.0,1.0
1665762074523182239,,6314,,1665762074,522502899,'',,,-7.79,9.02,0.93,,0.0,0.0,0.0,1.0
1665762074623723716,,6315,,1665762074,623064994,'',,,-7.8,9.46,1.01,,0.0,0.0,0.0,1.0
1665762074722039047,,6316,,1665762074,721647024,'',,,-7.78,9.94,1.06,,0.0,0.0,0.0,1.0
1665762074823984593,,6317,,1665762074,823438882,'',,,-7.78,10.46,1.01,,0.0,0.0,0.0,1.0
1665762074922783915,,6318,,1665762074,922280073,'',,,-7.77,11.02,0.99,,0.0,0.0,0.0,1.0
1665762075023604709,,6319,,1665762075,23116111,'',,,-7.8,11.63,1.15,,0.0,0.0,0.0,1.0
1665762075123030098,,6320,,1665762075,122665882,'',,,-7.81,12.25,1.24,,0.0,0.0,0.0,1.0
1665762075223548102,,6321,,1665762075,222831010,'',,,-7.79,12.89,1.17,,0.0,0.0,0.0,1.0
1665762075322689271,,6322,,1665762075,322093009,'',,,-7.77,13.56,1.11,,0.0,0.0,0.0,1.0
1665762075423108965,,6323,,1665762075,422470092,'',,,-7.74,14.27,1.02,,0.0,0.0,0.0,1.0
1665762075524288821,,6324,,1665762075,523817062,'',,,-7.72,15.03,1.12,,0.0,0.0,0.0,1.0
1665762075624403330,,6325,,1665762075,623717069,'',,,-7.67,15.81,0.98,,0.0,0.0,0.0,1.0
1665762075723869061,,6326,,1665762075,723259925,'',,,-7.66,16.59,1.09,,0.0,0.0,0.0,1.0
1665762075823753573,,6327,,1665762075,823158979,'',,,-7.64,17.41,1.18,,0.0,0.0,0.0,1.0
1665762075924127707,,6328,,1665762075,923654079,'',,,-7.61,18.25,1.2,,0.0,0.0,0.0,1.0
1665762076023739084,,6329,,1665762076,23087978,'',,,-7.62,19.08,1.1,,0.0,0.0,0.0,1.0
1665762076123958145,,6330,,1665762076,123462915,'',,,-7.61,19.95,1.22,,0.0,0.0,0.0,1.0
1665762076223860734,,6331,,1665762076,223190069,'',,,-7.59,20.88,1.29,,0.0,0.0,0.0,1.0
1665762076324155557,,6332,,1665762076,323462009,'',,,-7.61,21.79,1.13,,0.0,0.0,0.0,1.0
1665762076424040699,,6333,,1665762076,423316001,'',,,-7.59,22.79,1.11,,0.0,0.0,0.0,1.0
1665762076523453710,,6334,,1665762076,523067951,'',,,-7.59,23.75,1.23,,0.0,0.0,0.0,1.0
1665762076623847299,,6335,,1665762076,623399972,'',,,-7.55,24.77,1.23,,0.0,0.0,0.0,1.0
1665762076724588672,,6336,,1665762076,724147081,'',,,-7.52,25.75,1.21,,0.0,0.0,0.0,1.0
1665762076824277878,,6337,,1665762076,823801040,'',,,-7.5,26.73,1.09,,0.0,0.0,0.0,1.0
1665762076923166496,,6338,,1665762076,922697067,'',,,-7.5,27.75,1.01,,0.0,0.0,0.0,1.0
1665762077023437530,,6339,,1665762077,22900104,'',,,-7.51,28.81,0.98,,0.0,0.0,0.0,1.0
1665762077123487669,,6340,,1665762077,122379064,'',,,-7.54,29.91,0.96,,0.0,0.0,0.0,1.0
1665762077223276568,,6341,,1665762077,222970962,'',,,-7.54,30.98,0.94,,0.0,0.0,0.0,1.0
1665762077323059393,,6342,,1665762077,322578907,'',,,-7.5,32.01,0.93,,0.0,0.0,0.0,1.0
1665762077423855919,,6343,,1665762077,422621965,'',,,-7.46,33.07,0.91,,0.0,0.0,0.0,1.0
1665762077524069163,,6344,,1665762077,523525953,'',,,-7.42,34.14,0.86,,0.0,0.0,0.0,1.0
1665762077623256307,,6345,,1665762077,622765064,'',,,-7.41,35.22,0.83,,0.0,0.0,0.0,1.0
1665762077723118285,,6346,,1665762077,722563982,'',,,-7.4,36.32,0.77,,0.0,0.0,0.0,1.0
1665762077822865871,,6347,,1665762077,822421073,'',,,-7.39,37.41,0.85,,0.0,0.0,0.0,1.0
1665762077923493103,,6348,,1665762077,922959089,'',,,-7.39,38.45,0.84,,0.0,0.0,0.0,1.0
1665762078022696498,,6349,,1665762078,22247076,'',,,-7.37,39.55,1.04,,0.0,0.0,0.0,1.0
1665762078124129213,,6350,,1665762078,122720003,'',,,-7.38,40.62,1.06,,0.0,0.0,0.0,1.0
1665762078223285831,,6351,,1665762078,222639083,'',,,-7.37,41.7,1.04,,0.0,0.0,0.0,1.0
1665762078322697004,,6352,,1665762078,322316884,'',,,-7.36,42.79,1.06,,0.0,0.0,0.0,1.0
1665762078423241009,,6353,,1665762078,422744035,'',,,-7.37,43.79,1.16,,0.0,0.0,0.0,1.0
1665762078523133525,,6354,,1665762078,522567987,'',,,-7.36,44.87,1.16,,0.0,0.0,0.0,1.0
1665762078623831092,,6355,,1665762078,623096942,'',,,-7.33,45.92,1.03,,0.0,0.0,0.0,1.0
1665762078723367362,,6356,,1665762078,722784042,'',,,-7.32,46.95,1.02,,0.0,0.0,0.0,1.0
1665762078823679376,,6357,,1665762078,823067903,'',,,-7.31,47.95,1.0,,0.0,0.0,0.0,1.0
1665762078922730718,,6358,,1665762078,922226905,'',,,-7.31,48.93,0.96,,0.0,0.0,0.0,1.0
1665762079023082001,,6359,,1665762079,22595882,'',,,-7.25,49.8,0.92,,0.0,0.0,0.0,1.0
1665762079122784867,,6360,,1665762079,122445106,'',,,-7.21,50.64,0.86,,0.0,0.0,0.0,1.0
1665762079222794481,,6361,,1665762079,222311973,'',,,-7.17,51.45,0.8,,0.0,0.0,0.0,1.0
1665762079323831222,,6362,,1665762079,323306083,'',,,-7.15,52.23,0.85,,0.0,0.0,0.0,1.0
1665762079423378557,,6363,,1665762079,422926902,'',,,-7.14,52.96,0.82,,0.0,0.0,0.0,1.0
1665762079523789994,,6364,,1665762079,523104906,'',,,-7.13,53.66,0.83,,0.0,0.0,0.0,1.0
1665762079624092127,,6365,,1665762079,623132944,'',,,-7.11,54.32,0.85,,0.0,0.0,0.0,1.0
1665762079723519291,,6366,,1665762079,723032951,'',,,-7.11,54.91,0.88,,0.0,0.0,0.0,1.0
1665762079823306279,,6367,,1665762079,822829008,'',,,-7.11,55.44,1.08,,0.0,0.0,0.0,1.0
1665762079923023837,,6368,,1665762079,922519922,'',,,-7.13,55.93,1.04,,0.0,0.0,0.0,1.0
1665762080023243503,,6369,,1665762080,22614955,'',,,-7.12,56.36,1.11,,0.0,0.0,0.0,1.0
1665762080124202435,,6370,,1665762080,122839927,'',,,-7.12,56.74,1.31,,0.0,0.0,0.0,1.0
1665762080223319281,,6371,,1665762080,222760915,'',,,-7.11,57.09,1.36,,0.0,0.0,0.0,1.0
1665762080323434174,,6372,,1665762080,322844982,'',,,-7.08,57.38,1.4,,0.0,0.0,0.0,1.0
1665762080423679090,,6373,,1665762080,423101902,'',,,-7.05,57.63,1.29,,0.0,0.0,0.0,1.0
1665762080523674119,,6374,,1665762080,523221015,'',,,-7.04,57.83,1.16,,0.0,0.0,0.0,1.0
1665762080623425077,,6375,,1665762080,622762918,'',,,-7.03,57.99,1.24,,0.0,0.0,0.0,1.0
1665762080723743053,,6376,,1665762080,722997903,'',,,-7.01,58.1,1.09,,0.0,0.0,0.0,1.0
1665762080822951714,,6377,,1665762080,822597026,'',,,-7.01,58.18,1.19,,0.0,0.0,0.0,1.0
1665762080923793794,,6378,,1665762080,923222064,'',,,-7.01,58.25,1.09,,0.0,0.0,0.0,1.0
1665762081023021132,,6379,,1665762081,22604942,'',,,-7.01,58.28,1.25,,0.0,0.0,0.0,1.0
1665762081123674231,,6380,,1665762081,123009920,'',,,-7.0,58.32,1.1,,0.0,0.0,0.0,1.0
1665762081223607579,,6381,,1665762081,222973108,'',,,-7.01,58.34,1.19,,0.0,0.0,0.0,1.0
1665762081323184783,,6382,,1665762081,322825908,'',,,-7.0,58.37,1.05,,0.0,0.0,0.0,1.0
1665762081422740927,,6383,,1665762081,422358989,'',,,-7.0,58.37,1.07,,0.0,0.0,0.0,1.0
1665762081523242642,,6384,,1665762081,522735118,'',,,-7.0,58.39,1.12,,0.0,0.0,0.0,1.0
1665762081622919476,,6385,,1665762081,622426033,'',,,-6.99,58.38,1.24,,0.0,0.0,0.0,1.0
1665762081723208227,,6386,,1665762081,722666025,'',,,-7.0,58.38,1.23,,0.0,0.0,0.0,1.0
1665762081825558943,,6387,,1665762081,824230909,'',,,-7.0,58.38,1.11,,0.0,0.0,0.0,1.0
1665762081923410519,,6388,,1665762081,922877073,'',,,-7.0,58.38,1.0,,0.0,0.0,0.0,1.0
1665762082023167533,,6389,,1665762082,22850990,'',,,-7.0,58.38,1.19,,0.0,0.0,0.0,1.0
1665762082123804463,,6390,,1665762082,123399019,'',,,-7.0,58.39,1.1,,0.0,0.0,0.0,1.0
1665762082223450081,,6391,,1665762082,223021984,'',,,-7.0,58.38,0.99,,0.0,0.0,0.0,1.0
1665762082324298978,,6392,,1665762082,323208093,'',,,-7.0,58.4,0.89,,0.0,0.0,0.0,1.0
1665762082423657260,,6393,,1665762082,423212051,'',,,-7.0,58.4,0.84,,0.0,0.0,0.0,1.0
1665762082523607629,,6394,,1665762082,523163080,'',,,-7.0,58.4,0.79,,0.0,0.0,0.0,1.0
1665762082623552260,,6395,,1665762082,622941970,'',,,-7.0,58.4,0.82,,0.0,0.0,0.0,1.0
1665762082723916119,,6396,,1665762082,723442077,'',,,-6.99,58.4,0.79,,0.0,0.0,0.0,1.0
1665762082824316582,,6397,,1665762082,823159933,'',,,-7.0,58.4,0.84,,0.0,0.0,0.0,1.0
1665762082923507951,,6398,,1665762082,922928094,'',,,-6.99,58.39,0.82,,0.0,0.0,0.0,1.0
1665762083023917965,,6399,,1665762083,23418903,'',,,-6.99,58.38,0.77,,0.0,0.0,0.0,1.0
1665762083123818360,,6400,,1665762083,123328924,'',,,-6.98,58.39,0.81,,0.0,0.0,0.0,1.0
1665762083223771012,,6401,,1665762083,223157882,'',,,-6.99,58.39,0.8,,0.0,0.0,0.0,1.0
1665762083323156243,,6402,,1665762083,322783946,'',,,-7.0,58.39,1.01,,0.0,0.0,0.0,1.0
1665762083423919774,,6403,,1665762083,423413038,'',,,-6.99,58.41,0.94,,0.0,0.0,0.0,1.0
1665762083523433147,,6404,,1665762083,522953033,'',,,-6.98,58.42,0.87,,0.0,0.0,0.0,1.0
1665762083623231376,,6405,,1665762083,622875928,'',,,-6.98,58.42,0.83,,0.0,0.0,0.0,1.0
1665762083723057920,,6406,,1665762083,722574949,'',,,-6.99,58.42,0.99,,0.0,0.0,0.0,1.0
1665762083823570840,,6407,,1665762083,822974920,'',,,-6.99,58.41,1.1,,0.0,0.0,0.0,1.0
1665762083924037531,,6408,,1665762083,923293113,'',,,-6.99,58.41,1.0,,0.0,0.0,0.0,1.0
1665762084023414209,,6409,,1665762084,22984981,'',,,-7.0,58.41,0.91,,0.0,0.0,0.0,1.0
1665762084125037360,,6410,,1665762084,123675107,'',,,-7.0,58.4,0.86,,0.0,0.0,0.0,1.0
1665762084224090016,,6411,,1665762084,222965955,'',,,-6.99,58.41,0.86,,0.0,0.0,0.0,1.0
1665762084323074086,,6412,,1665762084,322757959,'',,,-7.01,58.39,1.02,,0.0,0.0,0.0,1.0
1665762084424235762,,6413,,1665762084,423252105,'',,,-6.99,58.39,0.91,,0.0,0.0,0.0,1.0
1665762084523520578,,6414,,1665762084,522802114,'',,,-7.0,58.38,1.06,,0.0,0.0,0.0,1.0
1665762084623476792,,6415,,1665762084,623008966,'',,,-7.0,58.38,0.97,,0.0,0.0,0.0,1.0
1665762084724410403,,6416,,1665762084,722964048,'',,,-7.0,58.38,1.18,,0.0,0.0,0.0,1.0
1665762084824197593,,6417,,1665762084,823649883,'',,,-6.99,58.4,1.05,,0.0,0.0,0.0,1.0
1665762084923439246,,6418,,1665762084,922871112,'',,,-6.98,58.41,1.26,,0.0,0.0,0.0,1.0
1665762085024017757,,6419,,1665762085,23298025,'',,,-6.99,58.41,1.1,,0.0,0.0,0.0,1.0
1665762085123852615,,6420,,1665762085,123367071,'',,,-6.99,58.42,0.98,,0.0,0.0,0.0,1.0
1665762085223298804,,6421,,1665762085,222819089,'',,,-7.0,58.41,1.21,,0.0,0.0,0.0,1.0
1665762085323737258,,6422,,1665762085,322889089,'',,,-7.0,58.42,1.23,,0.0,0.0,0.0,1.0
1665762085423277708,,6423,,1665762085,422943115,'',,,-6.99,58.43,1.35,,0.0,0.0,0.0,1.0
1665762085523627767,,6424,,1665762085,523047924,'',,,-6.99,58.42,1.2,,0.0,0.0,0.0,1.0
1665762085624000347,,6425,,1665762085,623373031,'',,,-6.99,58.4,1.05,,0.0,0.0,0.0,1.0
1665762085723452962,,6426,,1665762085,722986936,'',,,-6.98,58.4,0.96,,0.0,0.0,0.0,1.0
1665762085823667069,,6427,,1665762085,822880983,'',,,-6.99,58.4,1.11,,0.0,0.0,0.0,1.0
1665762085923759699,,6428,,1665762085,923080921,'',,,-6.99,58.38,1.24,,0.0,0.0,0.0,1.0
1665762086023762904,,6429,,1665762086,23191928,'',,,-6.98,58.39,1.1,,0.0,0.0,0.0,1.0
1665762086123814857,,6430,,1665762086,123146057,'',,,-6.99,58.39,1.02,,0.0,0.0,0.0,1.0
1665762086223543795,,6431,,1665762086,223117113,'',,,-6.98,58.4,0.94,,0.0,0.0,0.0,1.0
1665762086323513932,,6432,,1665762086,323090076,'',,,-6.99,58.41,1.12,,0.0,0.0,0.0,1.0
1665762086423591676,,6433,,1665762086,423083066,'',,,-6.99,58.39,1.0,,0.0,0.0,0.0,1.0
1665762086523632002,,6434,,1665762086,523065090,'',,,-7.0,58.39,1.09,,0.0,0.0,0.0,1.0
1665762086623269442,,6435,,1665762086,622878074,'',,,-7.01,58.39,1.22,,0.0,0.0,0.0,1.0
1665762086723020186,,6436,,1665762086,722596883,'',,,-7.01,58.39,1.34,,0.0,0.0,0.0,1.0
1665762086823374232,,6437,,1665762086,822860002,'',,,-7.01,58.39,1.39,,0.0,0.0,0.0,1.0
1665762086923547227,,6438,,1665762086,923031091,'',,,-7.01,58.4,1.52,,0.0,0.0,0.0,1.0
1665762087023588890,,6439,,1665762087,22924900,'',,,-7.02,58.38,1.57,,0.0,0.0,0.0,1.0
1665762087123675085,,6440,,1665762087,123255968,'',,,-7.0,58.39,1.34,,0.0,0.0,0.0,1.0
1665762087224210682,,6441,,1665762087,223417043,'',,,-7.0,58.4,1.16,,0.0,0.0,0.0,1.0
1665762087323731212,,6442,,1665762087,323148965,'',,,-7.0,58.39,1.05,,0.0,0.0,0.0,1.0
1665762087423516199,,6443,,1665762087,423068046,'',,,-7.0,58.4,0.95,,0.0,0.0,0.0,1.0
1665762087523685194,,6444,,1665762087,523034095,'',,,-7.0,58.4,0.87,,0.0,0.0,0.0,1.0
1665762087623554394,,6445,,1665762087,622900962,'',,,-7.0,58.4,0.97,,0.0,0.0,0.0,1.0
1665762087723197788,,6446,,1665762087,722774982,'',,,-7.0,58.4,1.06,,0.0,0.0,0.0,1.0
1665762087823924760,,6447,,1665762087,823452949,'',,,-7.0,58.39,1.02,,0.0,0.0,0.0,1.0
1665762087923581092,,6448,,1665762087,922982931,'',,,-7.0,58.41,0.92,,0.0,0.0,0.0,1.0
1665762088023267454,,6449,,1665762088,22810935,'',,,-7.0,58.39,1.09,,0.0,0.0,0.0,1.0
1665762088123071973,,6450,,1665762088,122701883,'',,,-7.0,58.4,1.14,,0.0,0.0,0.0,1.0
1665762088223561750,,6451,,1665762088,223048925,'',,,-7.0,58.39,1.33,,0.0,0.0,0.0,1.0
1665762088323669040,,6452,,1665762088,323203086,'',,,-7.0,58.4,1.15,,0.0,0.0,0.0,1.0
1665762088424034462,,6453,,1665762088,422971010,'',,,-7.0,58.4,1.03,,0.0,0.0,0.0,1.0
1665762088523967431,,6454,,1665762088,523462057,'',,,-7.0,58.41,0.96,,0.0,0.0,0.0,1.0
1665762088624383139,,6455,,1665762088,623650074,'',,,-6.99,58.41,0.91,,0.0,0.0,0.0,1.0
1665762088724013767,,6456,,1665762088,723546981,'',,,-7.0,58.41,0.85,,0.0,0.0,0.0,1.0
1665762088823965312,,6457,,1665762088,822942972,'',,,-7.0,58.41,1.0,,0.0,0.0,0.0,1.0
1665762088924110949,,6458,,1665762088,923429965,'',,,-6.99,58.42,0.9,,0.0,0.0,0.0,1.0
1665762089023627728,,6459,,1665762089,23030042,'',,,-7.0,58.41,1.06,,0.0,0.0,0.0,1.0
1665762089123397569,,6460,,1665762089,122831106,'',,,-7.01,58.4,1.25,,0.0,0.0,0.0,1.0
1665762089223668408,,6461,,1665762089,223221063,'',,,-7.0,58.4,1.11,,0.0,0.0,0.0,1.0
1665762089323501493,,6462,,1665762089,323018074,'',,,-7.0,58.41,1.21,,0.0,0.0,0.0,1.0
1665762089423388724,,6463,,1665762089,423082113,'',,,-7.0,58.41,1.09,,0.0,0.0,0.0,1.0
1665762089523661660,,6464,,1665762089,523226976,'',,,-6.98,58.41,0.97,,0.0,0.0,0.0,1.0
1665762089623701748,,6465,,1665762089,623071908,'',,,-6.99,58.41,0.93,,0.0,0.0,0.0,1.0
1665762089723216467,,6466,,1665762089,722892999,'',,,-6.99,58.4,0.88,,0.0,0.0,0.0,1.0
1665762089823978605,,6467,,1665762089,823451042,'',,,-6.99,58.4,0.85,,0.0,0.0,0.0,1.0
1665762089923503078,,6468,,1665762089,922943115,'',,,-7.0,58.4,0.99,,0.0,0.0,0.0,1.0
1665762090023214763,,6469,,1665762090,22696018,'',,,-7.01,58.39,1.17,,0.0,0.0,0.0,1.0
1665762090123964508,,6470,,1665762090,123294115,'',,,-7.0,58.4,1.05,,0.0,0.0,0.0,1.0
1665762090223504890,,6471,,1665762090,223006010,'',,,-7.0,58.41,0.95,,0.0,0.0,0.0,1.0
1665762090323888244,,6472,,1665762090,322894096,'',,,-7.01,58.39,1.16,,0.0,0.0,0.0,1.0
1665762090423865359,,6473,,1665762090,423257112,'',,,-7.01,58.39,1.04,,0.0,0.0,0.0,1.0
1665762090523495299,,6474,,1665762090,523034095,'',,,-7.02,58.39,1.16,,0.0,0.0,0.0,1.0
1665762090624077811,,6475,,1665762090,623578071,'',,,-7.01,58.39,1.09,,0.0,0.0,0.0,1.0
1665762090723675563,,6476,,1665762090,723112106,'',,,-7.01,58.39,0.98,,0.0,0.0,0.0,1.0
1665762090823854794,,6477,,1665762090,823152065,'',,,-7.01,58.39,1.22,,0.0,0.0,0.0,1.0
1665762090923256967,,6478,,1665762090,922669887,'',,,-7.03,58.4,1.22,,0.0,0.0,0.0,1.0
1665762091023393554,,6479,,1665762091,22800922,'',,,-7.02,58.41,1.21,,0.0,0.0,0.0,1.0
1665762091124076789,,6480,,1665762091,123265981,'',,,-7.01,58.42,1.08,,0.0,0.0,0.0,1.0
1665762091223363638,,6481,,1665762091,223016023,'',,,-7.01,58.42,0.99,,0.0,0.0,0.0,1.0
1665762091323415372,,6482,,1665762091,322995901,'',,,-7.0,58.42,0.94,,0.0,0.0,0.0,1.0
1665762091423883914,,6483,,1665762091,423266887,'',,,-7.0,58.41,0.88,,0.0,0.0,0.0,1.0
1665762091523199209,,6484,,1665762091,522854089,'',,,-7.0,58.39,1.1,,0.0,0.0,0.0,1.0
1665762091623530930,,6485,,1665762091,623138904,'',,,-7.01,58.39,1.25,,0.0,0.0,0.0,1.0
1665762091724150166,,6486,,1665762091,723484992,'',,,-7.0,58.39,1.13,,0.0,0.0,0.0,1.0
1665762091823662553,,6487,,1665762091,823195934,'',,,-6.99,58.4,1.02,,0.0,0.0,0.0,1.0
1665762091923131888,,6488,,1665762091,922763109,'',,,-7.01,58.39,1.19,,0.0,0.0,0.0,1.0
1665762092023743156,,6489,,1665762092,23437976,'',,,-7.0,58.4,1.05,,0.0,0.0,0.0,1.0
1665762092123548450,,6490,,1665762092,122632026,'',,,-7.01,58.4,1.11,,0.0,0.0,0.0,1.0
1665762092223989227,,6491,,1665762092,223332881,'',,,-7.01,58.4,0.99,,0.0,0.0,0.0,1.0
1665762092324288759,,6492,,1665762092,323287963,'',,,-7.01,58.39,1.17,,0.0,0.0,0.0,1.0
1665762092423586633,,6493,,1665762092,423175096,'',,,-7.01,58.39,1.03,,0.0,0.0,0.0,1.0
1665762092523627840,,6494,,1665762092,522938966,'',,,-7.01,58.38,1.16,,0.0,0.0,0.0,1.0
1665762092623831339,,6495,,1665762092,623231887,'',,,-7.01,58.4,1.02,,0.0,0.0,0.0,1.0
1665762092724129753,,6496,,1665762092,723367929,'',,,-7.0,58.4,0.93,,0.0,0.0,0.0,1.0
1665762092823944342,,6497,,1665762092,823484897,'',,,-7.01,58.4,0.87,,0.0,0.0,0.0,1.0
1665762092923506959,,6498,,1665762092,923039913,'',,,-7.01,58.4,1.09,,0.0,0.0,0.0,1.0
1665762093023645547,,6499,,1665762093,23087978,'',,,-7.01,58.4,1.02,,0.0,0.0,0.0,1.0
1665762093123927806,,6500,,1665762093,123327970,'',,,-7.01,58.4,0.92,,0.0,0.0,0.0,1.0
1665762093224194195,,6501,,1665762093,223491907,'',,,-7.01,58.39,0.95,,0.0,0.0,0.0,1.0
1665762093323211606,,6502,,1665762093,322882890,'',,,-7.01,58.39,1.13,,0.0,0.0,0.0,1.0
1665762093422960880,,6503,,1665762093,422650098,'',,,-7.0,58.39,1.21,,0.0,0.0,0.0,1.0
1665762093523890105,,6504,,1665762093,523447990,'',,,-6.99,58.39,1.09,,0.0,0.0,0.0,1.0
1665762093623543697,,6505,,1665762093,622988939,'',,,-7.0,58.38,1.25,,0.0,0.0,0.0,1.0
1665762093724275453,,6506,,1665762093,723732948,'',,,-7.01,58.38,1.17,,0.0,0.0,0.0,1.0
1665762093823801796,,6507,,1665762093,823379039,'',,,-7.0,58.38,1.06,,0.0,0.0,0.0,1.0
1665762093923760811,,6508,,1665762093,923271894,'',,,-7.0,58.37,0.96,,0.0,0.0,0.0,1.0
1665762094024175946,,6509,,1665762094,22898912,'',,,-7.0,58.38,1.18,,0.0,0.0,0.0,1.0
1665762094124031881,,6510,,1665762094,123224020,'',,,-7.01,58.38,1.36,,0.0,0.0,0.0,1.0
1665762094223761103,,6511,,1665762094,223128080,'',,,-7.01,58.38,1.17,,0.0,0.0,0.0,1.0
1665762094323531338,,6512,,1665762094,322978973,'',,,-7.01,58.38,1.17,,0.0,0.0,0.0,1.0
1665762094423517431,,6513,,1665762094,423041105,'',,,-7.01,58.37,1.03,,0.0,0.0,0.0,1.0
1665762094523969382,,6514,,1665762094,523294925,'',,,-7.0,58.38,0.97,,0.0,0.0,0.0,1.0
1665762094623336323,,6515,,1665762094,622874021,'',,,-7.01,58.38,1.17,,0.0,0.0,0.0,1.0
1665762094724083789,,6516,,1665762094,723489999,'',,,-7.0,58.4,1.09,,0.0,0.0,0.0,1.0
1665762094824974327,,6517,,1665762094,823751926,'',,,-7.0,58.4,1.05,,0.0,0.0,0.0,1.0
1665762094923385351,,6518,,1665762094,922679901,'',,,-7.0,58.4,1.2,,0.0,0.0,0.0,1.0
1665762095023982702,,6519,,1665762095,23319005,'',,,-7.01,58.4,1.35,,0.0,0.0,0.0,1.0
1665762095124109983,,6520,,1665762095,123176097,'',,,-7.0,58.39,1.17,,0.0,0.0,0.0,1.0
1665762095223576596,,6521,,1665762095,223149061,'',,,-7.0,58.4,1.04,,0.0,0.0,0.0,1.0
1665762095323622837,,6522,,1665762095,323151111,'',,,-7.0,58.39,1.22,,0.0,0.0,0.0,1.0
1665762095423301921,,6523,,1665762095,422909021,'',,,-7.01,58.39,1.35,,0.0,0.0,0.0,1.0
1665762095523735373,,6524,,1665762095,523183107,'',,,-7.01,58.39,1.19,,0.0,0.0,0.0,1.0
1665762095623499122,,6525,,1665762095,623063087,'',,,-7.01,58.38,1.1,,0.0,0.0,0.0,1.0
1665762095724208813,,6526,,1665762095,723099946,'',,,-7.0,58.39,1.0,,0.0,0.0,0.0,1.0
1665762095824089675,,6527,,1665762095,822838068,'',,,-7.0,58.39,1.21,,0.0,0.0,0.0,1.0
1665762095924070581,,6528,,1665762095,923461914,'',,,-7.01,58.39,1.11,,0.0,0.0,0.0,1.0
1665762096023252325,,6529,,1665762096,22674083,'',,,-7.01,58.39,1.23,,0.0,0.0,0.0,1.0
1665762096123664089,,6530,,1665762096,123239994,'',,,-7.01,58.4,1.1,,0.0,0.0,0.0,1.0
1665762096224412880,,6531,,1665762096,223925113,'',,,-7.0,58.4,0.98,,0.0,0.0,0.0,1.0
1665762096323203884,,6532,,1665762096,322812080,'',,,-7.01,58.39,1.19,,0.0,0.0,0.0,1.0
1665762096423816954,,6533,,1665762096,423321008,'',,,-7.0,58.39,1.05,,0.0,0.0,0.0,1.0
1665762096524773062,,6534,,1665762096,523261070,'',,,-7.01,58.38,1.19,,0.0,0.0,0.0,1.0
1665762096623591625,,6535,,1665762096,622986078,'',,,-7.0,58.39,1.13,,0.0,0.0,0.0,1.0
1665762096724397579,,6536,,1665762096,723774909,'',,,-7.0,58.39,1.02,,0.0,0.0,0.0,1.0
1665762096816321619,,6537,,1665762096,815911054,'',,,-6.96,58.48,0.92,,0.0,0.0,0.0,1.0
1665762096923858432,,6538,,1665762096,923381090,'',,,-6.97,58.46,0.85,,0.0,0.0,0.0,1.0
1665762097023447521,,6539,,1665762097,23128032,'',,,-6.97,58.44,0.81,,0.0,0.0,0.0,1.0
1665762097123552707,,6540,,1665762097,122950077,'',,,-6.98,58.42,1.02,,0.0,0.0,0.0,1.0
1665762097223649616,,6541,,1665762097,223248958,'',,,-6.98,58.42,0.93,,0.0,0.0,0.0,1.0
1665762097323994159,,6542,,1665762097,323338031,'',,,-6.99,58.41,0.85,,0.0,0.0,0.0,1.0
1665762097424458297,,6543,,1665762097,423593997,'',,,-7.0,58.4,0.83,,0.0,0.0,0.0,1.0
1665762097524215758,,6544,,1665762097,523581981,'',,,-6.99,58.4,0.79,,0.0,0.0,0.0,1.0
1665762097623876159,,6545,,1665762097,623203039,'',,,-6.99,58.41,1.04,,0.0,0.0,0.0,1.0
1665762097723864820,,6546,,1665762097,723443984,'',,,-7.0,58.41,0.94,,0.0,0.0,0.0,1.0
1665762097823446693,,6547,,1665762097,822907924,'',,,-7.0,58.41,1.03,,0.0,0.0,0.0,1.0
1665762097924048698,,6548,,1665762097,923393011,'',,,-7.01,58.4,0.93,,0.0,0.0,0.0,1.0
1665762098023940587,,6549,,1665762098,23401021,'',,,-7.0,58.41,0.89,,0.0,0.0,0.0,1.0
1665762098123899776,,6550,,1665762098,123332023,'',,,-7.0,58.4,0.85,,0.0,0.0,0.0,1.0
1665762098223633292,,6551,,1665762098,222965955,'',,,-7.01,58.4,0.95,,0.0,0.0,0.0,1.0
1665762098323597217,,6552,,1665762098,322988986,'',,,-7.01,58.4,1.02,,0.0,0.0,0.0,1.0
1665762098423797607,,6553,,1665762098,423434972,'',,,-7.01,58.39,0.96,,0.0,0.0,0.0,1.0
1665762098524158869,,6554,,1665762098,523550033,'',,,-7.01,58.4,0.87,,0.0,0.0,0.0,1.0
1665762098623767656,,6555,,1665762098,623061895,'',,,-7.01,58.4,1.05,,0.0,0.0,0.0,1.0
1665762098723593635,,6556,,1665762098,723174095,'',,,-7.0,58.39,0.95,,0.0,0.0,0.0,1.0
1665762098823909899,,6557,,1665762098,823240995,'',,,-6.99,58.39,0.88,,0.0,0.0,0.0,1.0
1665762098923507617,,6558,,1665762098,923156976,'',,,-7.0,58.38,1.1,,0.0,0.0,0.0,1.0
1665762099023204004,,6559,,1665762099,22739887,'',,,-6.99,58.39,1.23,,0.0,0.0,0.0,1.0
1665762099123479733,,6560,,1665762099,122929096,'',,,-6.99,58.39,1.31,,0.0,0.0,0.0,1.0
1665762099225043177,,6561,,1665762099,223685026,'',,,-6.99,58.4,1.17,,0.0,0.0,0.0,1.0
1665762099324818005,,6562,,1665762099,323311090,'',,,-6.99,58.4,1.05,,0.0,0.0,0.0,1.0
1665762099423625347,,6563,,1665762099,422997951,'',,,-7.0,58.4,1.15,,0.0,0.0,0.0,1.0
1665762099525330091,,6564,,1665762099,523580074,'',,,-7.01,58.39,1.01,,0.0,0.0,0.0,1.0
1665762099623688454,,6565,,1665762099,623260974,'',,,-7.01,58.41,0.92,,0.0,0.0,0.0,1.0
1665762099724193156,,6566,,1665762099,723530054,'',,,-7.01,58.41,0.88,,0.0,0.0,0.0,1.0
1665762099823833615,,6567,,1665762099,823148965,'',,,-7.02,58.41,0.97,,0.0,0.0,0.0,1.0
1665762099923169863,,6568,,1665762099,922688961,'',,,-7.02,58.41,1.13,,0.0,0.0,0.0,1.0
1665762100023790204,,6569,,1665762100,23334026,'',,,-7.02,58.4,1.0,,0.0,0.0,0.0,1.0
1665762100124082417,,6570,,1665762100,123450040,'',,,-7.02,58.39,1.1,,0.0,0.0,0.0,1.0
1665762100224462164,,6571,,1665762100,223330020,'',,,-7.01,58.39,0.98,,0.0,0.0,0.0,1.0
1665762100323772981,,6572,,1665762100,323046922,'',,,-7.02,58.38,1.16,,0.0,0.0,0.0,1.0
1665762100423675554,,6573,,1665762100,423144102,'',,,-7.01,58.38,1.26,,0.0,0.0,0.0,1.0
1665762100524215721,,6574,,1665762100,523547887,'',,,-7.0,58.38,1.14,,0.0,0.0,0.0,1.0
1665762100623636602,,6575,,1665762100,623019933,'',,,-7.02,58.39,1.22,,0.0,0.0,0.0,1.0
1665762100723877995,,6576,,1665762100,723169088,'',,,-7.01,58.38,1.33,,0.0,0.0,0.0,1.0
1665762100823846493,,6577,,1665762100,823335886,'',,,-7.01,58.38,1.15,,0.0,0.0,0.0,1.0
1665762100923716901,,6578,,1665762100,923283100,'',,,-7.01,58.39,1.22,,0.0,0.0,0.0,1.0
1665762101024189493,,6579,,1665762101,23528099,'',,,-7.01,58.39,1.08,,0.0,0.0,0.0,1.0
1665762101123626948,,6580,,1665762101,123050928,'',,,-7.02,58.39,1.24,,0.0,0.0,0.0,1.0
1665762101223626970,,6581,,1665762101,223385095,'',,,-7.01,58.38,1.11,,0.0,0.0,0.0,1.0
1665762101323989107,,6582,,1665762101,323440074,'',,,-7.0,58.39,1.0,,0.0,0.0,0.0,1.0
1665762101423289602,,6583,,1665762101,422923088,'',,,-7.01,58.39,1.09,,0.0,0.0,0.0,1.0
1665762101516594590,,6584,,1665762101,516105890,'',,,-7.1,58.38,0.96,,0.0,0.0,0.0,1.0
1665762101624101144,,6585,,1665762101,623548030,'',,,-7.09,58.38,0.88,,0.0,0.0,0.0,1.0
1665762101723122416,,6586,,1665762101,722784042,'',,,-7.07,58.39,0.97,,0.0,0.0,0.0,1.0
1665762101823487978,,6587,,1665762101,822885036,'',,,-7.06,58.38,1.06,,0.0,0.0,0.0,1.0
1665762101923988128,,6588,,1665762101,923258066,'',,,-7.06,58.37,1.21,,0.0,0.0,0.0,1.0
1665762102023257890,,6589,,1665762102,22645950,'',,,-7.05,58.37,1.25,,0.0,0.0,0.0,1.0
1665762102123919614,,6590,,1665762102,123397111,'',,,-7.06,58.38,1.31,,0.0,0.0,0.0,1.0
1665762102223810564,,6591,,1665762102,223170995,'',,,-7.05,58.39,1.27,,0.0,0.0,0.0,1.0
1665762102324238494,,6592,,1665762102,323378086,'',,,-7.04,58.38,1.11,,0.0,0.0,0.0,1.0
1665762102423706815,,6593,,1665762102,423197031,'',,,-7.04,58.39,1.17,,0.0,0.0,0.0,1.0
1665762102523802678,,6594,,1665762102,523194074,'',,,-7.03,58.39,1.19,,0.0,0.0,0.0,1.0
1665762102623823762,,6595,,1665762102,623200893,'',,,-7.03,58.39,1.25,,0.0,0.0,0.0,1.0
1665762102724050714,,6596,,1665762102,723428010,'',,,-7.04,58.38,1.36,,0.0,0.0,0.0,1.0
1665762102824028708,,6597,,1665762102,823419094,'',,,-7.03,58.38,1.44,,0.0,0.0,0.0,1.0
1665762102923537390,,6598,,1665762102,923151969,'',,,-7.03,58.37,1.44,,0.0,0.0,0.0,1.0
1665762103023516998,,6599,,1665762103,23175001,'',,,-7.04,58.37,1.4,,0.0,0.0,0.0,1.0
1665762103124145701,,6600,,1665762103,123579978,'',,,-7.04,58.39,1.43,,0.0,0.0,0.0,1.0
1665762103223484910,,6601,,1665762103,222975015,'',,,-7.04,58.39,1.48,,0.0,0.0,0.0,1.0
